,USPS,ST,NAME,ZCTA5,LAT,LON
0,Baranya,BA,Szárász,7188,46.349,18.3736
1,Baranya,BA,Komló,7300,46.1928,18.2649
2,Baranya,BA,Mánfa,7304,46.1667,18.25
3,Baranya,BA,Mecsekpölöske,7305,46.2221,18.2112
4,Baranya,BA,Liget,7331,46.236,18.1921
5,Baranya,BA,Magyaregregy,7332,46.2527,18.3119
6,Baranya,BA,Kárász,7333,46.2643,18.312
7,Baranya,BA,Vékény,7333,46.2687,18.3416
8,Baranya,BA,Köblény,7334,46.2955,18.3025
9,Baranya,BA,Szalatnak,7334,46.29,18.2812
10,Baranya,BA,Mágocs,7342,46.35,18.2324
11,Baranya,BA,Nagyhajmás,7343,46.3754,18.2888
12,Baranya,BA,Mekényes,7344,46.3912,18.3334
13,Baranya,BA,Alsómocsolád,7345,46.3142,18.2479
14,Baranya,BA,Bikal,7346,46.3311,18.283
15,Baranya,BA,Egyházaskozár,7347,46.3318,18.3177
16,Baranya,BA,Tófű,7348,46.3111,18.3571
17,Baranya,BA,Hegyhátmaróc,7348,46.3112,18.3366
18,Baranya,BA,Szászvár,7349,46.2767,18.3757
19,Baranya,BA,Máza,7351,46.2674,18.3972
20,Baranya,BA,Felsőegerszeg,7370,46.2544,18.1341
21,Baranya,BA,Meződ,7370,46.2904,18.1026
22,Baranya,BA,Palé,7370,46.2602,18.07
23,Baranya,BA,Oroszló,7370,46.2184,18.1233
24,Baranya,BA,Varga,7370,46.2472,18.1431
25,Baranya,BA,Sásd,7370,46.2552,18.1078
26,Baranya,BA,Vázsnok,7370,46.2653,18.1248
27,Baranya,BA,Tékes,7381,46.2874,18.1783
28,Baranya,BA,Kisvaszar,7381,46.2745,18.2148
29,Baranya,BA,Ág,7381,46.2833,18.2
30,Baranya,BA,Szágy,7383,46.2243,17.9468
31,Baranya,BA,Tormás,7383,46.2333,18
32,Baranya,BA,Baranyaszentgyörgy,7383,46.2445,18.0139
33,Baranya,BA,Baranyajenő,7384,46.2727,18.0449
34,Baranya,BA,Gödre,7385,46.2861,17.9729
35,Baranya,BA,Gödre,7386,46.2861,17.9729
36,Baranya,BA,Kishajmás,7391,46.1993,18.0809
37,Baranya,BA,Kisbeszterce,7391,46.2054,18.0347
38,Baranya,BA,Mindszentgodisa,7391,46.2246,18.0623
39,Baranya,BA,Bakóca,7393,46.2069,18.0007
40,Baranya,BA,Magyarhertelend,7394,46.1895,18.1491
41,Baranya,BA,Bodolyabér,7394,46.2014,18.1111
42,Baranya,BA,Magyarszék,7396,46.1973,18.1973
43,Baranya,BA,Pécs,7600,46.0945,18.2268
44,Baranya,BA,Pécs,7621,46.0833,18.2333
45,Baranya,BA,Pécs,7622,46.0833,18.2333
46,Baranya,BA,Pécs,7623,46.0833,18.2333
47,Baranya,BA,Pécs,7624,46.0833,18.2333
48,Baranya,BA,Pécs,7625,46.0833,18.2333
49,Baranya,BA,Pécs,7626,46.0833,18.2333
50,Baranya,BA,Pécs,7627,46.0833,18.2333
51,Baranya,BA,Pécs,7628,46.0833,18.2333
52,Baranya,BA,Pécs,7629,46.0833,18.2333
53,Baranya,BA,Pécs,7630,46.0833,18.2333
54,Baranya,BA,Pécs,7631,46.0833,18.2333
55,Baranya,BA,Pécs,7632,46.0833,18.2333
56,Baranya,BA,Pécs,7633,46.0833,18.2333
57,Baranya,BA,Pécs,7634,46.0833,18.2333
58,Baranya,BA,Pécs,7635,46.0833,18.2333
59,Baranya,BA,Pécs,7636,46.0833,18.2333
60,Baranya,BA,Kökény,7639,46.0008,18.2049
61,Baranya,BA,Pécs,7639,46.0833,18.2333
62,Baranya,BA,Kátoly,7661,46.0596,18.4517
63,Baranya,BA,Szellő,7661,46.0735,18.4611
64,Baranya,BA,Kékesd,7661,46.1025,18.4732
65,Baranya,BA,Erzsébet,7661,46.1004,18.4567
66,Baranya,BA,Máriakéménd,7663,46.027,18.4618
67,Baranya,BA,Pereked,7664,46.0937,18.3765
68,Baranya,BA,Berkesd,7664,46.0757,18.4088
69,Baranya,BA,Szilágy,7664,46.1012,18.4074
70,Baranya,BA,Pogány,7666,45.98,18.26
71,Baranya,BA,Pécs,7668,46.0833,18.2333
72,Baranya,BA,Keszü,7668,46.0151,18.1901
73,Baranya,BA,Gyód,7668,45.9958,18.1786
74,Baranya,BA,Aranyosgadány,7671,46.0063,18.1206
75,Baranya,BA,Zók,7671,46.0093,18.0969
76,Baranya,BA,Bicsérd,7671,46.0229,18.0813
77,Baranya,BA,Boda,7672,46.0806,18.049
78,Baranya,BA,Cserkút,7673,46.0757,18.135
79,Baranya,BA,Kővágószőlős,7673,46.0841,18.1267
80,Baranya,BA,Kővágótöttös,7675,46.0852,18.0831
81,Baranya,BA,Bakonya,7675,46.0852,18.0831
82,Baranya,BA,Orfű,7677,46.1333,18.15
83,Baranya,BA,Husztót,7678,46.1667,18.0833
84,Baranya,BA,Abaliget,7678,46.1426,18.1168
85,Baranya,BA,Kovácsszénája,7678,46.171,18.1097
86,Baranya,BA,Hetvehely,7681,46.1331,18.0438
87,Baranya,BA,Okorvölgy,7681,46.1524,18.0589
88,Baranya,BA,Szentkatalin,7681,46.174,18.0501
89,Baranya,BA,Bükkösd,7682,46.1075,17.9882
90,Baranya,BA,Cserdi,7683,46.0831,17.9904
91,Baranya,BA,Helesfa,7683,46.0898,17.976
92,Baranya,BA,Dinnyeberki,7683,46.0977,17.9566
93,Baranya,BA,Pécs,7691,46.0833,18.2333
94,Baranya,BA,Pécs,7693,46.0833,18.2333
95,Baranya,BA,Hosszúhetény,7694,46.1641,18.3508
96,Baranya,BA,Mecseknádasd,7695,46.2247,18.4708
97,Baranya,BA,Ófalu,7695,46.2208,18.5324
98,Baranya,BA,Óbánya,7695,46.221,18.4103
99,Baranya,BA,Hidas,7696,46.2568,18.4954
100,Baranya,BA,Mohács,7700,45.9902,18.6862
101,Baranya,BA,Bár,7711,46.0531,18.7164
102,Baranya,BA,Dunaszekcső,7712,46.0874,18.7587
103,Baranya,BA,Mohács,7714,45.9902,18.6862
104,Baranya,BA,Mohács,7715,45.9902,18.6862
105,Baranya,BA,Homorúd,7716,45.9814,18.7922
106,Baranya,BA,Kölked,7717,45.9503,18.7078
107,Baranya,BA,Udvar,7718,45.9006,18.6597
108,Baranya,BA,Lovászhetény,7720,46.1559,18.4739
109,Baranya,BA,Pécsvárad,7720,46.1603,18.4232
110,Baranya,BA,Zengővárkony,7720,46.1726,18.432
111,Baranya,BA,Martonfa,7720,46.1163,18.3718
112,Baranya,BA,Apátvarasd,7720,46.1868,18.4804
113,Baranya,BA,Erdősmecske,7723,46.1773,18.5114
114,Baranya,BA,Feked,7724,46.1619,18.5588
115,Baranya,BA,Szebény,7725,46.1315,18.5859
116,Baranya,BA,Véménd,7726,46.1563,18.6153
117,Baranya,BA,Palotabozsok,7727,46.1269,18.642
118,Baranya,BA,Somberek,7728,46.0805,18.6589
119,Baranya,BA,Görcsönydoboka,7728,46.071,18.627
120,Baranya,BA,Nagypall,7731,46.1443,18.4558
121,Baranya,BA,Fazekasboda,7732,46.1245,18.4842
122,Baranya,BA,Maráza,7733,46.0753,18.5133
123,Baranya,BA,Geresdlak,7733,46.1084,18.5236
124,Baranya,BA,Szűr,7735,46.1,18.5833
125,Baranya,BA,Himesháza,7735,46.0882,18.57
126,Baranya,BA,Erdősmárok,7735,46.0567,18.5451
127,Baranya,BA,Székelyszabar,7737,46.0445,18.604
128,Baranya,BA,Nagykozár,7741,46.066,18.3199
129,Baranya,BA,Bogád,7742,46.0873,18.3231
130,Baranya,BA,Romonya,7743,46.0872,18.3394
131,Baranya,BA,Ellend,7744,46.0597,18.3754
132,Baranya,BA,Olasz,7745,46.0096,18.4144
133,Baranya,BA,Hásságy,7745,46.0347,18.3872
134,Baranya,BA,Belvárdgyula,7747,45.973,18.4329
135,Baranya,BA,Birján,7747,45.9979,18.375
136,Baranya,BA,Monyoród,7751,46.0104,18.4764
137,Baranya,BA,Szederkény,7751,46.0007,18.4484
138,Baranya,BA,Versend,7752,45.9964,18.5117
139,Baranya,BA,Szajk,7753,45.9927,18.5346
140,Baranya,BA,Bóly,7754,45.9672,18.5183
141,Baranya,BA,Töttös,7755,45.9156,18.5422
142,Baranya,BA,Borjád,7756,45.9339,18.4672
143,Baranya,BA,Kisbudmér,7756,45.9125,18.4475
144,Baranya,BA,Pócsa,7756,45.9097,18.4708
145,Baranya,BA,Nagybudmér,7756,45.9361,18.4456
146,Baranya,BA,Liptód,7757,46.0457,18.5163
147,Baranya,BA,Babarc,7757,46.0042,18.5518
148,Baranya,BA,Lánycsók,7759,46.0054,18.6253
149,Baranya,BA,Kisnyárád,7759,46.0357,18.5664
150,Baranya,BA,Lothárd,7761,46.0016,18.354
151,Baranya,BA,Kozármisleny,7761,46.0297,18.2921
152,Baranya,BA,Magyarsarlós,7761,46.042,18.3533
153,Baranya,BA,Pécsudvard,7762,46.0111,18.2734
154,Baranya,BA,Kisherend,7763,45.9661,18.3297
155,Baranya,BA,Egerág,7763,45.9839,18.3047
156,Baranya,BA,Áta,7763,45.939,18.2985
157,Baranya,BA,Szőkéd,7763,45.9661,18.2882
158,Baranya,BA,Szemely,7763,46.0072,18.3281
159,Baranya,BA,Kiskassa,7766,45.9531,18.3978
160,Baranya,BA,Peterd,7766,45.9729,18.3603
161,Baranya,BA,Pécsdevecser,7766,45.9593,18.3844
162,Baranya,BA,Újpetre,7766,45.9367,18.3625
163,Baranya,BA,Kistótfalu,7768,45.9079,18.308
164,Baranya,BA,Vokány,7768,45.9094,18.3361
165,Baranya,BA,Palkonya,7771,45.8967,18.3898
166,Baranya,BA,Villánykövesd,7772,45.8822,18.4253
167,Baranya,BA,Ivánbattyán,7772,45.9072,18.4181
168,Baranya,BA,Kisjakabfalva,7773,45.8975,18.4336
169,Baranya,BA,Villány,7773,45.8689,18.4539
170,Baranya,BA,Márok,7774,45.8742,18.5088
171,Baranya,BA,Magyarbóly,7775,45.8456,18.4873
172,Baranya,BA,Kislippó,7775,45.8288,18.5343
173,Baranya,BA,Lapáncsa,7775,45.8192,18.4978
174,Baranya,BA,Illocska,7775,45.8006,18.5232
175,Baranya,BA,Lippó,7781,45.8628,18.57
176,Baranya,BA,Ivándárda,7781,45.8326,18.5912
177,Baranya,BA,Sárok,7781,45.8423,18.6119
178,Baranya,BA,Bezedek,7782,45.8647,18.5864
179,Baranya,BA,Majs,7783,45.9058,18.5975
180,Baranya,BA,Nagynyárád,7784,45.9443,18.5785
181,Baranya,BA,Sátorhely,7785,45.9418,18.6329
182,Baranya,BA,Siklós,7800,45.855,18.2975
183,Baranya,BA,Kisharsány,7800,45.8586,18.3642
184,Baranya,BA,Nagytótfalu,7800,45.8639,18.3453
185,Baranya,BA,Bisse,7811,45.9093,18.2595
186,Baranya,BA,Túrony,7811,45.9026,18.2327
187,Baranya,BA,Csarnóta,7811,45.8951,18.2164
188,Baranya,BA,Bosta,7811,45.9504,18.2108
189,Baranya,BA,Szalánta,7811,45.9486,18.2375
190,Baranya,BA,Szilvás,7811,45.9628,18.1996
191,Baranya,BA,Garé,7812,45.9174,18.1928
192,Baranya,BA,Szava,7813,45.9024,18.1777
193,Baranya,BA,Babarcszőlős,7814,45.9,18.1364
194,Baranya,BA,Ócsárd,7814,45.9342,18.1519
195,Baranya,BA,Siklósbodony,7814,45.9103,18.1203
196,Baranya,BA,Kisdér,7814,45.9406,18.1281
197,Baranya,BA,Harkány,7815,45.85,18.2367
198,Baranya,BA,Márfa,7817,45.86,18.1853
199,Baranya,BA,Diósviszló,7817,45.8777,18.166
200,Baranya,BA,Rádfalva,7817,45.8597,18.1258
201,Baranya,BA,Nagyharsány,7822,45.8474,18.3971
202,Baranya,BA,Kistapolca,7823,45.8216,18.383
203,Baranya,BA,Siklósnagyfalu,7823,45.8202,18.3627
204,Baranya,BA,Egyházasharaszti,7824,45.8104,18.3342
205,Baranya,BA,Old,7825,45.7889,18.3523
206,Baranya,BA,Alsószentmárton,7826,45.7895,18.3057
207,Baranya,BA,Beremend,7827,45.7911,18.4326
208,Baranya,BA,Kásád,7827,45.7783,18.3989
209,Baranya,BA,Pellérd,7831,46.0344,18.154
210,Baranya,BA,Görcsöny,7833,45.9694,18.1358
211,Baranya,BA,Szőke,7833,45.96,18.1858
212,Baranya,BA,Regenye,7833,45.97,18.1684
213,Baranya,BA,Baksa,7834,45.9536,18.0889
214,Baranya,BA,Tengeri,7834,45.9261,18.0881
215,Baranya,BA,Téseny,7834,45.9399,18.0885
216,Baranya,BA,Bogádmindszent,7836,45.9069,18.0406
217,Baranya,BA,Ózdfalu,7836,45.9292,18.0217
218,Baranya,BA,Hegyszentmárton,7837,45.9039,18.09
219,Baranya,BA,Páprád,7838,45.8925,18.0097
220,Baranya,BA,Besence,7838,45.8956,17.9663
221,Baranya,BA,Vejti,7838,45.8104,17.971
222,Baranya,BA,Lúzsok,7838,45.8382,17.9438
223,Baranya,BA,Nagycsány,7838,45.8717,17.9443
224,Baranya,BA,Piskó,7838,45.8134,17.937
225,Baranya,BA,Hirics,7838,45.8269,17.994
226,Baranya,BA,Vajszló,7838,45.8596,17.9841
227,Baranya,BA,Zaláta,7839,45.8092,17.8912
228,Baranya,BA,Kemse,7839,45.8233,17.9136
229,Baranya,BA,Sámod,7841,45.8544,18.0375
230,Baranya,BA,Adorjás,7841,45.8506,18.0628
231,Baranya,BA,Kisszentmárton,7841,45.8242,18.0242
232,Baranya,BA,Kórós,7841,45.8669,18.0844
233,Baranya,BA,Baranyahídvég,7841,45.8464,18.0233
234,Baranya,BA,Kémes,7843,45.8242,18.1011
235,Baranya,BA,Drávapiski,7843,45.84,18.1011
236,Baranya,BA,Tésenfa,7843,45.8131,18.1183
237,Baranya,BA,Cún,7843,45.8125,18.0669
238,Baranya,BA,Szaporca,7843,45.8136,18.1044
239,Baranya,BA,Drávacsepely,7846,45.8292,18.1386
240,Baranya,BA,Drávaszerdahely,7847,45.8369,18.1611
241,Baranya,BA,Kovácshida,7847,45.8325,18.1856
242,Baranya,BA,Ipacsfa,7847,45.8345,18.2055
243,Baranya,BA,Drávacsehi,7849,45.8128,18.1672
244,Baranya,BA,Drávapalkonya,7850,45.8031,18.1789
245,Baranya,BA,Drávaszabolcs,7851,45.8068,18.2105
246,Baranya,BA,Gordisa,7853,45.7964,18.2333
247,Baranya,BA,Matty,7854,45.7981,18.2661
248,Baranya,BA,Botykapeterd,7900,46.0505,17.8666
249,Baranya,BA,Csertő,7900,46.0948,17.8061
250,Baranya,BA,Szigetvár,7900,46.0487,17.8055
251,Baranya,BA,Nagyváty,7912,46.0611,17.9328
252,Baranya,BA,Nagypeterd,7912,46.0465,17.8986
253,Baranya,BA,Nyugotszenterzsébet,7912,46.0767,17.9112
254,Baranya,BA,Szentdénes,7913,46.0071,17.9271
255,Baranya,BA,Katádfa,7914,45.9979,17.87
256,Baranya,BA,Bánfa,7914,45.9945,17.8793
257,Baranya,BA,Rózsafa,7914,46.0219,17.8884
258,Baranya,BA,Szentegát,7915,45.9742,17.8257
259,Baranya,BA,Dencsháza,7915,45.993,17.8359
260,Baranya,BA,Somogyhatvan,7921,46.1137,17.7137
261,Baranya,BA,Somogyapáti,7922,46.0913,17.7497
262,Baranya,BA,Patapoklosi,7923,46.0754,17.743
263,Baranya,BA,Basal,7923,46.0734,17.7839
264,Baranya,BA,Somogyviszló,7924,46.1153,17.7649
265,Baranya,BA,Magyarlukafa,7925,46.169,17.7567
266,Baranya,BA,Somogyhárságy,7925,46.1619,17.7731
267,Baranya,BA,Vásárosbéc,7926,46.1829,17.7242
268,Baranya,BA,Szulimán,7932,46.1276,17.8031
269,Baranya,BA,Mozsgó,7932,46.1174,17.8503
270,Baranya,BA,Almáskeresztúr,7932,46.1199,17.8956
271,Baranya,BA,Almamellék,7934,46.1569,17.874
272,Baranya,BA,Csebény,7935,46.1899,17.9324
273,Baranya,BA,Ibafa,7935,46.1552,17.9163
274,Baranya,BA,Horváthertelend,7935,46.1758,17.9255
275,Baranya,BA,Szentlászló,7936,46.1567,17.8345
276,Baranya,BA,Boldogasszonyfa,7937,46.1836,17.8379
277,Baranya,BA,Szentlőrinc,7940,46.0402,17.9872
278,Baranya,BA,Kacsóta,7940,46.0388,17.9565
279,Baranya,BA,Csonkamindszent,7940,46.0531,17.9658
280,Baranya,BA,Szabadszentkirály,7951,46.0057,18.0447
281,Baranya,BA,Pécsbagota,7951,45.9903,18.0733
282,Baranya,BA,Gerde,7951,45.9897,18.0242
283,Baranya,BA,Velény,7951,45.9803,18.0533
284,Baranya,BA,Királyegyháza,7953,45.9992,17.9691
285,Baranya,BA,Magyartelek,7954,45.9423,17.9847
286,Baranya,BA,Gyöngyfa,7954,45.9602,17.9513
287,Baranya,BA,Magyarmecske,7954,45.9446,17.9637
288,Baranya,BA,Kisasszonyfa,7954,45.9467,18.0061
289,Baranya,BA,Gilvánfa,7954,45.9187,17.9627
290,Baranya,BA,Okorág,7957,45.9259,17.8751
291,Baranya,BA,Kákics,7958,45.9044,17.8577
292,Baranya,BA,Sumony,7960,45.9686,17.917
293,Baranya,BA,Marócsa,7960,45.9141,17.8145
294,Baranya,BA,Sellye,7960,45.8725,17.8471
295,Baranya,BA,Drávasztára,7960,45.8275,17.8206
296,Baranya,BA,Sósvertike,7960,45.8354,17.8599
297,Baranya,BA,Drávaiványi,7960,45.8466,17.817
298,Baranya,BA,Csányoszró,7964,45.8814,17.911
299,Baranya,BA,Bogdása,7966,45.8756,17.7903
300,Baranya,BA,Markóc,7967,45.8653,17.7706
301,Baranya,BA,Drávafok,7967,45.8847,17.764
302,Baranya,BA,Drávakeresztúr,7967,45.8392,17.7587
303,Baranya,BA,Felsőszentmárton,7968,45.8522,17.7
304,Baranya,BA,Hobol,7971,46.0239,17.7765
305,Baranya,BA,Gyöngyösmellék,7972,45.9875,17.7013
306,Baranya,BA,Endrőc,7973,45.9301,17.7605
307,Baranya,BA,Várad,7973,45.9744,17.7458
308,Baranya,BA,Teklafalu,7973,45.9502,17.7284
309,Baranya,BA,Bürüs,7973,45.9655,17.7601
310,Baranya,BA,Kétújfalu,7975,45.9655,17.7121
311,Baranya,BA,Zádor,7976,45.9593,17.6593
312,Baranya,BA,Szörény,7976,45.9675,17.682
313,Baranya,BA,Pettend,7980,46,17.7
314,Baranya,BA,Tótszentgyörgy,7981,46.05,17.7167
315,Baranya,BA,Kistamási,7981,46.0112,17.7209
316,Baranya,BA,Molvány,7981,46.0301,17.7444
317,Baranya,BA,Merenye,7981,46.0703,17.698
318,Baranya,BA,Nemeske,7981,46.0201,17.713
319,Baranya,BA,Kisdobsza,7985,46.0309,17.654
320,Baranya,BA,Nagydobsza,7985,46.0333,17.6667
321,Békés,BE,Gyomaendrőd,5500,46.9333,20.8333
322,Békés,BE,Gyomaendrőd,5502,46.9333,20.8333
323,Békés,BE,Dévaványa,5510,47.0333,20.9667
324,Békés,BE,Ecsegfalva,5515,47.15,20.9167
325,Békés,BE,Körösladány,5516,46.9667,21.0833
326,Békés,BE,Szeghalom,5520,47.0333,21.1667
327,Békés,BE,Füzesgyarmat,5525,47.1,21.2167
328,Békés,BE,Kertészsziget,5526,47.15,21.0667
329,Békés,BE,Bucsa,5527,47.2,21
330,Békés,BE,Vésztő,5530,46.9167,21.2667
331,Békés,BE,Okány,5534,46.9,21.35
332,Békés,BE,Körösújfalu,5536,46.9667,21.4
333,Békés,BE,Zsadány,5537,46.9167,21.5
334,Békés,BE,Biharugra,5538,46.9667,21.6
335,Békés,BE,Körösnagyharsány,5539,47,21.65
336,Békés,BE,Szarvas,5540,46.8667,20.55
337,Békés,BE,Csabacsűd,5551,46.8333,20.65
338,Békés,BE,Kardos,5552,46.7978,20.7179
339,Békés,BE,Kondoros,5553,46.7667,20.8
340,Békés,BE,Hunya,5555,46.8167,20.85
341,Békés,BE,Örménykút,5556,46.85,20.7833
342,Békés,BE,Békésszentandrás,5561,46.8667,20.4833
343,Békés,BE,Békéscsaba,5600,46.6833,21.1
344,Békés,BE,Csabaszabadi,5609,46.6833,21.0833
345,Békés,BE,Csárdaszállás,5621,46.8667,20.9333
346,Békés,BE,Köröstarcsa,5622,46.8833,21.0333
347,Békés,BE,Békéscsaba,5623,46.6833,21.1
348,Békés,BE,Doboz,5624,46.7333,21.25
349,Békés,BE,Békés,5630,46.7667,21.1333
350,Békés,BE,Tarhos,5641,46.8167,21.2167
351,Békés,BE,Bélmegyer,5643,46.8667,21.1833
352,Békés,BE,Mezőberény,5650,46.8167,21.0333
353,Békés,BE,Újkígyós,5661,46.5833,21.0333
354,Békés,BE,Csanádapáca,5662,46.55,20.8833
355,Békés,BE,Medgyesbodzás,5663,46.5167,20.9667
356,Békés,BE,Medgyesbodzás,5664,46.5167,20.9667
357,Békés,BE,Pusztaottlaka,5665,46.55,20.9833
358,Békés,BE,Medgyesegyháza,5666,46.5,21.0333
359,Békés,BE,Magyarbánhegyes,5667,46.45,20.9667
360,Békés,BE,Nagybánhegyes,5668,46.4667,20.9
361,Békés,BE,Békéscsaba,5671,46.6833,21.1
362,Békés,BE,Murony,5672,46.7667,21.05
363,Békés,BE,Kamut,5673,46.7667,20.9833
364,Békés,BE,Kétsoprony,5674,46.7167,20.8667
365,Békés,BE,Telekgerendás,5675,46.65,20.9667
366,Békés,BE,Gyula,5700,46.65,21.2833
367,Békés,BE,Gyula,5711,46.65,21.2833
368,Békés,BE,Szabadkígyós,5712,46.6167,21.1
369,Békés,BE,Sarkad,5720,46.75,21.3833
370,Békés,BE,Kötegyán,5725,46.7333,21.4833
371,Békés,BE,Méhkerék,5726,46.7833,21.45
372,Békés,BE,Újszalonta,5727,46.8,21.5
373,Békés,BE,Sarkadkeresztúr,5731,46.8,21.3833
374,Békés,BE,Mezőgyán,5732,46.8667,21.5333
375,Békés,BE,Geszt,5734,46.8833,21.5833
376,Békés,BE,Kétegyháza,5741,46.5333,21.1833
377,Békés,BE,Elek,5742,46.5333,21.25
378,Békés,BE,Lőkösháza,5743,46.4333,21.2333
379,Békés,BE,Kevermes,5744,46.4167,21.1833
380,Békés,BE,Dombiratos,5745,46.4167,21.1167
381,Békés,BE,Kunágota,5746,46.4333,21.05
382,Békés,BE,Almáskamarás,5747,46.4667,21.1
383,Békés,BE,Nagykamarás,5751,46.4667,21.1167
384,Békés,BE,Medgyesegyháza,5752,46.5,21.0333
385,Békés,BE,Mezőkovácsháza,5800,46.4,20.9167
386,Békés,BE,Végegyháza,5811,46.3833,20.8667
387,Békés,BE,Mezőhegyes,5820,46.3167,20.8167
388,Békés,BE,Battonya,5830,46.2833,21.0167
389,Békés,BE,Dombegyház,5836,46.3333,21.1333
390,Békés,BE,Kisdombegyház,5837,46.3667,21.1
391,Békés,BE,Magyardombegyház,5838,46.3833,21.0667
392,Békés,BE,Orosháza,5900,46.5667,20.6667
393,Békés,BE,Orosháza,5903,46.5667,20.6667
394,Békés,BE,Orosháza,5904,46.5667,20.6667
395,Békés,BE,Orosháza,5905,46.5667,20.6667
396,Békés,BE,Pusztaföldvár,5919,46.5333,20.8
397,Békés,BE,Csorvás,5920,46.6333,20.8333
398,Békés,BE,Gerendás,5925,46.6,20.8667
399,Békés,BE,Nagyszénás,5931,46.6833,20.6667
400,Békés,BE,Gádoros,5932,46.6667,20.6
401,Békés,BE,Tótkomlós,5940,46.4167,20.7333
402,Békés,BE,Kardoskút,5945,46.4833,20.6667
403,Békés,BE,Békéssámson,5946,46.4167,20.6333
404,Békés,BE,Kaszaper,5948,46.4667,20.8333
405,Bács-Kiskun,BK,Kecskemét,6000,46.9062,19.6913
406,Bács-Kiskun,BK,Kecskemét,6008,46.9062,19.6913
407,Bács-Kiskun,BK,Szentkirály,6031,46.9189,19.9185
408,Bács-Kiskun,BK,Nyárlőrinc,6032,46.8602,19.8784
409,Bács-Kiskun,BK,Városföld,6033,46.8167,19.7567
410,Bács-Kiskun,BK,Helvécia,6034,46.8366,19.6225
411,Bács-Kiskun,BK,Ballószög,6035,46.8622,19.5709
412,Bács-Kiskun,BK,Kerekegyháza,6041,46.9372,19.4781
413,Bács-Kiskun,BK,Fülöpháza,6042,46.8833,19.4167
414,Bács-Kiskun,BK,Kunbaracs,6043,46.989,19.4031
415,Bács-Kiskun,BK,Kecskemét,6044,46.9062,19.6913
416,Bács-Kiskun,BK,Ladánybene,6045,47.0342,19.4561
417,Bács-Kiskun,BK,Lajosmizse,6050,47.0213,19.5617
418,Bács-Kiskun,BK,Felsőlajos,6055,47.0672,19.4971
419,Bács-Kiskun,BK,Tiszakécske,6060,46.9326,20.1035
420,Bács-Kiskun,BK,Tiszakécske,6062,46.9326,20.1035
421,Bács-Kiskun,BK,Tiszaug,6064,46.8555,20.0549
422,Bács-Kiskun,BK,Lakitelek,6065,46.876,19.995
423,Bács-Kiskun,BK,Tiszaalpár,6066,46.8128,19.9984
424,Bács-Kiskun,BK,Tiszaalpár,6067,46.8128,19.9984
425,Bács-Kiskun,BK,Izsák,6070,46.8045,19.3517
426,Bács-Kiskun,BK,Páhi,6075,46.7129,19.3869
427,Bács-Kiskun,BK,Ágasegyháza,6076,46.8403,19.4521
428,Bács-Kiskun,BK,Orgovány,6077,46.7509,19.4726
429,Bács-Kiskun,BK,Jakabszállás,6078,46.7603,19.6072
430,Bács-Kiskun,BK,Szabadszállás,6080,46.8758,19.2232
431,Bács-Kiskun,BK,Fülöpszállás,6085,46.8208,19.2375
432,Bács-Kiskun,BK,Szalkszentmárton,6086,46.9757,19.0118
433,Bács-Kiskun,BK,Dunavecse,6087,46.9148,18.9713
434,Bács-Kiskun,BK,Apostag,6088,46.8821,18.9621
435,Bács-Kiskun,BK,Kunszentmiklós,6090,47.027,19.1258
436,Bács-Kiskun,BK,Kunpeszér,6096,47.0589,19.2761
437,Bács-Kiskun,BK,Kunadacs,6097,46.9557,19.2892
438,Bács-Kiskun,BK,Tass,6098,47.021,19.0299
439,Bács-Kiskun,BK,Kiskunfélegyháza,6100,46.7121,19.8446
440,Bács-Kiskun,BK,Gátér,6111,46.679,19.961
441,Bács-Kiskun,BK,Pálmonostora,6112,46.6242,19.9516
442,Bács-Kiskun,BK,Petőfiszállás,6113,46.6218,19.8621
443,Bács-Kiskun,BK,Bugac,6114,46.687,19.6807
444,Bács-Kiskun,BK,Bugacpusztaháza,6114,46.699,19.6315
445,Bács-Kiskun,BK,Kunszállás,6115,46.7625,19.7537
446,Bács-Kiskun,BK,Fülöpjakab,6116,46.7422,19.7213
447,Bács-Kiskun,BK,Kiskunmajsa,6120,46.4903,19.74
448,Bács-Kiskun,BK,Szank,6131,46.5571,19.661
449,Bács-Kiskun,BK,Móricgát,6132,46.6323,19.6702
450,Bács-Kiskun,BK,Jászszentlászló,6133,46.5669,19.7606
451,Bács-Kiskun,BK,Kömpöc,6134,46.4635,19.8667
452,Bács-Kiskun,BK,Csólyospálos,6135,46.4184,19.8395
453,Bács-Kiskun,BK,Harkakötöny,6136,46.4631,19.6076
454,Bács-Kiskun,BK,Kiskőrös,6200,46.6214,19.2853
455,Bács-Kiskun,BK,Kaskantyú,6211,46.672,19.3868
456,Bács-Kiskun,BK,Akasztó,6221,46.6917,19.2042
457,Bács-Kiskun,BK,Csengőd,6222,46.7154,19.268
458,Bács-Kiskun,BK,Soltszentimre,6223,46.7714,19.287
459,Bács-Kiskun,BK,Tabdi,6224,46.6819,19.3265
460,Bács-Kiskun,BK,Soltvadkert,6230,46.5789,19.3939
461,Bács-Kiskun,BK,Bócsa,6235,46.6097,19.4844
462,Bács-Kiskun,BK,Tázlár,6236,46.5482,19.5144
463,Bács-Kiskun,BK,Kecel,6237,46.5253,19.2519
464,Bács-Kiskun,BK,Imrehegy,6238,46.4774,19.3122
465,Bács-Kiskun,BK,Császártöltés,6239,46.4219,19.1836
466,Bács-Kiskun,BK,Kalocsa,6300,46.5298,18.9728
467,Bács-Kiskun,BK,Öregcsertő,6311,46.5181,19.1155
468,Bács-Kiskun,BK,Solt,6320,46.801,19.001
469,Bács-Kiskun,BK,Újsolt,6321,46.8727,19.1207
470,Bács-Kiskun,BK,Dunaegyháza,6323,46.8381,18.9543
471,Bács-Kiskun,BK,Dunatetétlen,6325,46.7575,19.0953
472,Bács-Kiskun,BK,Harta,6326,46.6976,19.0311
473,Bács-Kiskun,BK,Harta,6327,46.6976,19.0311
474,Bács-Kiskun,BK,Dunapataj,6328,46.644,18.9963
475,Bács-Kiskun,BK,Foktő,6331,46.5275,18.9193
476,Bács-Kiskun,BK,Uszód,6332,46.5701,18.9012
477,Bács-Kiskun,BK,Dunaszentbenedek,6333,46.5933,18.8945
478,Bács-Kiskun,BK,Géderlak,6334,46.6068,18.9144
479,Bács-Kiskun,BK,Ordas,6335,46.6359,18.9463
480,Bács-Kiskun,BK,Szakmár,6336,46.5554,19.0753
481,Bács-Kiskun,BK,Újtelek,6337,46.59,19.0586
482,Bács-Kiskun,BK,Homokmégy,6341,46.49,19.0731
483,Bács-Kiskun,BK,Drágszél,6342,46.4675,19.0397
484,Bács-Kiskun,BK,Miske,6343,46.4464,19.0331
485,Bács-Kiskun,BK,Hajós,6344,46.3986,19.1206
486,Bács-Kiskun,BK,Nemesnádudvar,6345,46.3405,19.0512
487,Bács-Kiskun,BK,Sükösd,6346,46.2818,18.9952
488,Bács-Kiskun,BK,Érsekcsanád,6347,46.2535,18.9846
489,Bács-Kiskun,BK,Érsekhalma,6348,46.3488,19.1215
490,Bács-Kiskun,BK,Bátya,6351,46.488,18.9542
491,Bács-Kiskun,BK,Fajsz,6352,46.417,18.9194
492,Bács-Kiskun,BK,Dusnok,6353,46.3909,18.963
493,Bács-Kiskun,BK,Kiskunhalas,6400,46.434,19.4848
494,Bács-Kiskun,BK,Zsana,6411,46.406,19.6815
495,Bács-Kiskun,BK,Balotaszállás,6412,46.351,19.5403
496,Bács-Kiskun,BK,Kunfehértó,6413,46.3609,19.4145
497,Bács-Kiskun,BK,Pirtó,6414,46.5138,19.4323
498,Bács-Kiskun,BK,Kisszállás,6421,46.2801,19.4895
499,Bács-Kiskun,BK,Tompa,6422,46.2061,19.5391
500,Bács-Kiskun,BK,Kelebia,6423,46.1968,19.6166
501,Bács-Kiskun,BK,Csikéria,6424,46.1285,19.4713
502,Bács-Kiskun,BK,Bácsszőlős,6425,46.15,19.45
503,Bács-Kiskun,BK,Bácsalmás,6430,46.1265,19.3326
504,Bács-Kiskun,BK,Kunbaja,6435,46.0842,19.4208
505,Bács-Kiskun,BK,Jánoshalma,6440,46.2986,19.3258
506,Bács-Kiskun,BK,Kéleshalom,6444,46.3654,19.2818
507,Bács-Kiskun,BK,Borota,6445,46.266,19.2228
508,Bács-Kiskun,BK,Rém,6446,46.2473,19.1414
509,Bács-Kiskun,BK,Felsőszentiván,6447,46.1971,19.1869
510,Bács-Kiskun,BK,Csávoly,6448,46.1892,19.1467
511,Bács-Kiskun,BK,Mélykút,6449,46.2151,19.381
512,Bács-Kiskun,BK,Tataháza,6451,46.1741,19.3003
513,Bács-Kiskun,BK,Mátételke,6452,46.1617,19.2804
514,Bács-Kiskun,BK,Bácsbokod,6453,46.125,19.1562
515,Bács-Kiskun,BK,Bácsborsód,6454,46.0987,19.1581
516,Bács-Kiskun,BK,Katymár,6455,46.034,19.2094
517,Bács-Kiskun,BK,Madaras,6456,46.0587,19.2612
518,Bács-Kiskun,BK,Baja,6500,46.183,18.9531
519,Bács-Kiskun,BK,Baja,6503,46.183,18.9531
520,Bács-Kiskun,BK,Bácsszentgyörgy,6511,45.9727,19.0362
521,Bács-Kiskun,BK,Szeremle,6512,46.1437,18.8812
522,Bács-Kiskun,BK,Dunafalva,6513,46.0582,18.9587
523,Bács-Kiskun,BK,Vaskút,6521,46.1078,18.9851
524,Bács-Kiskun,BK,Gara,6522,46.0319,19.0428
525,Bács-Kiskun,BK,Csátalja,6523,46.0367,18.9469
526,Bács-Kiskun,BK,Dávod,6524,45.995,18.9172
527,Bács-Kiskun,BK,Hercegszántó,6525,45.95,18.9392
528,Bács-Kiskun,BK,Nagybaracska,6527,46.0425,18.9059
529,Bács-Kiskun,BK,Bátmonostor,6528,46.1022,18.9285
530,Budapest,BU,Budapest,1007,47.4984,19.0404
531,Budapest,BU,Budapest,1011,47.4984,19.0404
532,Budapest,BU,Budapest,1012,47.4984,19.0404
533,Budapest,BU,Budapest,1013,47.4984,19.0404
534,Budapest,BU,Budapest,1014,47.4984,19.0404
535,Budapest,BU,Budapest,1015,47.4984,19.0404
536,Budapest,BU,Budapest,1016,47.4984,19.0404
537,Budapest,BU,Budapest,1021,47.4984,19.0404
538,Budapest,BU,Budapest,1022,47.4984,19.0404
539,Budapest,BU,Budapest,1023,47.4984,19.0404
540,Budapest,BU,Budapest,1024,47.4984,19.0404
541,Budapest,BU,Budapest,1025,47.4984,19.0404
542,Budapest,BU,Budapest,1026,47.4984,19.0404
543,Budapest,BU,Budapest,1027,47.4984,19.0404
544,Budapest,BU,Budapest,1028,47.4984,19.0404
545,Budapest,BU,Budapest,1029,47.4984,19.0404
546,Budapest,BU,Budapest,1031,47.4984,19.0404
547,Budapest,BU,Budapest,1032,47.4984,19.0404
548,Budapest,BU,Budapest,1033,47.4984,19.0404
549,Budapest,BU,Budapest,1034,47.4984,19.0404
550,Budapest,BU,Budapest,1035,47.4984,19.0404
551,Budapest,BU,Budapest,1036,47.4984,19.0404
552,Budapest,BU,Budapest,1037,47.4984,19.0404
553,Budapest,BU,Budapest,1038,47.4984,19.0404
554,Budapest,BU,Budapest,1039,47.4984,19.0404
555,Budapest,BU,Budapest,1041,47.4984,19.0404
556,Budapest,BU,Budapest,1042,47.4984,19.0404
557,Budapest,BU,Budapest,1043,47.4984,19.0404
558,Budapest,BU,Budapest,1044,47.4984,19.0404
559,Budapest,BU,Budapest,1045,47.4984,19.0404
560,Budapest,BU,Budapest,1046,47.4984,19.0404
561,Budapest,BU,Budapest,1047,47.4984,19.0404
562,Budapest,BU,Budapest,1048,47.4984,19.0404
563,Budapest,BU,Budapest,1051,47.4984,19.0404
564,Budapest,BU,Budapest,1052,47.4984,19.0404
565,Budapest,BU,Budapest,1053,47.4984,19.0404
566,Budapest,BU,Budapest,1054,47.4984,19.0404
567,Budapest,BU,Budapest,1055,47.4984,19.0404
568,Budapest,BU,Budapest,1056,47.4984,19.0404
569,Budapest,BU,Budapest,1061,47.4984,19.0404
570,Budapest,BU,Budapest,1062,47.4984,19.0404
571,Budapest,BU,Budapest,1063,47.4984,19.0404
572,Budapest,BU,Budapest,1064,47.4984,19.0404
573,Budapest,BU,Budapest,1065,47.4984,19.0404
574,Budapest,BU,Budapest,1066,47.4984,19.0404
575,Budapest,BU,Budapest,1067,47.4984,19.0404
576,Budapest,BU,Budapest,1068,47.4984,19.0404
577,Budapest,BU,Budapest,1071,47.4984,19.0404
578,Budapest,BU,Budapest,1072,47.4984,19.0404
579,Budapest,BU,Budapest,1073,47.4984,19.0404
580,Budapest,BU,Budapest,1074,47.4984,19.0404
581,Budapest,BU,Budapest,1075,47.4984,19.0404
582,Budapest,BU,Budapest,1076,47.4984,19.0404
583,Budapest,BU,Budapest,1077,47.4984,19.0404
584,Budapest,BU,Budapest,1078,47.4984,19.0404
585,Budapest,BU,Budapest,1081,47.4984,19.0404
586,Budapest,BU,Budapest,1082,47.4984,19.0404
587,Budapest,BU,Budapest,1083,47.4984,19.0404
588,Budapest,BU,Budapest,1084,47.4984,19.0404
589,Budapest,BU,Budapest,1085,47.4984,19.0404
590,Budapest,BU,Budapest,1086,47.4984,19.0404
591,Budapest,BU,Budapest,1087,47.4984,19.0404
592,Budapest,BU,Budapest,1088,47.4984,19.0404
593,Budapest,BU,Budapest,1089,47.4984,19.0404
594,Budapest,BU,Budapest,1091,47.4984,19.0404
595,Budapest,BU,Budapest,1092,47.4984,19.0404
596,Budapest,BU,Budapest,1093,47.4984,19.0404
597,Budapest,BU,Budapest,1094,47.4984,19.0404
598,Budapest,BU,Budapest,1095,47.4984,19.0404
599,Budapest,BU,Budapest,1096,47.4984,19.0404
600,Budapest,BU,Budapest,1097,47.4984,19.0404
601,Budapest,BU,Budapest,1098,47.4984,19.0404
602,Budapest,BU,Budapest,1101,47.4984,19.0404
603,Budapest,BU,Budapest,1102,47.4984,19.0404
604,Budapest,BU,Budapest,1103,47.4984,19.0404
605,Budapest,BU,Budapest,1104,47.4984,19.0404
606,Budapest,BU,Budapest,1105,47.4984,19.0404
607,Budapest,BU,Budapest,1106,47.4984,19.0404
608,Budapest,BU,Budapest,1107,47.4984,19.0404
609,Budapest,BU,Budapest,1108,47.4984,19.0404
610,Budapest,BU,Budapest,1111,47.4984,19.0404
611,Budapest,BU,Budapest,1112,47.4984,19.0404
612,Budapest,BU,Budapest,1113,47.4984,19.0404
613,Budapest,BU,Budapest,1114,47.4984,19.0404
614,Budapest,BU,Budapest,1115,47.4984,19.0404
615,Budapest,BU,Budapest,1116,47.4984,19.0404
616,Budapest,BU,Budapest,1117,47.4984,19.0404
617,Budapest,BU,Budapest,1118,47.4984,19.0404
618,Budapest,BU,Budapest,1119,47.4984,19.0404
619,Budapest,BU,Budapest,1121,47.4984,19.0404
620,Budapest,BU,Budapest,1122,47.4984,19.0404
621,Budapest,BU,Budapest,1123,47.4984,19.0404
622,Budapest,BU,Budapest,1124,47.4984,19.0404
623,Budapest,BU,Budapest,1125,47.4984,19.0404
624,Budapest,BU,Budapest,1126,47.4984,19.0404
625,Budapest,BU,Budapest,1131,47.4984,19.0404
626,Budapest,BU,Budapest,1132,47.4984,19.0404
627,Budapest,BU,Budapest,1133,47.4984,19.0404
628,Budapest,BU,Budapest,1134,47.4984,19.0404
629,Budapest,BU,Budapest,1135,47.4984,19.0404
630,Budapest,BU,Budapest,1136,47.4984,19.0404
631,Budapest,BU,Budapest,1137,47.4984,19.0404
632,Budapest,BU,Budapest,1138,47.4984,19.0404
633,Budapest,BU,Budapest,1139,47.4984,19.0404
634,Budapest,BU,Budapest,1141,47.4984,19.0404
635,Budapest,BU,Budapest,1142,47.4984,19.0404
636,Budapest,BU,Budapest,1143,47.4984,19.0404
637,Budapest,BU,Budapest,1144,47.4984,19.0404
638,Budapest,BU,Budapest,1145,47.4984,19.0404
639,Budapest,BU,Budapest,1146,47.4984,19.0404
640,Budapest,BU,Budapest,1147,47.4984,19.0404
641,Budapest,BU,Budapest,1148,47.4984,19.0404
642,Budapest,BU,Budapest,1149,47.4984,19.0404
643,Budapest,BU,Budapest,1151,47.4984,19.0404
644,Budapest,BU,Budapest,1152,47.4984,19.0404
645,Budapest,BU,Budapest,1153,47.4984,19.0404
646,Budapest,BU,Budapest,1154,47.4984,19.0404
647,Budapest,BU,Budapest,1155,47.4984,19.0404
648,Budapest,BU,Budapest,1156,47.4984,19.0404
649,Budapest,BU,Budapest,1157,47.4984,19.0404
650,Budapest,BU,Budapest,1158,47.4984,19.0404
651,Budapest,BU,Budapest,1161,47.4984,19.0404
652,Budapest,BU,Budapest,1162,47.4984,19.0404
653,Budapest,BU,Budapest,1163,47.4984,19.0404
654,Budapest,BU,Budapest,1164,47.4984,19.0404
655,Budapest,BU,Budapest,1165,47.4984,19.0404
656,Budapest,BU,Budapest,1171,47.4984,19.0404
657,Budapest,BU,Budapest,1172,47.4984,19.0404
658,Budapest,BU,Budapest,1173,47.4984,19.0404
659,Budapest,BU,Budapest,1174,47.4984,19.0404
660,Budapest,BU,Budapest,1181,47.4984,19.0404
661,Budapest,BU,Budapest,1182,47.4984,19.0404
662,Budapest,BU,Budapest,1183,47.4984,19.0404
663,Budapest,BU,Budapest,1184,47.4984,19.0404
664,Budapest,BU,Budapest,1185,47.4984,19.0404
665,Budapest,BU,Budapest,1186,47.4984,19.0404
666,Budapest,BU,Budapest,1188,47.4984,19.0404
667,Budapest,BU,Budapest,1191,47.4984,19.0404
668,Budapest,BU,Budapest,1192,47.4984,19.0404
669,Budapest,BU,Budapest,1193,47.4984,19.0404
670,Budapest,BU,Budapest,1194,47.4984,19.0404
671,Budapest,BU,Budapest,1195,47.4984,19.0404
672,Budapest,BU,Budapest,1196,47.4984,19.0404
673,Budapest,BU,Budapest,1201,47.4984,19.0404
674,Budapest,BU,Budapest,1202,47.4984,19.0404
675,Budapest,BU,Budapest,1203,47.4984,19.0404
676,Budapest,BU,Budapest,1204,47.4984,19.0404
677,Budapest,BU,Budapest,1205,47.4984,19.0404
678,Budapest,BU,Budapest,1211,47.4984,19.0404
679,Budapest,BU,Budapest,1212,47.4984,19.0404
680,Budapest,BU,Budapest,1213,47.4984,19.0404
681,Budapest,BU,Budapest,1214,47.4984,19.0404
682,Budapest,BU,Budapest,1215,47.4984,19.0404
683,Budapest,BU,Budapest,1221,47.4984,19.0404
684,Budapest,BU,Budapest,1222,47.4984,19.0404
685,Budapest,BU,Budapest,1223,47.4984,19.0404
686,Budapest,BU,Budapest,1224,47.4984,19.0404
687,Budapest,BU,Budapest,1225,47.4984,19.0404
688,Budapest,BU,Budapest,1237,47.4984,19.0404
689,Budapest,BU,Budapest,1238,47.4984,19.0404
690,Budapest,BU,Budapest,1239,47.4984,19.0404
691,Borsod-Abaúj-Zemplén,BZ,Mezőkövesd,3400,47.8167,20.5833
692,Borsod-Abaúj-Zemplén,BZ,Szomolya,3411,47.9,20.5
693,Borsod-Abaúj-Zemplén,BZ,Bogács,3412,47.9,20.5333
694,Borsod-Abaúj-Zemplén,BZ,Cserépfalu,3413,47.9333,20.5333
695,Borsod-Abaúj-Zemplén,BZ,Bükkzsérc,3414,47.9667,20.5
696,Borsod-Abaúj-Zemplén,BZ,Tard,3416,47.8833,20.6167
697,Borsod-Abaúj-Zemplén,BZ,Cserépváralja,3417,47.9333,20.5667
698,Borsod-Abaúj-Zemplén,BZ,Szentistván,3418,47.7667,20.6667
699,Borsod-Abaúj-Zemplén,BZ,Mezőnyárád,3421,47.8667,20.6833
700,Borsod-Abaúj-Zemplén,BZ,Bükkábrány,3422,47.8833,20.6833
701,Borsod-Abaúj-Zemplén,BZ,Tibolddaróc,3423,47.9167,20.6333
702,Borsod-Abaúj-Zemplén,BZ,Kács,3424,47.95,20.6167
703,Borsod-Abaúj-Zemplén,BZ,Sály,3425,47.95,20.6667
704,Borsod-Abaúj-Zemplén,BZ,Borsodgeszt,3426,47.95,20.7
705,Borsod-Abaúj-Zemplén,BZ,Vatta,3431,47.9167,20.75
706,Borsod-Abaúj-Zemplén,BZ,Emőd,3432,47.9333,20.8167
707,Borsod-Abaúj-Zemplén,BZ,Nyékládháza,3433,47.9833,20.8333
708,Borsod-Abaúj-Zemplén,BZ,Mályi,3434,48.0167,20.8333
709,Borsod-Abaúj-Zemplén,BZ,Mezőkeresztes,3441,47.8333,20.7
710,Borsod-Abaúj-Zemplén,BZ,Csincse,3442,47.887,20.7681
711,Borsod-Abaúj-Zemplén,BZ,Mezőnagymihály,3443,47.8167,20.7333
712,Borsod-Abaúj-Zemplén,BZ,Gelej,3444,47.8333,20.7833
713,Borsod-Abaúj-Zemplén,BZ,Mezőcsát,3450,47.8167,20.9167
714,Borsod-Abaúj-Zemplén,BZ,Tiszakeszi,3458,47.7833,21
715,Borsod-Abaúj-Zemplén,BZ,Igrici,3459,47.8667,20.8833
716,Borsod-Abaúj-Zemplén,BZ,Egerlövő,3461,47.7167,20.6333
717,Borsod-Abaúj-Zemplén,BZ,Borsodivánka,3462,47.7,20.6667
718,Borsod-Abaúj-Zemplén,BZ,Négyes,3463,47.7,20.7167
719,Borsod-Abaúj-Zemplén,BZ,Tiszavalk,3464,47.6833,20.75
720,Borsod-Abaúj-Zemplén,BZ,Tiszabábolna,3465,47.6833,20.8167
721,Borsod-Abaúj-Zemplén,BZ,Tiszadorogma,3466,47.6833,20.8667
722,Borsod-Abaúj-Zemplén,BZ,Ároktő,3467,47.7333,20.95
723,Borsod-Abaúj-Zemplén,BZ,Miskolc,3500,48.1,20.7833
724,Borsod-Abaúj-Zemplén,BZ,Miskolc,3501,48.1,20.7833
725,Borsod-Abaúj-Zemplén,BZ,Miskolc,3508,48.1,20.7833
726,Borsod-Abaúj-Zemplén,BZ,Miskolc,3515,48.1,20.7833
727,Borsod-Abaúj-Zemplén,BZ,Miskolc,3516,48.1,20.7833
728,Borsod-Abaúj-Zemplén,BZ,Miskolc,3517,48.1,20.7833
729,Borsod-Abaúj-Zemplén,BZ,Miskolc,3518,48.1,20.7833
730,Borsod-Abaúj-Zemplén,BZ,Miskolc,3519,48.1,20.7833
731,Borsod-Abaúj-Zemplén,BZ,Miskolc,3521,48.1,20.7833
732,Borsod-Abaúj-Zemplén,BZ,Miskolc,3524,48.1,20.7833
733,Borsod-Abaúj-Zemplén,BZ,Miskolc,3525,48.1,20.7833
734,Borsod-Abaúj-Zemplén,BZ,Miskolc,3526,48.1,20.7833
735,Borsod-Abaúj-Zemplén,BZ,Miskolc,3527,48.1,20.7833
736,Borsod-Abaúj-Zemplén,BZ,Miskolc,3528,48.1,20.7833
737,Borsod-Abaúj-Zemplén,BZ,Miskolc,3529,48.1,20.7833
738,Borsod-Abaúj-Zemplén,BZ,Miskolc,3530,48.1,20.7833
739,Borsod-Abaúj-Zemplén,BZ,Miskolc,3531,48.1,20.7833
740,Borsod-Abaúj-Zemplén,BZ,Miskolc,3532,48.1,20.7833
741,Borsod-Abaúj-Zemplén,BZ,Miskolc,3533,48.1,20.7833
742,Borsod-Abaúj-Zemplén,BZ,Miskolc,3534,48.1,20.7833
743,Borsod-Abaúj-Zemplén,BZ,Miskolc,3535,48.1,20.7833
744,Borsod-Abaúj-Zemplén,BZ,Ónod,3551,48,20.9167
745,Borsod-Abaúj-Zemplén,BZ,Muhi,3552,47.9833,20.9333
746,Borsod-Abaúj-Zemplén,BZ,Kistokaj,3553,48.05,20.85
747,Borsod-Abaúj-Zemplén,BZ,Bükkaranyos,3554,47.9833,20.7833
748,Borsod-Abaúj-Zemplén,BZ,Harsány,3555,47.9667,20.75
749,Borsod-Abaúj-Zemplén,BZ,Kisgyőr,3556,48.0167,20.7
750,Borsod-Abaúj-Zemplén,BZ,Bükkszentkereszt,3557,48.0667,20.6333
751,Borsod-Abaúj-Zemplén,BZ,Miskolc,3558,48.1,20.7833
752,Borsod-Abaúj-Zemplén,BZ,Répáshuta,3559,48.05,20.5333
753,Borsod-Abaúj-Zemplén,BZ,Felsőzsolca,3561,48.1,20.8667
754,Borsod-Abaúj-Zemplén,BZ,Onga,3562,48.1167,20.9167
755,Borsod-Abaúj-Zemplén,BZ,Hernádkak,3563,48.0833,20.9667
756,Borsod-Abaúj-Zemplén,BZ,Hernádnémeti,3564,48.0667,20.9833
757,Borsod-Abaúj-Zemplén,BZ,Tiszalúc,3565,48.0377,21.0726
758,Borsod-Abaúj-Zemplén,BZ,Alsózsolca,3571,48.0698,20.8805
759,Borsod-Abaúj-Zemplén,BZ,Sajólád,3572,48.05,20.9
760,Borsod-Abaúj-Zemplén,BZ,Sajópetri,3573,48.0333,20.9
761,Borsod-Abaúj-Zemplén,BZ,Bőcs,3574,48.05,20.9667
762,Borsod-Abaúj-Zemplén,BZ,Berzék,3575,48.0167,20.95
763,Borsod-Abaúj-Zemplén,BZ,Sajóhídvég,3576,48,20.95
764,Borsod-Abaúj-Zemplén,BZ,Köröm,3577,47.9833,20.95
765,Borsod-Abaúj-Zemplén,BZ,Kiscsécs,3578,47.9667,21.0167
766,Borsod-Abaúj-Zemplén,BZ,Girincs,3578,47.9667,20.9833
767,Borsod-Abaúj-Zemplén,BZ,Kesznyéten,3579,47.9667,21.05
768,Borsod-Abaúj-Zemplén,BZ,Tiszaújváros,3580,47.9333,21.0833
769,Borsod-Abaúj-Zemplén,BZ,Sajóörös,3586,47.95,21.0333
770,Borsod-Abaúj-Zemplén,BZ,Tiszapalkonya,3587,47.8833,21.0667
771,Borsod-Abaúj-Zemplén,BZ,Hejőkürt,3588,47.8667,21
772,Borsod-Abaúj-Zemplén,BZ,Tiszatarján,3589,47.8333,21.0167
773,Borsod-Abaúj-Zemplén,BZ,Oszlár,3591,47.8833,21.0333
774,Borsod-Abaúj-Zemplén,BZ,Nemesbikk,3592,47.8833,20.9667
775,Borsod-Abaúj-Zemplén,BZ,Hejőbába,3593,47.9,20.95
776,Borsod-Abaúj-Zemplén,BZ,Hejőpapi,3594,47.9,20.9167
777,Borsod-Abaúj-Zemplén,BZ,Hejőszalonta,3595,47.9333,20.8833
778,Borsod-Abaúj-Zemplén,BZ,Szakáld,3596,47.95,20.9167
779,Borsod-Abaúj-Zemplén,BZ,Hejőkeresztúr,3597,47.9667,20.8833
780,Borsod-Abaúj-Zemplén,BZ,Nagycsécs,3598,47.9667,20.95
781,Borsod-Abaúj-Zemplén,BZ,Sajószöged,3599,47.95,21
782,Borsod-Abaúj-Zemplén,BZ,Ózd,3600,48.2167,20.3
783,Borsod-Abaúj-Zemplén,BZ,Ózd,3603,48.2167,20.3
784,Borsod-Abaúj-Zemplén,BZ,Ózd,3604,48.2167,20.3
785,Borsod-Abaúj-Zemplén,BZ,Farkaslyuk,3608,48.1833,20.3167
786,Borsod-Abaúj-Zemplén,BZ,Ózd,3621,48.2167,20.3
787,Borsod-Abaúj-Zemplén,BZ,Uppony,3622,48.2167,20.4333
788,Borsod-Abaúj-Zemplén,BZ,Borsodszentgyörgy,3623,48.1833,20.2
789,Borsod-Abaúj-Zemplén,BZ,Ózd,3625,48.2167,20.3
790,Borsod-Abaúj-Zemplén,BZ,Hangony,3626,48.2333,20.2
791,Borsod-Abaúj-Zemplén,BZ,Kissikátor,3627,48.2,20.1333
792,Borsod-Abaúj-Zemplén,BZ,Domaháza,3627,48.1833,20.1167
793,Borsod-Abaúj-Zemplén,BZ,Putnok,3630,48.3,20.4333
794,Borsod-Abaúj-Zemplén,BZ,Dubicsány,3635,48.2833,20.5
795,Borsod-Abaúj-Zemplén,BZ,Sajógalgóc,3636,48.3,20.5333
796,Borsod-Abaúj-Zemplén,BZ,Vadna,3636,48.2667,20.5667
797,Borsod-Abaúj-Zemplén,BZ,Nagybarca,3641,48.25,20.5333
798,Borsod-Abaúj-Zemplén,BZ,Bánhorváti,3642,48.2333,20.5167
799,Borsod-Abaúj-Zemplén,BZ,Dédestapolcsány,3643,48.1833,20.4833
800,Borsod-Abaúj-Zemplén,BZ,Tardona,3644,48.1667,20.5333
801,Borsod-Abaúj-Zemplén,BZ,Mályinka,3645,48.155,20.4956
802,Borsod-Abaúj-Zemplén,BZ,Nekézseny,3646,48.1667,20.4333
803,Borsod-Abaúj-Zemplén,BZ,Csokvaomány,3647,48.1667,20.3833
804,Borsod-Abaúj-Zemplén,BZ,Lénárddaróc,3648,48.15,20.3833
805,Borsod-Abaúj-Zemplén,BZ,Bükkmogyorósd,3648,48.1333,20.3667
806,Borsod-Abaúj-Zemplén,BZ,Csernely,3648,48.15,20.35
807,Borsod-Abaúj-Zemplén,BZ,Ózd,3651,48.2167,20.3
808,Borsod-Abaúj-Zemplén,BZ,Sajónémeti,3652,48.2667,20.3833
809,Borsod-Abaúj-Zemplén,BZ,Sajópüspöki,3653,48.2833,20.35
810,Borsod-Abaúj-Zemplén,BZ,Bánréve,3654,48.3,20.3667
811,Borsod-Abaúj-Zemplén,BZ,Hét,3655,48.2833,20.3833
812,Borsod-Abaúj-Zemplén,BZ,Sajómercse,3656,48.25,20.4167
813,Borsod-Abaúj-Zemplén,BZ,Sajóvelezd,3656,48.2667,20.4667
814,Borsod-Abaúj-Zemplén,BZ,Királd,3657,48.25,20.4
815,Borsod-Abaúj-Zemplén,BZ,Borsodbóta,3658,48.2167,20.4
816,Borsod-Abaúj-Zemplén,BZ,Sáta,3659,48.1833,20.4
817,Borsod-Abaúj-Zemplén,BZ,Ózd,3661,48.2167,20.3
818,Borsod-Abaúj-Zemplén,BZ,Ózd,3662,48.2167,20.3
819,Borsod-Abaúj-Zemplén,BZ,Arló,3663,48.1833,20.2667
820,Borsod-Abaúj-Zemplén,BZ,Járdánháza,3664,48.15,20.25
821,Borsod-Abaúj-Zemplén,BZ,Borsodnádasd,3671,48.1167,20.25
822,Borsod-Abaúj-Zemplén,BZ,Borsodnádasd,3672,48.1167,20.25
823,Borsod-Abaúj-Zemplén,BZ,Kazincbarcika,3700,48.25,20.6333
824,Borsod-Abaúj-Zemplén,BZ,Berente,3704,48.2333,20.6667
825,Borsod-Abaúj-Zemplén,BZ,Szirmabesenyő,3711,48.15,20.8
826,Borsod-Abaúj-Zemplén,BZ,Sajóvámos,3712,48.1817,20.8315
827,Borsod-Abaúj-Zemplén,BZ,Sajósenye,3712,48.2,20.8333
828,Borsod-Abaúj-Zemplén,BZ,Arnót,3713,48.1306,20.8583
829,Borsod-Abaúj-Zemplén,BZ,Sajópálfala,3714,48.1667,20.85
830,Borsod-Abaúj-Zemplén,BZ,Gesztely,3715,48.1,20.9667
831,Borsod-Abaúj-Zemplén,BZ,Sóstófalva,3716,48.15,21
832,Borsod-Abaúj-Zemplén,BZ,Újcsanálos,3716,48.1333,21.0167
833,Borsod-Abaúj-Zemplén,BZ,Alsódobsza,3717,48.1833,21
834,Borsod-Abaúj-Zemplén,BZ,Megyaszó,3718,48.1833,21.05
835,Borsod-Abaúj-Zemplén,BZ,Sajóivánka,3720,48.2667,20.5833
836,Borsod-Abaúj-Zemplén,BZ,Sajókaza,3720,48.2833,20.5833
837,Borsod-Abaúj-Zemplén,BZ,Jákfalva,3721,48.3333,20.5833
838,Borsod-Abaúj-Zemplén,BZ,Dövény,3721,48.35,20.55
839,Borsod-Abaúj-Zemplén,BZ,Felsőnyárád,3721,48.3333,20.6
840,Borsod-Abaúj-Zemplén,BZ,Felsőkelecsény,3722,48.3667,20.6
841,Borsod-Abaúj-Zemplén,BZ,Zubogy,3723,48.3833,20.5833
842,Borsod-Abaúj-Zemplén,BZ,Ragály,3724,48.4,20.5167
843,Borsod-Abaúj-Zemplén,BZ,Trizs,3724,48.4333,20.5
844,Borsod-Abaúj-Zemplén,BZ,Imola,3725,48.4167,20.55
845,Borsod-Abaúj-Zemplén,BZ,Zádorfalva,3726,48.3833,20.4833
846,Borsod-Abaúj-Zemplén,BZ,Szuhafő,3726,48.4167,20.45
847,Borsod-Abaúj-Zemplén,BZ,Alsószuha,3726,48.3714,20.5045
848,Borsod-Abaúj-Zemplén,BZ,Kelemér,3728,48.35,20.4333
849,Borsod-Abaúj-Zemplén,BZ,Gömörszőlős,3728,48.3833,20.4333
850,Borsod-Abaúj-Zemplén,BZ,Serényfalva,3729,48.3167,20.4
851,Borsod-Abaúj-Zemplén,BZ,Szuhakálló,3731,48.2833,20.6667
852,Borsod-Abaúj-Zemplén,BZ,Kurityán,3732,48.3167,20.6333
853,Borsod-Abaúj-Zemplén,BZ,Rudabánya,3733,48.3833,20.6333
854,Borsod-Abaúj-Zemplén,BZ,Szuhogy,3734,48.3833,20.6833
855,Borsod-Abaúj-Zemplén,BZ,Alsótelekes,3735,48.4167,20.6667
856,Borsod-Abaúj-Zemplén,BZ,Kánó,3735,48.4333,20.6
857,Borsod-Abaúj-Zemplén,BZ,Felsőtelekes,3735,48.4,20.6333
858,Borsod-Abaúj-Zemplén,BZ,Izsófalva,3741,48.3,20.6667
859,Borsod-Abaúj-Zemplén,BZ,Rudolftelep,3742,48.3167,20.6833
860,Borsod-Abaúj-Zemplén,BZ,Ormosbánya,3743,48.35,20.65
861,Borsod-Abaúj-Zemplén,BZ,Múcsony,3744,48.2667,20.6833
862,Borsod-Abaúj-Zemplén,BZ,Szendrőlád,3751,48.35,20.75
863,Borsod-Abaúj-Zemplén,BZ,Szendrő,3752,48.4,20.7333
864,Borsod-Abaúj-Zemplén,BZ,Galvács,3752,48.4167,20.7833
865,Borsod-Abaúj-Zemplén,BZ,Abod,3753,48.4,20.8
866,Borsod-Abaúj-Zemplén,BZ,Meszes,3754,48.4333,20.8
867,Borsod-Abaúj-Zemplén,BZ,Szalonna,3754,48.45,20.75
868,Borsod-Abaúj-Zemplén,BZ,Martonyi,3755,48.4667,20.7667
869,Borsod-Abaúj-Zemplén,BZ,Varbóc,3756,48.4667,20.65
870,Borsod-Abaúj-Zemplén,BZ,Perkupa,3756,48.4667,20.7
871,Borsod-Abaúj-Zemplén,BZ,Szőlősardó,3757,48.45,20.6333
872,Borsod-Abaúj-Zemplén,BZ,Teresztenye,3757,48.45,20.6167
873,Borsod-Abaúj-Zemplén,BZ,Égerszög,3757,48.45,20.5833
874,Borsod-Abaúj-Zemplén,BZ,Jósvafő,3758,48.4833,20.5667
875,Borsod-Abaúj-Zemplén,BZ,Aggtelek,3759,48.4667,20.5167
876,Borsod-Abaúj-Zemplén,BZ,Szin,3761,48.5,20.6667
877,Borsod-Abaúj-Zemplén,BZ,Szinpetri,3761,48.4833,20.6333
878,Borsod-Abaúj-Zemplén,BZ,Tornakápolna,3761,48.4667,20.6167
879,Borsod-Abaúj-Zemplén,BZ,Szögliget,3762,48.5167,20.6833
880,Borsod-Abaúj-Zemplén,BZ,Bódvaszilas,3763,48.5333,20.7333
881,Borsod-Abaúj-Zemplén,BZ,Bódvarákó,3764,48.5167,20.75
882,Borsod-Abaúj-Zemplén,BZ,Komjáti,3765,48.55,20.7667
883,Borsod-Abaúj-Zemplén,BZ,Tornaszentandrás,3765,48.5167,20.7833
884,Borsod-Abaúj-Zemplén,BZ,Tornabarakony,3765,48.5,20.8167
885,Borsod-Abaúj-Zemplén,BZ,Tornanádaska,3767,48.5667,20.7833
886,Borsod-Abaúj-Zemplén,BZ,Hidvégardó,3768,48.5667,20.85
887,Borsod-Abaúj-Zemplén,BZ,Bódvalenke,3768,48.55,20.8167
888,Borsod-Abaúj-Zemplén,BZ,Becskeháza,3768,48.5333,20.85
889,Borsod-Abaúj-Zemplén,BZ,Tornaszentjakab,3769,48.5167,20.8833
890,Borsod-Abaúj-Zemplén,BZ,Sajószentpéter,3770,48.2167,20.7167
891,Borsod-Abaúj-Zemplén,BZ,Sajókápolna,3773,48.2,20.7
892,Borsod-Abaúj-Zemplén,BZ,Sajólászlófalva,3773,48.1833,20.6833
893,Borsod-Abaúj-Zemplén,BZ,Kondó,3775,48.2,20.65
894,Borsod-Abaúj-Zemplén,BZ,Radostyán,3776,48.1833,20.6667
895,Borsod-Abaúj-Zemplén,BZ,Parasznya,3777,48.1667,20.65
896,Borsod-Abaúj-Zemplén,BZ,Varbó,3778,48.1667,20.6333
897,Borsod-Abaúj-Zemplén,BZ,Alacska,3779,48.2167,20.65
898,Borsod-Abaúj-Zemplén,BZ,Damak,3780,48.3167,20.8333
899,Borsod-Abaúj-Zemplén,BZ,Balajt,3780,48.3209,20.7878
900,Borsod-Abaúj-Zemplén,BZ,Ládbesenyő,3780,48.3431,20.7866
901,Borsod-Abaúj-Zemplén,BZ,Edelény,3780,48.3,20.7333
902,Borsod-Abaúj-Zemplén,BZ,Edelény,3783,48.3,20.7333
903,Borsod-Abaúj-Zemplén,BZ,Lak,3786,48.35,20.8667
904,Borsod-Abaúj-Zemplén,BZ,Irota,3786,48.4,20.8833
905,Borsod-Abaúj-Zemplén,BZ,Hegymeg,3786,48.3333,20.8667
906,Borsod-Abaúj-Zemplén,BZ,Szakácsi,3786,48.3833,20.8667
907,Borsod-Abaúj-Zemplén,BZ,Tomor,3787,48.3333,20.8833
908,Borsod-Abaúj-Zemplén,BZ,Sajókeresztúr,3791,48.1667,20.7833
909,Borsod-Abaúj-Zemplén,BZ,Sajóbábony,3792,48.1667,20.7333
910,Borsod-Abaúj-Zemplén,BZ,Sajóecseg,3793,48.2,20.7833
911,Borsod-Abaúj-Zemplén,BZ,Boldva,3794,48.2167,20.8
912,Borsod-Abaúj-Zemplén,BZ,Ziliz,3794,48.25,20.8
913,Borsod-Abaúj-Zemplén,BZ,Nyomár,3795,48.2755,20.8203
914,Borsod-Abaúj-Zemplén,BZ,Hangács,3795,48.3,20.8333
915,Borsod-Abaúj-Zemplén,BZ,Borsodszirák,3796,48.2667,20.7667
916,Borsod-Abaúj-Zemplén,BZ,Szikszó,3800,48.2,20.9333
917,Borsod-Abaúj-Zemplén,BZ,Nyésta,3809,48.3667,20.95
918,Borsod-Abaúj-Zemplén,BZ,Selyeb,3809,48.3333,20.9667
919,Borsod-Abaúj-Zemplén,BZ,Abaújszolnok,3809,48.3667,20.9833
920,Borsod-Abaúj-Zemplén,BZ,Alsóvadász,3811,48.25,20.9167
921,Borsod-Abaúj-Zemplén,BZ,Monaj,3812,48.3,20.95
922,Borsod-Abaúj-Zemplén,BZ,Homrogd,3812,48.2833,20.9167
923,Borsod-Abaúj-Zemplén,BZ,Kupa,3813,48.3333,20.9167
924,Borsod-Abaúj-Zemplén,BZ,Felsővadász,3814,48.3667,20.9333
925,Borsod-Abaúj-Zemplén,BZ,Gadna,3815,48.4,20.9333
926,Borsod-Abaúj-Zemplén,BZ,Abaújlak,3815,48.4,20.9667
927,Borsod-Abaúj-Zemplén,BZ,Gagyvendégi,3816,48.4333,20.9833
928,Borsod-Abaúj-Zemplén,BZ,Gagybátor,3817,48.4333,20.95
929,Borsod-Abaúj-Zemplén,BZ,Keresztéte,3821,48.5,20.95
930,Borsod-Abaúj-Zemplén,BZ,Szászfa,3821,48.4667,20.95
931,Borsod-Abaúj-Zemplén,BZ,Pamlény,3821,48.5,20.9333
932,Borsod-Abaúj-Zemplén,BZ,Krasznokvajda,3821,48.4667,20.9833
933,Borsod-Abaúj-Zemplén,BZ,Kány,3821,48.5167,21.0167
934,Borsod-Abaúj-Zemplén,BZ,Perecse,3821,48.5,21
935,Borsod-Abaúj-Zemplén,BZ,Büttös,3821,48.4833,21.0167
936,Borsod-Abaúj-Zemplén,BZ,Debréte,3825,48.5,20.8667
937,Borsod-Abaúj-Zemplén,BZ,Rakaca,3825,48.4667,20.9
938,Borsod-Abaúj-Zemplén,BZ,Viszló,3825,48.5,20.9
939,Borsod-Abaúj-Zemplén,BZ,Rakacaszend,3826,48.4667,20.85
940,Borsod-Abaúj-Zemplén,BZ,Kázsmárk,3831,48.2833,20.9833
941,Borsod-Abaúj-Zemplén,BZ,Léh,3832,48.2833,20.9833
942,Borsod-Abaúj-Zemplén,BZ,Rásonysápberencs,3833,48.3167,21
943,Borsod-Abaúj-Zemplén,BZ,Detek,3834,48.3333,21.0333
944,Borsod-Abaúj-Zemplén,BZ,Beret,3834,48.35,21.0333
945,Borsod-Abaúj-Zemplén,BZ,Baktakék,3836,48.3833,21.0333
946,Borsod-Abaúj-Zemplén,BZ,Gagyapáti,3837,48.4167,21
947,Borsod-Abaúj-Zemplén,BZ,Alsógagy,3837,48.4,21.0333
948,Borsod-Abaúj-Zemplén,BZ,Felsőgagy,3837,48.4333,21.0167
949,Borsod-Abaúj-Zemplén,BZ,Csenyéte,3837,48.4333,21.05
950,Borsod-Abaúj-Zemplén,BZ,Aszaló,3841,48.2167,20.9667
951,Borsod-Abaúj-Zemplén,BZ,Halmaj,3842,48.25,21
952,Borsod-Abaúj-Zemplén,BZ,Kiskinizs,3843,48.2509,21.0346
953,Borsod-Abaúj-Zemplén,BZ,Szentistvánbaksa,3844,48.2237,21.0281
954,Borsod-Abaúj-Zemplén,BZ,Nagykinizs,3844,48.2333,21.0333
955,Borsod-Abaúj-Zemplén,BZ,Hernádkércs,3846,48.25,21.05
956,Borsod-Abaúj-Zemplén,BZ,Felsődobsza,3847,48.2565,21.0752
957,Borsod-Abaúj-Zemplén,BZ,Csobád,3848,48.2833,21.0333
958,Borsod-Abaúj-Zemplén,BZ,Forró,3849,48.3167,21.0833
959,Borsod-Abaúj-Zemplén,BZ,Ináncs,3851,48.2833,21.0667
960,Borsod-Abaúj-Zemplén,BZ,Hernádszentandrás,3852,48.2904,21.0882
961,Borsod-Abaúj-Zemplén,BZ,Hernádbűd,3853,48.3,21.1333
962,Borsod-Abaúj-Zemplén,BZ,Pere,3853,48.2847,21.1181
963,Borsod-Abaúj-Zemplén,BZ,Gibárt,3854,48.3333,21.1333
964,Borsod-Abaúj-Zemplén,BZ,Fancsal,3855,48.35,21.0667
965,Borsod-Abaúj-Zemplén,BZ,Encs,3860,48.3333,21.1333
966,Borsod-Abaúj-Zemplén,BZ,Szalaszend,3863,48.3833,21.1333
967,Borsod-Abaúj-Zemplén,BZ,Fulókércs,3864,48.4333,21.1167
968,Borsod-Abaúj-Zemplén,BZ,Fáj,3865,48.4167,21.0833
969,Borsod-Abaúj-Zemplén,BZ,Szemere,3866,48.4667,21.1
970,Borsod-Abaúj-Zemplén,BZ,Litka,3866,48.45,21.0667
971,Borsod-Abaúj-Zemplén,BZ,Méra,3871,48.35,21.15
972,Borsod-Abaúj-Zemplén,BZ,Novajidrány,3872,48.4,21.1833
973,Borsod-Abaúj-Zemplén,BZ,Garadna,3873,48.4167,21.1833
974,Borsod-Abaúj-Zemplén,BZ,Hernádpetri,3874,48.4833,21.1667
975,Borsod-Abaúj-Zemplén,BZ,Pusztaradvány,3874,48.4667,21.1333
976,Borsod-Abaúj-Zemplén,BZ,Hernádvécse,3874,48.45,21.1667
977,Borsod-Abaúj-Zemplén,BZ,Hernádszurdok,3875,48.4833,21.2167
978,Borsod-Abaúj-Zemplén,BZ,Hidasnémeti,3876,48.5,21.2333
979,Borsod-Abaúj-Zemplén,BZ,Tornyosnémeti,3877,48.5167,21.2667
980,Borsod-Abaúj-Zemplén,BZ,Baskó,3881,48.3333,21.3333
981,Borsod-Abaúj-Zemplén,BZ,Abaújszántó,3881,48.2833,21.2
982,Borsod-Abaúj-Zemplén,BZ,Sima,3881,48.3,21.3
983,Borsod-Abaúj-Zemplén,BZ,Abaújkér,3882,48.3,21.2
984,Borsod-Abaúj-Zemplén,BZ,Abaújalpár,3882,48.3067,21.2332
985,Borsod-Abaúj-Zemplén,BZ,Boldogkőújfalu,3884,48.3185,21.2414
986,Borsod-Abaúj-Zemplén,BZ,Arka,3885,48.35,21.25
987,Borsod-Abaúj-Zemplén,BZ,Boldogkőváralja,3885,48.3333,21.2333
988,Borsod-Abaúj-Zemplén,BZ,Korlát,3886,48.3833,21.25
989,Borsod-Abaúj-Zemplén,BZ,Hernádcéce,3887,48.35,21.2
990,Borsod-Abaúj-Zemplén,BZ,Vizsoly,3888,48.3833,21.2167
991,Borsod-Abaúj-Zemplén,BZ,Vilmány,3891,48.4167,21.2333
992,Borsod-Abaúj-Zemplén,BZ,Hejce,3892,48.4333,21.2833
993,Borsod-Abaúj-Zemplén,BZ,Regéc,3893,48.4,21.35
994,Borsod-Abaúj-Zemplén,BZ,Mogyoróska,3893,48.3833,21.3333
995,Borsod-Abaúj-Zemplén,BZ,Fony,3893,48.4,21.3
996,Borsod-Abaúj-Zemplén,BZ,Göncruszka,3894,48.45,21.25
997,Borsod-Abaúj-Zemplén,BZ,Gönc,3895,48.4667,21.2833
998,Borsod-Abaúj-Zemplén,BZ,Telkibánya,3896,48.4833,21.3667
999,Borsod-Abaúj-Zemplén,BZ,Zsujta,3897,48.5,21.2833
1000,Borsod-Abaúj-Zemplén,BZ,Abaújvár,3898,48.5333,21.3167
1001,Borsod-Abaúj-Zemplén,BZ,Pányok,3898,48.5333,21.3667
1002,Borsod-Abaúj-Zemplén,BZ,Kéked,3899,48.55,21.35
1003,Borsod-Abaúj-Zemplén,BZ,Szerencs,3900,48.1599,21.2097
1004,Borsod-Abaúj-Zemplén,BZ,Szerencs,3902,48.1599,21.2097
1005,Borsod-Abaúj-Zemplén,BZ,Bekecs,3903,48.15,21.1833
1006,Borsod-Abaúj-Zemplén,BZ,Legyesbénye,3904,48.1667,21.15
1007,Borsod-Abaúj-Zemplén,BZ,Monok,3905,48.211,21.1505
1008,Borsod-Abaúj-Zemplén,BZ,Golop,3906,48.2333,21.2
1009,Borsod-Abaúj-Zemplén,BZ,Tállya,3907,48.2333,21.2333
1010,Borsod-Abaúj-Zemplén,BZ,Rátka,3908,48.2167,21.2333
1011,Borsod-Abaúj-Zemplén,BZ,Mád,3909,48.1944,21.2821
1012,Borsod-Abaúj-Zemplén,BZ,Tokaj,3910,48.1167,21.4167
1013,Borsod-Abaúj-Zemplén,BZ,Tarcal,3915,48.1333,21.35
1014,Borsod-Abaúj-Zemplén,BZ,Bodrogkeresztúr,3916,48.1667,21.3667
1015,Borsod-Abaúj-Zemplén,BZ,Bodrogkisfalud,3917,48.1833,21.3667
1016,Borsod-Abaúj-Zemplén,BZ,Szegilong,3918,48.2167,21.4
1017,Borsod-Abaúj-Zemplén,BZ,Szegi,3918,48.2,21.3833
1018,Borsod-Abaúj-Zemplén,BZ,Taktaszada,3921,48.1167,21.1833
1019,Borsod-Abaúj-Zemplén,BZ,Taktaharkány,3922,48.0833,21.1333
1020,Borsod-Abaúj-Zemplén,BZ,Gesztely,3923,48.1,20.9667
1021,Borsod-Abaúj-Zemplén,BZ,Taktakenéz,3924,48.05,21.2167
1022,Borsod-Abaúj-Zemplén,BZ,Prügy,3925,48.0833,21.25
1023,Borsod-Abaúj-Zemplén,BZ,Taktabáj,3926,48.0667,21.3167
1024,Borsod-Abaúj-Zemplén,BZ,Csobaj,3927,48.05,21.35
1025,Borsod-Abaúj-Zemplén,BZ,Tiszatardos,3928,48.05,21.3833
1026,Borsod-Abaúj-Zemplén,BZ,Tiszaladány,3929,48.0667,21.4167
1027,Borsod-Abaúj-Zemplén,BZ,Mezőzombor,3931,48.15,21.2667
1028,Borsod-Abaúj-Zemplén,BZ,Erdőbénye,3932,48.2667,21.3667
1029,Borsod-Abaúj-Zemplén,BZ,Olaszliszka,3933,48.25,21.4333
1030,Borsod-Abaúj-Zemplén,BZ,Tolcsva,3934,48.2833,21.45
1031,Borsod-Abaúj-Zemplén,BZ,Erdőhorváti,3935,48.3167,21.4333
1032,Borsod-Abaúj-Zemplén,BZ,Háromhuta,3936,48.3833,21.4333
1033,Borsod-Abaúj-Zemplén,BZ,Komlóska,3937,48.3333,21.4667
1034,Borsod-Abaúj-Zemplén,BZ,Vámosújfalu,3941,48.2667,21.4667
1035,Borsod-Abaúj-Zemplén,BZ,Sárazsadány,3942,48.2667,21.5
1036,Borsod-Abaúj-Zemplén,BZ,Bodrogolaszi,3943,48.2833,21.5167
1037,Borsod-Abaúj-Zemplén,BZ,Sátoraljaújhely,3944,48.3949,21.6587
1038,Borsod-Abaúj-Zemplén,BZ,Sátoraljaújhely,3945,48.3949,21.6587
1039,Borsod-Abaúj-Zemplén,BZ,Sárospatak,3950,48.3245,21.5738
1040,Borsod-Abaúj-Zemplén,BZ,Györgytarló,3954,48.2,21.6667
1041,Borsod-Abaúj-Zemplén,BZ,Kenézlő,3955,48.2,21.5333
1042,Borsod-Abaúj-Zemplén,BZ,Viss,3956,48.2167,21.5167
1043,Borsod-Abaúj-Zemplén,BZ,Zalkod,3957,48.1833,21.4667
1044,Borsod-Abaúj-Zemplén,BZ,Hercegkút,3958,48.3333,21.5333
1045,Borsod-Abaúj-Zemplén,BZ,Makkoshotyka,3959,48.35,21.5167
1046,Borsod-Abaúj-Zemplén,BZ,Vajdácska,3961,48.3167,21.6667
1047,Borsod-Abaúj-Zemplén,BZ,Karos,3962,48.3333,21.75
1048,Borsod-Abaúj-Zemplén,BZ,Karcsa,3963,48.3113,21.8054
1049,Borsod-Abaúj-Zemplén,BZ,Pácin,3964,48.3348,21.8361
1050,Borsod-Abaúj-Zemplén,BZ,Nagyrozvágy,3965,48.3418,21.9207
1051,Borsod-Abaúj-Zemplén,BZ,Kisrozvágy,3965,48.3497,21.9381
1052,Borsod-Abaúj-Zemplén,BZ,Lácacséke,3967,48.3667,22
1053,Borsod-Abaúj-Zemplén,BZ,Tiszakarád,3971,48.2,21.7167
1054,Borsod-Abaúj-Zemplén,BZ,Tiszacsermely,3972,48.2333,21.7833
1055,Borsod-Abaúj-Zemplén,BZ,Cigánd,3973,48.2556,21.8919
1056,Borsod-Abaúj-Zemplén,BZ,Semjén,3974,48.3501,21.9722
1057,Borsod-Abaúj-Zemplén,BZ,Ricse,3974,48.3256,21.9707
1058,Borsod-Abaúj-Zemplén,BZ,Révleányvár,3976,48.3238,22.0425
1059,Borsod-Abaúj-Zemplén,BZ,Zemplénagárd,3977,48.3574,22.0807
1060,Borsod-Abaúj-Zemplén,BZ,Dámóc,3978,48.3752,22.0338
1061,Borsod-Abaúj-Zemplén,BZ,Sátoraljaújhely,3980,48.3949,21.6587
1062,Borsod-Abaúj-Zemplén,BZ,Alsóberecki,3985,48.35,21.7
1063,Borsod-Abaúj-Zemplén,BZ,Felsőberecki,3985,48.3667,21.7
1064,Borsod-Abaúj-Zemplén,BZ,Bodroghalom,3987,48.3,21.7167
1065,Borsod-Abaúj-Zemplén,BZ,Sátoraljaújhely,3988,48.3949,21.6587
1066,Borsod-Abaúj-Zemplén,BZ,Felsőregmec,3989,48.4833,21.6167
1067,Borsod-Abaúj-Zemplén,BZ,Mikóháza,3989,48.475,21.6167
1068,Borsod-Abaúj-Zemplén,BZ,Alsóregmec,3989,48.4667,21.6167
1069,Borsod-Abaúj-Zemplén,BZ,Vilyvitány,3991,48.5,21.5667
1070,Borsod-Abaúj-Zemplén,BZ,Kovácsvágás,3992,48.45,21.5333
1071,Borsod-Abaúj-Zemplén,BZ,Vágáshuta,3992,48.4167,21.55
1072,Borsod-Abaúj-Zemplén,BZ,Füzérradvány,3993,48.4833,21.5333
1073,Borsod-Abaúj-Zemplén,BZ,Bózsva,3994,48.4667,21.4667
1074,Borsod-Abaúj-Zemplén,BZ,Kishuta,3994,48.45,21.4833
1075,Borsod-Abaúj-Zemplén,BZ,Pálháza,3994,48.4667,21.5167
1076,Borsod-Abaúj-Zemplén,BZ,Filkeháza,3994,48.5,21.5
1077,Borsod-Abaúj-Zemplén,BZ,Nagyhuta,3994,48.4333,21.5
1078,Borsod-Abaúj-Zemplén,BZ,Füzérkajata,3994,48.5167,21.5
1079,Borsod-Abaúj-Zemplén,BZ,Pusztafalu,3995,48.55,21.5
1080,Borsod-Abaúj-Zemplén,BZ,Füzér,3996,48.55,21.4667
1081,Borsod-Abaúj-Zemplén,BZ,Füzérkomlós,3997,48.5167,21.4667
1082,Borsod-Abaúj-Zemplén,BZ,Nyíri,3998,48.5,21.45
1083,Borsod-Abaúj-Zemplén,BZ,Hollóháza,3999,48.55,21.4167
1084,Csongrád,CS,Szentes,6600,46.6583,20.2608
1085,Csongrád,CS,Nagytőke,6612,46.7,20.2833
1086,Csongrád,CS,Derekegyház,6621,46.5833,20.3667
1087,Csongrád,CS,Nagymágocs,6622,46.5833,20.5
1088,Csongrád,CS,Árpádhalom,6623,46.6167,20.55
1089,Csongrád,CS,Eperjes,6624,46.6833,20.5667
1090,Csongrád,CS,Fábiánsebestyén,6625,46.6833,20.4667
1091,Csongrád,CS,Mindszent,6630,46.5236,20.1904
1092,Csongrád,CS,Szegvár,6635,46.5874,20.2241
1093,Csongrád,CS,Mártély,6636,46.4886,20.232
1094,Csongrád,CS,Csongrád,6640,46.7133,20.1424
1095,Csongrád,CS,Felgyő,6645,46.6474,20.1053
1096,Csongrád,CS,Tömörkény,6646,46.6172,20.0436
1097,Csongrád,CS,Csanytelek,6647,46.595,20.1234
1098,Csongrád,CS,Csongrád,6648,46.7133,20.1424
1099,Csongrád,CS,Szeged,6700,46.2956,20.0703
1100,Csongrád,CS,Szeged,6710,46.253,20.1482
1101,Csongrád,CS,Szeged,6720,46.253,20.1482
1102,Csongrád,CS,Szeged,6721,46.253,20.1482
1103,Csongrád,CS,Szeged,6722,46.253,20.1482
1104,Csongrád,CS,Szeged,6723,46.253,20.1482
1105,Csongrád,CS,Szeged,6724,46.253,20.1482
1106,Csongrád,CS,Szeged,6725,46.253,20.1482
1107,Csongrád,CS,Szeged,6726,46.253,20.1482
1108,Csongrád,CS,Szeged,6727,46.253,20.1482
1109,Csongrád,CS,Szeged,6728,46.253,20.1482
1110,Csongrád,CS,Szeged,6729,46.253,20.1482
1111,Csongrád,CS,Algyő,6750,46.3347,20.2085
1112,Csongrád,CS,Szeged,6753,46.253,20.1482
1113,Csongrád,CS,Újszentiván,6754,46.186,20.1845
1114,Csongrád,CS,Kübekháza,6755,46.1499,20.2766
1115,Csongrád,CS,Tiszasziget,6756,46.1747,20.1644
1116,Csongrád,CS,Szeged,6757,46.253,20.1482
1117,Csongrád,CS,Röszke,6758,46.188,20.0337
1118,Csongrád,CS,Kistelek,6760,46.4725,19.9797
1119,Csongrád,CS,Sándorfalva,6762,46.3609,20.0989
1120,Csongrád,CS,Szatymaz,6763,46.3431,20.0402
1121,Csongrád,CS,Balástya,6764,46.4228,20.0082
1122,Csongrád,CS,Csengele,6765,46.5423,19.8636
1123,Csongrád,CS,Dóc,6766,46.4378,20.1375
1124,Csongrád,CS,Ópusztaszer,6767,46.4859,20.0872
1125,Csongrád,CS,Baks,6768,46.543,20.1021
1126,Csongrád,CS,Pusztaszer,6769,46.5508,19.9882
1127,Csongrád,CS,Szeged,6771,46.253,20.1482
1128,Csongrád,CS,Deszk,6772,46.218,20.2432
1129,Csongrád,CS,Klárafalva,6773,46.2167,20.3333
1130,Csongrád,CS,Ferencszállás,6774,46.2167,20.35
1131,Csongrád,CS,Kiszombor,6775,46.1833,20.4333
1132,Csongrád,CS,Domaszék,6781,46.2492,20.0111
1133,Csongrád,CS,Mórahalom,6782,46.2181,19.8851
1134,Csongrád,CS,Ásotthalom,6783,46.1988,19.7833
1135,Csongrád,CS,Öttömös,6784,46.2816,19.682
1136,Csongrád,CS,Pusztamérges,6785,46.3285,19.685
1137,Csongrád,CS,Ruzsa,6786,46.2881,19.7471
1138,Csongrád,CS,Zákányszék,6787,46.2745,19.8898
1139,Csongrád,CS,Szeged,6791,46.253,20.1482
1140,Csongrád,CS,Zsombó,6792,46.3257,19.9746
1141,Csongrád,CS,Forráskút,6793,46.3653,19.9097
1142,Csongrád,CS,Üllés,6794,46.3361,19.8445
1143,Csongrád,CS,Bordány,6795,46.3184,19.9231
1144,Csongrád,CS,Hódmezővásárhely,6800,46.4167,20.3333
1145,Csongrád,CS,Hódmezővásárhely,6805,46.4167,20.3333
1146,Csongrád,CS,Hódmezővásárhely,6806,46.4167,20.3333
1147,Csongrád,CS,Székkutas,6821,46.5,20.5333
1148,Csongrád,CS,Makó,6900,46.2167,20.4833
1149,Csongrád,CS,Makó,6903,46.2167,20.4833
1150,Csongrád,CS,Királyhegyes,6911,46.2667,20.6167
1151,Csongrád,CS,Kövegy,6912,46.2167,20.6833
1152,Csongrád,CS,Csanádpalota,6913,46.25,20.7333
1153,Csongrád,CS,Pitvaros,6914,46.3167,20.7333
1154,Csongrád,CS,Csanádalberti,6915,46.3333,20.7167
1155,Csongrád,CS,Ambrózfalva,6916,46.35,20.7333
1156,Csongrád,CS,Nagyér,6917,46.3667,20.7333
1157,Csongrád,CS,Maroslele,6921,46.2667,20.35
1158,Csongrád,CS,Földeák,6922,46.3167,20.5
1159,Csongrád,CS,Óföldeák,6923,46.3,20.45
1160,Csongrád,CS,Apátfalva,6931,46.1667,20.5833
1161,Csongrád,CS,Magyarcsanád,6932,46.1667,20.6167
1162,Csongrád,CS,Nagylak,6933,46.1667,20.7167
1163,Fejér,FE,Bicske,2060,47.4842,18.644
1164,Fejér,FE,Óbarok,2063,47.5,18.5833
1165,Fejér,FE,Csabdi,2064,47.5196,18.6124
1166,Fejér,FE,Mány,2065,47.5335,18.6563
1167,Fejér,FE,Szár,2066,47.4808,18.5139
1168,Fejér,FE,Újbarok,2066,47.4795,18.5594
1169,Fejér,FE,Szárliget,2067,47.5158,18.4948
1170,Fejér,FE,Etyek,2091,47.4479,18.7533
1171,Fejér,FE,Dunaújváros,2400,46.9674,18.9329
1172,Fejér,FE,Dunaújváros,2407,46.9674,18.9329
1173,Fejér,FE,Nagyvenyim,2421,46.9576,18.8635
1174,Fejér,FE,Mezőfalva,2422,46.9318,18.7718
1175,Fejér,FE,Daruszentmiklós,2423,46.8933,18.8552
1176,Fejér,FE,Előszállás,2424,46.8309,18.8348
1177,Fejér,FE,Nagykarácsony,2425,46.8712,18.7724
1178,Fejér,FE,Baracs,2426,46.882,18.9066
1179,Fejér,FE,Baracs,2427,46.882,18.9066
1180,Fejér,FE,Kisapostag,2428,46.8973,18.9307
1181,Fejér,FE,Perkáta,2431,47.047,18.7873
1182,Fejér,FE,Szabadegyháza,2432,47.0761,18.6899
1183,Fejér,FE,Sárosd,2433,47.0427,18.6436
1184,Fejér,FE,Hantos,2434,46.9952,18.6954
1185,Fejér,FE,Nagylók,2435,46.9763,18.6464
1186,Fejér,FE,Ercsi,2451,47.2519,18.8962
1187,Fejér,FE,Ercsi,2453,47.2519,18.8962
1188,Fejér,FE,Iváncsa,2454,47.1567,18.8203
1189,Fejér,FE,Beloiannisz,2455,47.1824,18.8238
1190,Fejér,FE,Besnyő,2456,47.1887,18.793
1191,Fejér,FE,Adony,2457,47.1194,18.8649
1192,Fejér,FE,Kulcs,2458,47.05,18.9167
1193,Fejér,FE,Rácalmás,2459,47.0226,18.9406
1194,Fejér,FE,Martonvásár,2462,47.316,18.7904
1195,Fejér,FE,Tordas,2463,47.344,18.7525
1196,Fejér,FE,Gyúró,2464,47.3719,18.734
1197,Fejér,FE,Ráckeresztúr,2465,47.2736,18.8334
1198,Fejér,FE,Baracska,2471,47.2822,18.7585
1199,Fejér,FE,Kajászó,2472,47.3242,18.7235
1200,Fejér,FE,Vál,2473,47.3626,18.6793
1201,Fejér,FE,Kápolnásnyék,2475,47.24,18.6756
1202,Fejér,FE,Pázmánd,2476,47.2875,18.6536
1203,Fejér,FE,Vereb,2477,47.3139,18.6296
1204,Fejér,FE,Velence,2481,47.2385,18.6548
1205,Fejér,FE,Gárdony,2483,47.2094,18.6361
1206,Fejér,FE,Gárdony,2484,47.2094,18.6361
1207,Fejér,FE,Gárdony,2485,47.2094,18.6361
1208,Fejér,FE,Pusztaszabolcs,2490,47.1372,18.767
1209,Fejér,FE,Sárbogárd,7000,46.8869,18.6204
1210,Fejér,FE,Sárbogárd,7003,46.8869,18.6204
1211,Fejér,FE,Alap,7011,46.7991,18.6894
1212,Fejér,FE,Alsószentiván,7012,46.7866,18.7296
1213,Fejér,FE,Cece,7013,46.7706,18.6283
1214,Fejér,FE,Sáregres,7014,46.7809,18.5924
1215,Fejér,FE,Igar,7015,46.7814,18.5157
1216,Fejér,FE,Mezőszilas,7017,46.8111,18.4779
1217,Fejér,FE,Sárbogárd,7018,46.8869,18.6204
1218,Fejér,FE,Sárbogárd,7019,46.8869,18.6204
1219,Fejér,FE,Vajta,7041,46.7176,18.6657
1220,Fejér,FE,Székesfehérvár,8000,47.1899,18.4103
1221,Fejér,FE,Székesfehérvár,8019,47.1899,18.4103
1222,Fejér,FE,Csór,8041,47.2057,18.2567
1223,Fejér,FE,Moha,8042,47.243,18.3349
1224,Fejér,FE,Iszkaszentgyörgy,8043,47.2372,18.2948
1225,Fejér,FE,Kincsesbánya,8044,47.2644,18.2779
1226,Fejér,FE,Isztimér,8045,47.2788,18.1954
1227,Fejér,FE,Bakonykúti,8046,47.2457,18.1954
1228,Fejér,FE,Sárkeresztes,8051,47.2548,18.3488
1229,Fejér,FE,Fehérvárcsurgó,8052,47.2935,18.2646
1230,Fejér,FE,Bodajk,8053,47.3235,18.2331
1231,Fejér,FE,Balinka,8054,47.3135,18.1895
1232,Fejér,FE,Balinka,8055,47.3135,18.1895
1233,Fejér,FE,Bakonycsernye,8056,47.3239,18.0751
1234,Fejér,FE,Mór,8060,47.3779,18.2035
1235,Fejér,FE,Nagyveleg,8065,47.3598,18.1096
1236,Fejér,FE,Pusztavám,8066,47.4295,18.2265
1237,Fejér,FE,Magyaralmás,8071,47.291,18.3265
1238,Fejér,FE,Söréd,8072,47.3243,18.2793
1239,Fejér,FE,Csákberény,8073,47.3464,18.3288
1240,Fejér,FE,Csókakő,8074,47.3518,18.2702
1241,Fejér,FE,Bodmér,8080,47.45,18.535
1242,Fejér,FE,Zámoly,8081,47.3167,18.4081
1243,Fejér,FE,Gánt,8082,47.3911,18.3887
1244,Fejér,FE,Csákvár,8083,47.3918,18.465
1245,Fejér,FE,Vértesboglár,8085,47.4287,18.5248
1246,Fejér,FE,Felcsút,8086,47.458,18.5863
1247,Fejér,FE,Alcsútdoboz,8087,47.4284,18.6043
1248,Fejér,FE,Tabajd,8088,47.4075,18.6251
1249,Fejér,FE,Vértesacsa,8089,47.3715,18.5776
1250,Fejér,FE,Pátka,8092,47.2785,18.4878
1251,Fejér,FE,Lovasberény,8093,47.31,18.5518
1252,Fejér,FE,Pákozd,8095,47.2137,18.5331
1253,Fejér,FE,Sukoró,8096,47.2393,18.6034
1254,Fejér,FE,Nadap,8097,47.2566,18.6152
1255,Fejér,FE,Seregélyes,8111,47.1105,18.565
1256,Fejér,FE,Zichyújfalu,8112,47.1333,18.6833
1257,Fejér,FE,Tác,8121,47.0824,18.3998
1258,Fejér,FE,Csősz,8122,47.0376,18.415
1259,Fejér,FE,Soponya,8123,47.0148,18.4534
1260,Fejér,FE,Káloz,8124,46.9546,18.4826
1261,Fejér,FE,Sárkeresztúr,8125,47.0054,18.5439
1262,Fejér,FE,Sárszentágota,8126,46.9719,18.5659
1263,Fejér,FE,Aba,8127,47.0291,18.5217
1264,Fejér,FE,Enying,8130,46.9305,18.242
1265,Fejér,FE,Enying,8131,46.9305,18.242
1266,Fejér,FE,Lepsény,8132,46.9904,18.2436
1267,Fejér,FE,Mezőszentgyörgy,8133,46.992,18.282
1268,Fejér,FE,Mátyásdomb,8134,46.9222,18.3478
1269,Fejér,FE,Dég,8135,46.8681,18.4504
1270,Fejér,FE,Lajoskomárom,8136,46.842,18.3376
1271,Fejér,FE,Mezőkomárom,8137,46.8259,18.2935
1272,Fejér,FE,Szabadhídvég,8138,46.8174,18.2685
1273,Fejér,FE,Úrhida,8142,47.1386,18.338
1274,Fejér,FE,Sárszentmihály,8143,47.1532,18.3388
1275,Fejér,FE,Sárkeszi,8144,47.1582,18.2864
1276,Fejér,FE,Nádasdladány,8145,47.1383,18.2397
1277,Fejér,FE,Jenő,8146,47.1046,18.2509
1278,Fejér,FE,Szabadbattyán,8151,47.119,18.3682
1279,Fejér,FE,Kőszárhegy,8152,47.0925,18.3456
1280,Fejér,FE,Polgárdi,8154,47.061,18.302
1281,Fejér,FE,Kisláng,8156,46.9574,18.3881
1282,Fejér,FE,Füle,8157,47.0533,18.2484
1283,Győr-Moson-Sopron,GS,Győr,9000,47.6308,17.7295
1284,Győr-Moson-Sopron,GS,Győr,9011,47.6833,17.6351
1285,Győr-Moson-Sopron,GS,Győr,9012,47.6833,17.6351
1286,Győr-Moson-Sopron,GS,Győr,9019,47.6833,17.6351
1287,Győr-Moson-Sopron,GS,Győr,9021,47.6833,17.6351
1288,Győr-Moson-Sopron,GS,Győr,9022,47.6833,17.6351
1289,Győr-Moson-Sopron,GS,Győr,9023,47.6833,17.6351
1290,Győr-Moson-Sopron,GS,Győr,9024,47.6833,17.6351
1291,Győr-Moson-Sopron,GS,Győr,9025,47.6833,17.6351
1292,Győr-Moson-Sopron,GS,Győr,9026,47.6833,17.6351
1293,Győr-Moson-Sopron,GS,Győr,9027,47.6833,17.6351
1294,Győr-Moson-Sopron,GS,Győr,9028,47.6833,17.6351
1295,Győr-Moson-Sopron,GS,Győr,9029,47.6833,17.6351
1296,Győr-Moson-Sopron,GS,Győr,9030,47.6833,17.6351
1297,Győr-Moson-Sopron,GS,Vámosszabadi,9061,47.7552,17.6477
1298,Győr-Moson-Sopron,GS,Vének,9062,47.7398,17.7583
1299,Győr-Moson-Sopron,GS,Kisbajcs,9062,47.746,17.6806
1300,Győr-Moson-Sopron,GS,Nagybajcs,9063,47.7661,17.6886
1301,Győr-Moson-Sopron,GS,Vámosszabadi,9064,47.7552,17.6477
1302,Győr-Moson-Sopron,GS,Gönyű,9071,47.7333,17.8333
1303,Győr-Moson-Sopron,GS,Nagyszentjános,9072,47.7103,17.8696
1304,Győr-Moson-Sopron,GS,Bőny,9073,47.65,17.8698
1305,Győr-Moson-Sopron,GS,Rétalap,9074,47.6061,17.909
1306,Győr-Moson-Sopron,GS,Győrújbarát,9081,47.6064,17.6488
1307,Győr-Moson-Sopron,GS,Nyúl,9082,47.5905,17.689
1308,Győr-Moson-Sopron,GS,Écs,9083,47.5609,17.7067
1309,Győr-Moson-Sopron,GS,Győrság,9084,47.5806,17.7525
1310,Győr-Moson-Sopron,GS,Pázmándfalu,9085,47.5702,17.7856
1311,Győr-Moson-Sopron,GS,Töltéstava,9086,47.6261,17.7338
1312,Győr-Moson-Sopron,GS,Bakonypéterd,9088,47.4668,17.797
1313,Győr-Moson-Sopron,GS,Lázi,9089,47.4645,17.8346
1314,Győr-Moson-Sopron,GS,Pannonhalma,9090,47.5495,17.7554
1315,Győr-Moson-Sopron,GS,Ravazd,9091,47.5142,17.7536
1316,Győr-Moson-Sopron,GS,Tarjánpuszta,9092,47.5,17.7833
1317,Győr-Moson-Sopron,GS,Győrasszonyfa,9093,47.5,17.8
1318,Győr-Moson-Sopron,GS,Tápszentmiklós,9094,47.5,17.85
1319,Győr-Moson-Sopron,GS,Táp,9095,47.52,17.8249
1320,Győr-Moson-Sopron,GS,Nyalka,9096,47.5436,17.8083
1321,Győr-Moson-Sopron,GS,Mezőörs,9097,47.5689,17.8824
1322,Győr-Moson-Sopron,GS,Pér,9098,47.6115,17.8063
1323,Győr-Moson-Sopron,GS,Pér,9099,47.6115,17.8063
1324,Győr-Moson-Sopron,GS,Tét,9100,47.5192,17.508
1325,Győr-Moson-Sopron,GS,Tényő,9111,47.5376,17.6386
1326,Győr-Moson-Sopron,GS,Sokorópátka,9112,47.4808,17.702
1327,Győr-Moson-Sopron,GS,Koroncó,9113,47.5988,17.5265
1328,Győr-Moson-Sopron,GS,Győrszemere,9121,47.5526,17.5636
1329,Győr-Moson-Sopron,GS,Felpéc,9122,47.5234,17.5971
1330,Győr-Moson-Sopron,GS,Kajárpéc,9123,47.4907,17.6385
1331,Győr-Moson-Sopron,GS,Gyömöre,9124,47.4977,17.5659
1332,Győr-Moson-Sopron,GS,Szerecseny,9125,47.4628,17.555
1333,Győr-Moson-Sopron,GS,Gyarmat,9126,47.4612,17.4973
1334,Győr-Moson-Sopron,GS,Csikvánd,9127,47.4667,17.4517
1335,Győr-Moson-Sopron,GS,Mórichida,9131,47.5133,17.4195
1336,Győr-Moson-Sopron,GS,Árpás,9132,47.5167,17.4
1337,Győr-Moson-Sopron,GS,Kisbabot,9133,47.5558,17.4157
1338,Győr-Moson-Sopron,GS,Rábaszentmiklós,9133,47.5383,17.4185
1339,Győr-Moson-Sopron,GS,Bodonhely,9134,47.5637,17.4079
1340,Győr-Moson-Sopron,GS,Rábaszentmihály,9135,47.5775,17.4325
1341,Győr-Moson-Sopron,GS,Rábacsécsény,9136,47.5861,17.4238
1342,Győr-Moson-Sopron,GS,Mérges,9136,47.6018,17.4433
1343,Győr-Moson-Sopron,GS,Ikrény,9141,47.655,17.5275
1344,Győr-Moson-Sopron,GS,Rábapatona,9142,47.6322,17.48
1345,Győr-Moson-Sopron,GS,Enese,9143,47.6463,17.4233
1346,Győr-Moson-Sopron,GS,Kóny,9144,47.6305,17.3572
1347,Győr-Moson-Sopron,GS,Bágyogszovát,9145,47.5844,17.3639
1348,Győr-Moson-Sopron,GS,Rábapordány,9146,47.5577,17.3275
1349,Győr-Moson-Sopron,GS,Dör,9147,47.5988,17.2998
1350,Győr-Moson-Sopron,GS,Abda,9151,47.6946,17.5449
1351,Győr-Moson-Sopron,GS,Börcs,9152,47.6853,17.4999
1352,Győr-Moson-Sopron,GS,Öttevény,9153,47.7195,17.4847
1353,Győr-Moson-Sopron,GS,Mosonszentmiklós,9154,47.7278,17.4278
1354,Győr-Moson-Sopron,GS,Lébény,9155,47.7357,17.3908
1355,Győr-Moson-Sopron,GS,Győrsövényház,9161,47.6896,17.3736
1356,Győr-Moson-Sopron,GS,Bezi,9162,47.6737,17.3912
1357,Győr-Moson-Sopron,GS,Fehértó,9163,47.676,17.3466
1358,Győr-Moson-Sopron,GS,Markotabödöge,9164,47.6819,17.3101
1359,Győr-Moson-Sopron,GS,Tárnokréti,9165,47.7212,17.307
1360,Győr-Moson-Sopron,GS,Cakóháza,9165,47.6966,17.2874
1361,Győr-Moson-Sopron,GS,Rábcakapi,9165,47.709,17.2757
1362,Győr-Moson-Sopron,GS,Jánossomorja,9167,47.7862,17.136
1363,Győr-Moson-Sopron,GS,Bősárkány,9167,47.6882,17.25
1364,Győr-Moson-Sopron,GS,Csorna,9168,47.6116,17.2501
1365,Győr-Moson-Sopron,GS,Acsalag,9168,47.6785,17.1971
1366,Győr-Moson-Sopron,GS,Barbacs,9169,47.6452,17.2976
1367,Győr-Moson-Sopron,GS,Maglóca,9169,47.6619,17.2743
1368,Győr-Moson-Sopron,GS,Győrújfalu,9171,47.7252,17.6061
1369,Győr-Moson-Sopron,GS,Győrzámoly,9172,47.7432,17.581
1370,Győr-Moson-Sopron,GS,Győrladamér,9173,47.7565,17.5622
1371,Győr-Moson-Sopron,GS,Dunaszeg,9174,47.7704,17.5385
1372,Győr-Moson-Sopron,GS,Dunaszentpál,9175,47.7786,17.5083
1373,Győr-Moson-Sopron,GS,Mecsér,9176,47.7956,17.4754
1374,Győr-Moson-Sopron,GS,Ásványráró,9177,47.8273,17.4942
1375,Győr-Moson-Sopron,GS,Hédervár,9178,47.8293,17.4531
1376,Győr-Moson-Sopron,GS,Kimle,9181,47.8173,17.3664
1377,Győr-Moson-Sopron,GS,Károlyháza,9182,47.7,17.7333
1378,Győr-Moson-Sopron,GS,Mosonszentmiklós,9183,47.7278,17.4278
1379,Győr-Moson-Sopron,GS,Kunsziget,9184,47.7402,17.5225
1380,Győr-Moson-Sopron,GS,Mosonmagyaróvár,9200,47.8679,17.2699
1381,Győr-Moson-Sopron,GS,Feketeerdő,9211,47.9365,17.2792
1382,Győr-Moson-Sopron,GS,Levél,9221,47.8944,17.2039
1383,Győr-Moson-Sopron,GS,Hegyeshalom,9222,47.9134,17.1539
1384,Győr-Moson-Sopron,GS,Bezenye,9223,47.9605,17.2154
1385,Győr-Moson-Sopron,GS,Rajka,9224,47.9964,17.1982
1386,Győr-Moson-Sopron,GS,Dunakiliti,9225,47.9654,17.2866
1387,Győr-Moson-Sopron,GS,Dunasziget,9226,47.9403,17.3527
1388,Győr-Moson-Sopron,GS,Halászi,9228,47.8893,17.3261
1389,Győr-Moson-Sopron,GS,Máriakálnok,9231,47.8611,17.3251
1390,Győr-Moson-Sopron,GS,Darnózseli,9232,47.8494,17.4237
1391,Győr-Moson-Sopron,GS,Lipót,9233,47.8619,17.4631
1392,Győr-Moson-Sopron,GS,Kisbodak,9234,47.8962,17.4192
1393,Győr-Moson-Sopron,GS,Dunaremete,9235,47.877,17.4361
1394,Győr-Moson-Sopron,GS,Püski,9235,47.8848,17.4076
1395,Győr-Moson-Sopron,GS,Jánossomorja,9241,47.7862,17.136
1396,Győr-Moson-Sopron,GS,Jánossomorja,9242,47.7862,17.136
1397,Győr-Moson-Sopron,GS,Várbalog,9243,47.8334,17.0693
1398,Győr-Moson-Sopron,GS,Jánossomorja,9243,47.7862,17.136
1399,Győr-Moson-Sopron,GS,Újrónafő,9244,47.8093,17.2013
1400,Győr-Moson-Sopron,GS,Mosonszolnok,9245,47.8515,17.1739
1401,Győr-Moson-Sopron,GS,Mosonudvar,9246,47.8439,17.2274
1402,Győr-Moson-Sopron,GS,Csorna,9300,47.6116,17.2501
1403,Győr-Moson-Sopron,GS,Pásztori,9311,47.5561,17.2711
1404,Győr-Moson-Sopron,GS,Szilsárkány,9312,47.5396,17.2562
1405,Győr-Moson-Sopron,GS,Rábacsanak,9313,47.526,17.2899
1406,Győr-Moson-Sopron,GS,Egyed,9314,47.5207,17.3387
1407,Győr-Moson-Sopron,GS,Sobor,9315,47.4768,17.3658
1408,Győr-Moson-Sopron,GS,Rábaszentandrás,9316,47.4591,17.3294
1409,Győr-Moson-Sopron,GS,Szany,9317,47.4642,17.304
1410,Győr-Moson-Sopron,GS,Farád,9321,47.6063,17.2002
1411,Győr-Moson-Sopron,GS,Rábatamási,9322,47.5878,17.1696
1412,Győr-Moson-Sopron,GS,Jobaháza,9323,47.5804,17.1864
1413,Győr-Moson-Sopron,GS,Bogyoszló,9324,47.5612,17.1844
1414,Győr-Moson-Sopron,GS,Potyond,9324,47.5494,17.1817
1415,Győr-Moson-Sopron,GS,Sopronnémeti,9325,47.5364,17.2069
1416,Győr-Moson-Sopron,GS,Szil,9326,47.5011,17.2331
1417,Győr-Moson-Sopron,GS,Vág,9327,47.4466,17.2101
1418,Győr-Moson-Sopron,GS,Rábasebes,9327,47.4403,17.2423
1419,Győr-Moson-Sopron,GS,Kapuvár,9330,47.5922,17.0289
1420,Győr-Moson-Sopron,GS,Kapuvár,9339,47.5922,17.0289
1421,Győr-Moson-Sopron,GS,Kisfalud,9341,47.5138,17.0951
1422,Győr-Moson-Sopron,GS,Mihályi,9342,47.5138,17.0951
1423,Győr-Moson-Sopron,GS,Edve,9343,47.45,17.1333
1424,Győr-Moson-Sopron,GS,Vásárosfalu,9343,47.4541,17.115
1425,Győr-Moson-Sopron,GS,Beled,9343,47.4659,17.0929
1426,Győr-Moson-Sopron,GS,Rábakecöl,9344,47.4325,17.1142
1427,Győr-Moson-Sopron,GS,Páli,9345,47.4754,17.1654
1428,Győr-Moson-Sopron,GS,Vadosfa,9346,47.4981,17.1287
1429,Győr-Moson-Sopron,GS,Magyarkeresztúr,9346,47.5215,17.1661
1430,Győr-Moson-Sopron,GS,Zsebeháza,9346,47.5105,17.1911
1431,Győr-Moson-Sopron,GS,Babót,9351,47.5757,17.0743
1432,Győr-Moson-Sopron,GS,Veszkény,9352,47.5999,17.0845
1433,Győr-Moson-Sopron,GS,Szárföld,9353,47.5927,17.1223
1434,Győr-Moson-Sopron,GS,Osli,9354,47.6377,17.0752
1435,Győr-Moson-Sopron,GS,Hövej,9361,47.5511,17.0194
1436,Győr-Moson-Sopron,GS,Himod,9362,47.5198,17.0042
1437,Győr-Moson-Sopron,GS,Gyóró,9363,47.4912,17.0232
1438,Győr-Moson-Sopron,GS,Cirák,9364,47.4782,17.0288
1439,Győr-Moson-Sopron,GS,Dénesfa,9365,47.4579,17.0306
1440,Győr-Moson-Sopron,GS,Vitnyéd,9371,47.5865,16.9828
1441,Győr-Moson-Sopron,GS,Csapod,9372,47.5191,16.9277
1442,Győr-Moson-Sopron,GS,Pusztacsalád,9373,47.4857,16.9021
1443,Győr-Moson-Sopron,GS,Iván,9374,47.4438,16.906
1444,Győr-Moson-Sopron,GS,Répceszemere,9375,47.4276,16.9744
1445,Győr-Moson-Sopron,GS,Csáfordjánosfa,9375,47.416,16.9501
1446,Győr-Moson-Sopron,GS,Csér,9375,47.4175,16.9341
1447,Győr-Moson-Sopron,GS,Sopron,9400,47.685,16.5905
1448,Győr-Moson-Sopron,GS,Sopron,9407,47.685,16.5905
1449,Győr-Moson-Sopron,GS,Sopron,9408,47.685,16.5905
1450,Győr-Moson-Sopron,GS,Fertőrákos,9421,47.7202,16.6504
1451,Győr-Moson-Sopron,GS,Harka,9422,47.6333,16.6
1452,Győr-Moson-Sopron,GS,Ágfalva,9423,47.6899,16.5166
1453,Győr-Moson-Sopron,GS,Fertőd,9431,47.6217,16.8709
1454,Győr-Moson-Sopron,GS,Fertőd,9433,47.6217,16.8709
1455,Győr-Moson-Sopron,GS,Sarród,9434,47.6352,16.8618
1456,Győr-Moson-Sopron,GS,Sarród,9435,47.6352,16.8618
1457,Győr-Moson-Sopron,GS,Fertőszéplak,9436,47.6153,16.8353
1458,Győr-Moson-Sopron,GS,Hegykő,9437,47.6187,16.797
1459,Győr-Moson-Sopron,GS,Sarród,9438,47.6352,16.8618
1460,Győr-Moson-Sopron,GS,Agyagosszergény,9441,47.6101,16.9379
1461,Győr-Moson-Sopron,GS,Fertőendréd,9442,47.6056,16.909
1462,Győr-Moson-Sopron,GS,Petőháza,9443,47.5974,16.8935
1463,Győr-Moson-Sopron,GS,Fertőszentmiklós,9444,47.59,16.8752
1464,Győr-Moson-Sopron,GS,Röjtökmuzsaj,9451,47.5565,16.8356
1465,Győr-Moson-Sopron,GS,Ebergőc,9451,47.5636,16.8113
1466,Győr-Moson-Sopron,GS,Lövő,9461,47.5014,16.7863
1467,Győr-Moson-Sopron,GS,Völcsej,9462,47.497,16.761
1468,Győr-Moson-Sopron,GS,Sopronhorpács,9463,47.4834,16.7353
1469,Győr-Moson-Sopron,GS,Und,9464,47.4891,16.6957
1470,Győr-Moson-Sopron,GS,Nemeskér,9471,47.4833,16.8056
1471,Győr-Moson-Sopron,GS,Újkér,9472,47.4609,16.818
1472,Győr-Moson-Sopron,GS,Egyházasfalu,9473,47.4659,16.7647
1473,Győr-Moson-Sopron,GS,Gyalóka,9474,47.4437,16.695
1474,Győr-Moson-Sopron,GS,Szakony,9474,47.4254,16.7155
1475,Győr-Moson-Sopron,GS,Répcevis,9475,47.4421,16.6715
1476,Győr-Moson-Sopron,GS,Zsira,9476,47.4576,16.6773
1477,Győr-Moson-Sopron,GS,Pinnye,9481,47.5849,16.7691
1478,Győr-Moson-Sopron,GS,Nagylózs,9482,47.565,16.7682
1479,Győr-Moson-Sopron,GS,Sopronkövesd,9483,47.5448,16.7451
1480,Győr-Moson-Sopron,GS,Pereszteg,9484,47.5921,16.7344
1481,Győr-Moson-Sopron,GS,Nagycenk,9485,47.6044,16.6973
1482,Győr-Moson-Sopron,GS,Hidegség,9491,47.6265,16.7415
1483,Győr-Moson-Sopron,GS,Fertőhomok,9492,47.6209,16.7686
1484,Győr-Moson-Sopron,GS,Fertőboz,9493,47.6364,16.7009
1485,Győr-Moson-Sopron,GS,Sopron,9494,47.685,16.5905
1486,Győr-Moson-Sopron,GS,Kópháza,9495,47.6366,16.6426
1487,Hajdú-Bihar,HB,Debrecen,4000,47.5333,21.6333
1488,Hajdú-Bihar,HB,Debrecen,4002,47.5333,21.6333
1489,Hajdú-Bihar,HB,Debrecen,4024,47.5333,21.6333
1490,Hajdú-Bihar,HB,Debrecen,4025,47.5333,21.6333
1491,Hajdú-Bihar,HB,Debrecen,4026,47.5333,21.6333
1492,Hajdú-Bihar,HB,Debrecen,4027,47.5333,21.6333
1493,Hajdú-Bihar,HB,Debrecen,4028,47.5333,21.6333
1494,Hajdú-Bihar,HB,Debrecen,4029,47.5333,21.6333
1495,Hajdú-Bihar,HB,Debrecen,4030,47.5333,21.6333
1496,Hajdú-Bihar,HB,Debrecen,4031,47.5333,21.6333
1497,Hajdú-Bihar,HB,Debrecen,4032,47.5333,21.6333
1498,Hajdú-Bihar,HB,Debrecen,4033,47.5333,21.6333
1499,Hajdú-Bihar,HB,Debrecen,4034,47.5333,21.6333
1500,Hajdú-Bihar,HB,Debrecen,4042,47.5333,21.6333
1501,Hajdú-Bihar,HB,Balmazújváros,4060,47.6167,21.35
1502,Hajdú-Bihar,HB,Debrecen,4063,47.5333,21.6333
1503,Hajdú-Bihar,HB,Nagyhegyes,4064,47.5167,21.4167
1504,Hajdú-Bihar,HB,Újszentmargita,4065,47.7333,21.1
1505,Hajdú-Bihar,HB,Tiszacsege,4066,47.7,21
1506,Hajdú-Bihar,HB,Egyek,4067,47.6333,20.9
1507,Hajdú-Bihar,HB,Egyek,4069,47.6333,20.9
1508,Hajdú-Bihar,HB,Hortobágy,4071,47.5828,21.1511
1509,Hajdú-Bihar,HB,Hajdúböszörmény,4074,47.6667,21.5167
1510,Hajdú-Bihar,HB,Görbeháza,4075,47.8333,21.2333
1511,Hajdú-Bihar,HB,Debrecen,4078,47.5333,21.6333
1512,Hajdú-Bihar,HB,Debrecen,4079,47.5333,21.6333
1513,Hajdú-Bihar,HB,Hajdúnánás,4080,47.85,21.4333
1514,Hajdú-Bihar,HB,Hajdúnánás,4085,47.85,21.4333
1515,Hajdú-Bihar,HB,Hajdúböszörmény,4086,47.6667,21.5167
1516,Hajdú-Bihar,HB,Hajdúdorog,4087,47.8167,21.5
1517,Hajdú-Bihar,HB,Polgár,4090,47.8667,21.1167
1518,Hajdú-Bihar,HB,Folyás,4095,47.8,21.1333
1519,Hajdú-Bihar,HB,Újtikos,4096,47.9167,21.1833
1520,Hajdú-Bihar,HB,Tiszagyulaháza,4097,47.95,21.15
1521,Hajdú-Bihar,HB,Berettyóújfalu,4100,47.2167,21.55
1522,Hajdú-Bihar,HB,Biharkeresztes,4110,47.1333,21.7167
1523,Hajdú-Bihar,HB,Bojt,4114,47.2,21.7333
1524,Hajdú-Bihar,HB,Ártánd,4115,47.1167,21.7667
1525,Hajdú-Bihar,HB,Berekböszörmény,4116,47.0667,21.6833
1526,Hajdú-Bihar,HB,Told,4117,47.1167,21.65
1527,Hajdú-Bihar,HB,Mezőpeterd,4118,47.1667,21.6167
1528,Hajdú-Bihar,HB,Váncsod,4119,47.2,21.65
1529,Hajdú-Bihar,HB,Szentpéterszeg,4121,47.2333,21.6167
1530,Hajdú-Bihar,HB,Gáborján,4122,47.2333,21.6667
1531,Hajdú-Bihar,HB,Hencida,4123,47.25,21.7
1532,Hajdú-Bihar,HB,Esztár,4124,47.2833,21.7833
1533,Hajdú-Bihar,HB,Pocsaj,4125,47.2833,21.8167
1534,Hajdú-Bihar,HB,Kismarja,4126,47.25,21.8333
1535,Hajdú-Bihar,HB,Nagykereki,4127,47.1833,21.8
1536,Hajdú-Bihar,HB,Bedő,4128,47.1667,21.75
1537,Hajdú-Bihar,HB,Derecske,4130,47.35,21.5667
1538,Hajdú-Bihar,HB,Tépe,4132,47.3167,21.5833
1539,Hajdú-Bihar,HB,Konyár,4133,47.3167,21.6667
1540,Hajdú-Bihar,HB,Mezősas,4134,47.1167,21.5667
1541,Hajdú-Bihar,HB,Körösszegapáti,4135,47.0333,21.6333
1542,Hajdú-Bihar,HB,Körösszakál,4136,47.0167,21.6
1543,Hajdú-Bihar,HB,Magyarhomorog,4137,47.0167,21.55
1544,Hajdú-Bihar,HB,Komádi,4138,47,21.5
1545,Hajdú-Bihar,HB,Furta,4141,47.1333,21.4667
1546,Hajdú-Bihar,HB,Zsáka,4142,47.1333,21.4333
1547,Hajdú-Bihar,HB,Vekerd,4143,47.1,21.4
1548,Hajdú-Bihar,HB,Darvas,4144,47.1,21.35
1549,Hajdú-Bihar,HB,Csökmő,4145,47.0333,21.3
1550,Hajdú-Bihar,HB,Újiráz,4146,46.9833,21.3667
1551,Hajdú-Bihar,HB,Püspökladány,4150,47.3167,21.1167
1552,Hajdú-Bihar,HB,Báránd,4161,47.3,21.2333
1553,Hajdú-Bihar,HB,Szerep,4162,47.2333,21.15
1554,Hajdú-Bihar,HB,Szerep,4163,47.2333,21.15
1555,Hajdú-Bihar,HB,Bakonszeg,4164,47.1833,21.45
1556,Hajdú-Bihar,HB,Sárrétudvari,4171,47.2333,21.2
1557,Hajdú-Bihar,HB,Biharnagybajom,4172,47.2167,21.2333
1558,Hajdú-Bihar,HB,Nagyrábé,4173,47.2,21.3333
1559,Hajdú-Bihar,HB,Bihartorda,4174,47.2167,21.3667
1560,Hajdú-Bihar,HB,Bihardancsháza,4175,47.2333,21.3167
1561,Hajdú-Bihar,HB,Sáp,4176,47.25,21.3667
1562,Hajdú-Bihar,HB,Földes,4177,47.3,21.3667
1563,Hajdú-Bihar,HB,Nádudvar,4181,47.4167,21.1667
1564,Hajdú-Bihar,HB,Kaba,4183,47.35,21.2833
1565,Hajdú-Bihar,HB,Tetétlen,4184,47.3167,21.3
1566,Hajdú-Bihar,HB,Hajdúszoboszló,4200,47.45,21.4
1567,Hajdú-Bihar,HB,Ebes,4211,47.4667,21.5
1568,Hajdú-Bihar,HB,Hajdúszovát,4212,47.3833,21.4833
1569,Hajdú-Bihar,HB,Hajdúböszörmény,4220,47.6667,21.5167
1570,Hajdú-Bihar,HB,Hajdúböszörmény,4224,47.6667,21.5167
1571,Hajdú-Bihar,HB,Debrecen,4225,47.5333,21.6333
1572,Hajdú-Bihar,HB,Bocskaikert,4241,47.43,21.9107
1573,Hajdú-Bihar,HB,Hajdúhadház,4242,47.6833,21.6667
1574,Hajdú-Bihar,HB,Téglás,4243,47.7167,21.6833
1575,Hajdú-Bihar,HB,Hajdúsámson,4251,47.6,21.7667
1576,Hajdú-Bihar,HB,Nyíradony,4252,47.6975,21.9188
1577,Hajdú-Bihar,HB,Nyíradony,4253,47.6975,21.9188
1578,Hajdú-Bihar,HB,Nyíradony,4254,47.6975,21.9188
1579,Hajdú-Bihar,HB,Nyíracsád,4262,47.6033,21.9721
1580,Hajdú-Bihar,HB,Nyírmártonfalva,4263,47.5833,21.9
1581,Hajdú-Bihar,HB,Nyírábrány,4264,47.5531,22.024
1582,Hajdú-Bihar,HB,Fülöp,4266,47.6188,22.0835
1583,Hajdú-Bihar,HB,Mikepércs,4271,47.45,21.6333
1584,Hajdú-Bihar,HB,Sáránd,4272,47.4,21.6333
1585,Hajdú-Bihar,HB,Hajdúbagos,4273,47.3929,21.6655
1586,Hajdú-Bihar,HB,Hosszúpályi,4274,47.393,21.7328
1587,Hajdú-Bihar,HB,Monostorpályi,4275,47.4,21.7833
1588,Hajdú-Bihar,HB,Létavértes,4281,47.3833,21.9
1589,Hajdú-Bihar,HB,Létavértes,4283,47.3833,21.9
1590,Hajdú-Bihar,HB,Kokad,4284,47.4062,21.9345
1591,Hajdú-Bihar,HB,Álmosd,4285,47.4187,21.978
1592,Hajdú-Bihar,HB,Bagamér,4286,47.4488,21.989
1593,Hajdú-Bihar,HB,Vámospércs,4287,47.5333,21.9
1594,Hajdú-Bihar,HB,Újléta,4288,47.4667,21.8833
1595,Heves,HE,Hatvan,3000,47.6667,19.6833
1596,Heves,HE,Kerekharaszt,3009,47.6667,19.6167
1597,Heves,HE,Heréd,3011,47.7064,19.6331
1598,Heves,HE,Nagykökényes,3012,47.7337,19.5987
1599,Heves,HE,Ecséd,3013,47.7327,19.767
1600,Heves,HE,Hort,3014,47.6908,19.7893
1601,Heves,HE,Csány,3015,47.6483,19.8297
1602,Heves,HE,Boldog,3016,47.6029,19.6884
1603,Heves,HE,Lőrinci,3021,47.733,19.6787
1604,Heves,HE,Lőrinci,3022,47.733,19.6787
1605,Heves,HE,Petőfibánya,3023,47.7696,19.6999
1606,Heves,HE,Lőrinci,3024,47.733,19.6787
1607,Heves,HE,Zagyvaszántó,3031,47.777,19.6709
1608,Heves,HE,Apc,3032,47.7942,19.6943
1609,Heves,HE,Rózsaszentmárton,3033,47.782,19.7421
1610,Heves,HE,Szűcsi,3034,47.8,19.7667
1611,Heves,HE,Gyöngyöspata,3035,47.815,19.7892
1612,Heves,HE,Gyöngyöstarján,3036,47.8137,19.8672
1613,Heves,HE,Gyöngyös,3200,47.7826,19.928
1614,Heves,HE,Gyöngyösoroszi,3211,47.8273,19.8917
1615,Heves,HE,Gyöngyöshalász,3212,47.7416,19.9288
1616,Heves,HE,Atkár,3213,47.7208,19.8913
1617,Heves,HE,Nagyréde,3214,47.7654,19.8482
1618,Heves,HE,Gyöngyös,3221,47.7826,19.928
1619,Heves,HE,Gyöngyössolymos,3231,47.8172,19.9362
1620,Heves,HE,Gyöngyös,3232,47.7826,19.928
1621,Heves,HE,Gyöngyös,3233,47.7826,19.928
1622,Heves,HE,Mátraszentimre,3234,47.9093,19.8782
1623,Heves,HE,Mátraszentimre,3235,47.9093,19.8782
1624,Heves,HE,Parád,3240,47.9232,20.0297
1625,Heves,HE,Parádsasvár,3242,47.9126,19.9771
1626,Heves,HE,Bodony,3243,47.9434,20.0231
1627,Heves,HE,Parád,3244,47.9232,20.0297
1628,Heves,HE,Recsk,3245,47.9333,20.1167
1629,Heves,HE,Mátraderecske,3246,47.95,20.0833
1630,Heves,HE,Mátraballa,3247,47.9857,20.0229
1631,Heves,HE,Ivád,3248,48.0167,20.0667
1632,Heves,HE,Pétervására,3250,48.0167,20.1
1633,Heves,HE,Erdőkövesd,3252,48.0333,20.1
1634,Heves,HE,Istenmezeje,3253,48.0794,20.0507
1635,Heves,HE,Váraszó,3254,48.0333,20.1167
1636,Heves,HE,Fedémes,3255,48.0333,20.2
1637,Heves,HE,Kisfüzes,3256,47.9833,20.1333
1638,Heves,HE,Bükkszenterzsébet,3257,48.0546,20.1633
1639,Heves,HE,Tarnalelesz,3258,48.05,20.1833
1640,Heves,HE,Szentdomonkos,3259,48.0667,20.2
1641,Heves,HE,Pálosvörösmart,3261,47.797,20.0032
1642,Heves,HE,Abasár,3261,47.797,20.0032
1643,Heves,HE,Markaz,3262,47.8167,20.0667
1644,Heves,HE,Domoszló,3263,47.8333,20.1167
1645,Heves,HE,Kisnána,3264,47.85,20.15
1646,Heves,HE,Vécs,3265,47.8167,20.1667
1647,Heves,HE,Visonta,3271,47.78,20.0291
1648,Heves,HE,Visonta,3272,47.78,20.0291
1649,Heves,HE,Halmajugra,3273,47.7667,20.0667
1650,Heves,HE,Ludas,3274,47.7333,20.1
1651,Heves,HE,Detk,3275,47.75,20.1
1652,Heves,HE,Karácsond,3281,47.7296,20.0308
1653,Heves,HE,Nagyfüged,3282,47.6833,20.1167
1654,Heves,HE,Tarnazsadány,3283,47.6667,20.1667
1655,Heves,HE,Tarnaméra,3284,47.65,20.1667
1656,Heves,HE,Vámosgyörk,3291,47.6843,19.9292
1657,Heves,HE,Adács,3292,47.6921,19.977
1658,Heves,HE,Visznek,3293,47.6425,20.0277
1659,Heves,HE,Tarnaörs,3294,47.595,20.0525
1660,Heves,HE,Erk,3295,47.6167,20.0833
1661,Heves,HE,Zaránk,3296,47.65,20.1167
1662,Heves,HE,Eger,3300,47.9026,20.3733
1663,Heves,HE,Egerbakta,3321,47.9333,20.3
1664,Heves,HE,Hevesaranyos,3322,48.0167,20.2333
1665,Heves,HE,Szarvaskő,3323,47.9026,20.3733
1666,Heves,HE,Felsőtárkány,3324,47.9667,20.4167
1667,Heves,HE,Noszvaj,3325,47.9333,20.4833
1668,Heves,HE,Ostoros,3326,47.8667,20.4333
1669,Heves,HE,Novaj,3327,47.85,20.4833
1670,Heves,HE,Egerszólát,3328,47.8833,20.2667
1671,Heves,HE,Tarnaszentmária,3331,47.8833,20.2
1672,Heves,HE,Sirok,3332,47.9333,20.2
1673,Heves,HE,Terpes,3333,47.9667,20.15
1674,Heves,HE,Szajla,3334,47.9667,20.15
1675,Heves,HE,Bükkszék,3335,47.9833,20.1833
1676,Heves,HE,Bátor,3336,47.9833,20.2667
1677,Heves,HE,Egerbocs,3337,48.0333,20.2667
1678,Heves,HE,Egercsehi,3341,48.05,20.2833
1679,Heves,HE,Szúcs,3341,48.05,20.25
1680,Heves,HE,Bekölce,3343,48.0833,20.2833
1681,Heves,HE,Mikófalva,3344,48.05,20.3167
1682,Heves,HE,Mónosbél,3345,48.034,20.3318
1683,Heves,HE,Bélapátfalva,3346,48.05,20.3667
1684,Heves,HE,Bükkszentmárton,3346,48.0667,20.35
1685,Heves,HE,Balaton,3347,48.0928,20.3062
1686,Heves,HE,Szilvásvárad,3348,48.1,20.4
1687,Heves,HE,Nagyvisnyó,3349,48.1333,20.4333
1688,Heves,HE,Kál,3350,47.7333,20.2667
1689,Heves,HE,Verpelét,3351,47.85,20.2333
1690,Heves,HE,Feldebrő,3352,47.8167,20.25
1691,Heves,HE,Aldebrő,3353,47.8,20.2333
1692,Heves,HE,Tófalu,3354,47.7833,20.25
1693,Heves,HE,Kápolna,3355,47.7667,20.25
1694,Heves,HE,Kompolt,3356,47.7333,20.25
1695,Heves,HE,Nagyút,3357,47.7167,20.1667
1696,Heves,HE,Erdőtelek,3358,47.6833,20.3167
1697,Heves,HE,Tenk,3359,47.65,20.35
1698,Heves,HE,Heves,3360,47.6,20.2833
1699,Heves,HE,Boconád,3368,47.6333,20.2
1700,Heves,HE,Tarnabod,3369,47.6833,20.2333
1701,Heves,HE,Átány,3371,47.6156,20.3625
1702,Heves,HE,Kömlő,3372,47.6,20.45
1703,Heves,HE,Besenyőtelek,3373,47.7,20.4333
1704,Heves,HE,Dormánd,3374,47.7167,20.4167
1705,Heves,HE,Mezőtárkány,3375,47.7167,20.4833
1706,Heves,HE,Szihalom,3377,47.7667,20.4833
1707,Heves,HE,Mezőszemere,3378,47.75,20.5333
1708,Heves,HE,Egerfarmos,3379,47.7167,20.55
1709,Heves,HE,Pély,3381,47.4833,20.35
1710,Heves,HE,Tarnaszentmiklós,3382,47.5333,20.3833
1711,Heves,HE,Hevesvezekény,3383,47.55,20.3667
1712,Heves,HE,Kisköre,3384,47.5,20.5
1713,Heves,HE,Tiszanána,3385,47.5667,20.5333
1714,Heves,HE,Sarud,3386,47.5833,20.6
1715,Heves,HE,Újlőrincfalva,3387,47.6333,20.6
1716,Heves,HE,Poroszló,3388,47.65,20.6667
1717,Heves,HE,Füzesabony,3390,47.75,20.4167
1718,Heves,HE,Egerszalók,3394,47.8667,20.3333
1719,Heves,HE,Demjén,3395,47.8333,20.3333
1720,Heves,HE,Kerecsend,3396,47.8,20.35
1721,Heves,HE,Maklár,3397,47.8,20.4167
1722,Heves,HE,Nagytálya,3398,47.8167,20.4167
1723,Heves,HE,Andornaktálya,3399,47.85,20.4167
1724,Jász-Nagykun-Szolnok,JN,Szolnok,5000,47.1833,20.2
1725,Jász-Nagykun-Szolnok,JN,Szolnok,5008,47.1833,20.2
1726,Jász-Nagykun-Szolnok,JN,Zagyvarékas,5051,47.2667,20.1333
1727,Jász-Nagykun-Szolnok,JN,Újszász,5052,47.3,20.0833
1728,Jász-Nagykun-Szolnok,JN,Szászberek,5053,47.3167,20.1
1729,Jász-Nagykun-Szolnok,JN,Jászalsószentgyörgy,5054,47.3667,20.1
1730,Jász-Nagykun-Szolnok,JN,Jászladány,5055,47.3667,20.1667
1731,Jász-Nagykun-Szolnok,JN,Tiszasüly,5061,47.3833,20.4
1732,Jász-Nagykun-Szolnok,JN,Kőtelek,5062,47.3333,20.45
1733,Jász-Nagykun-Szolnok,JN,Hunyadfalva,5063,47.3167,20.3833
1734,Jász-Nagykun-Szolnok,JN,Csataszög,5064,47.2833,20.4
1735,Jász-Nagykun-Szolnok,JN,Nagykörű,5065,47.2667,20.45
1736,Jász-Nagykun-Szolnok,JN,Besenyszög,5071,47.3,20.2667
1737,Jász-Nagykun-Szolnok,JN,Szajol,5081,47.1833,20.3
1738,Jász-Nagykun-Szolnok,JN,Tiszatenyő,5082,47.1333,20.3833
1739,Jász-Nagykun-Szolnok,JN,Kengyel,5083,47.0833,20.3333
1740,Jász-Nagykun-Szolnok,JN,Rákócziújfalu,5084,47.0667,20.2667
1741,Jász-Nagykun-Szolnok,JN,Rákóczifalva,5085,47.0833,20.2333
1742,Jász-Nagykun-Szolnok,JN,Tószeg,5091,47.1,20.15
1743,Jász-Nagykun-Szolnok,JN,Tiszavárkony,5092,47.0667,20.1833
1744,Jász-Nagykun-Szolnok,JN,Vezseny,5093,47.0333,20.2167
1745,Jász-Nagykun-Szolnok,JN,Tiszajenő,5094,47.0333,20.15
1746,Jász-Nagykun-Szolnok,JN,Tiszavárkony,5095,47.0667,20.1833
1747,Jász-Nagykun-Szolnok,JN,Jászberény,5100,47.5,19.9167
1748,Jász-Nagykun-Szolnok,JN,Jászfelsőszentgyörgy,5111,47.5074,19.7839
1749,Jász-Nagykun-Szolnok,JN,Jászjákóhalma,5121,47.5204,19.9909
1750,Jász-Nagykun-Szolnok,JN,Jászdózsa,5122,47.5661,20.0153
1751,Jász-Nagykun-Szolnok,JN,Jászárokszállás,5123,47.6424,19.9804
1752,Jász-Nagykun-Szolnok,JN,Jászágó,5124,47.5931,19.8559
1753,Jász-Nagykun-Szolnok,JN,Pusztamonostor,5125,47.5559,19.7966
1754,Jász-Nagykun-Szolnok,JN,Jászfényszaru,5126,47.5702,19.724
1755,Jász-Nagykun-Szolnok,JN,Jászapáti,5130,47.5167,20.15
1756,Jász-Nagykun-Szolnok,JN,Jászivány,5135,47.5222,20.2446
1757,Jász-Nagykun-Szolnok,JN,Jászszentandrás,5136,47.5833,20.1833
1758,Jász-Nagykun-Szolnok,JN,Jászkisér,5137,47.45,20.2167
1759,Jász-Nagykun-Szolnok,JN,Jásztelek,5141,47.4829,20.0037
1760,Jász-Nagykun-Szolnok,JN,Alattyán,5142,47.4271,20.0422
1761,Jász-Nagykun-Szolnok,JN,Jánoshida,5143,47.3833,20.0667
1762,Jász-Nagykun-Szolnok,JN,Jászboldogháza,5144,47.3676,19.9961
1763,Jász-Nagykun-Szolnok,JN,Jászberény,5152,47.5,19.9167
1764,Jász-Nagykun-Szolnok,JN,Törökszentmiklós,5200,47.1833,20.4167
1765,Jász-Nagykun-Szolnok,JN,Tiszapüspöki,5211,47.2167,20.3167
1766,Jász-Nagykun-Szolnok,JN,Törökszentmiklós,5212,47.1833,20.4167
1767,Jász-Nagykun-Szolnok,JN,Fegyvernek,5213,47.2667,20.5333
1768,Jász-Nagykun-Szolnok,JN,Örményes,5222,47.2,20.5833
1769,Jász-Nagykun-Szolnok,JN,Fegyvernek,5231,47.2667,20.5333
1770,Jász-Nagykun-Szolnok,JN,Tiszabő,5232,47.3,20.4833
1771,Jász-Nagykun-Szolnok,JN,Tiszagyenda,5233,47.3833,20.5167
1772,Jász-Nagykun-Szolnok,JN,Tiszaroff,5234,47.4,20.45
1773,Jász-Nagykun-Szolnok,JN,Tiszabura,5235,47.45,20.4667
1774,Jász-Nagykun-Szolnok,JN,Abádszalók,5241,47.4667,20.6
1775,Jász-Nagykun-Szolnok,JN,Tiszaderzs,5243,47.5167,20.65
1776,Jász-Nagykun-Szolnok,JN,Tiszaszőlős,5244,47.5571,20.7195
1777,Jász-Nagykun-Szolnok,JN,Karcag,5300,47.3167,20.9333
1778,Jász-Nagykun-Szolnok,JN,Berekfürdő,5309,47.3833,20.85
1779,Jász-Nagykun-Szolnok,JN,Kisújszállás,5310,47.2167,20.7667
1780,Jász-Nagykun-Szolnok,JN,Kunmadaras,5321,47.4333,20.8
1781,Jász-Nagykun-Szolnok,JN,Tiszaszentimre,5322,47.4833,20.7333
1782,Jász-Nagykun-Szolnok,JN,Tiszaszentimre,5323,47.4833,20.7333
1783,Jász-Nagykun-Szolnok,JN,Tomajmonostora,5324,47.4333,20.7167
1784,Jász-Nagykun-Szolnok,JN,Kenderes,5331,47.25,20.6833
1785,Jász-Nagykun-Szolnok,JN,Kunhegyes,5340,47.3667,20.6333
1786,Jász-Nagykun-Szolnok,JN,Kenderes,5349,47.25,20.6833
1787,Jász-Nagykun-Szolnok,JN,Tiszafüred,5350,47.6167,20.7667
1788,Jász-Nagykun-Szolnok,JN,Tiszafüred,5358,47.6167,20.7667
1789,Jász-Nagykun-Szolnok,JN,Tiszafüred,5359,47.6167,20.7667
1790,Jász-Nagykun-Szolnok,JN,Tiszaigar,5361,47.5333,20.8
1791,Jász-Nagykun-Szolnok,JN,Tiszaörs,5362,47.5167,20.8333
1792,Jász-Nagykun-Szolnok,JN,Nagyiván,5363,47.4833,20.9333
1793,Jász-Nagykun-Szolnok,JN,Mezőtúr,5400,47,20.6333
1794,Jász-Nagykun-Szolnok,JN,Kétpó,5411,47.0833,20.4667
1795,Jász-Nagykun-Szolnok,JN,Kuncsorba,5412,47.1333,20.5667
1796,Jász-Nagykun-Szolnok,JN,Túrkeve,5420,47.1,20.75
1797,Jász-Nagykun-Szolnok,JN,Tiszaföldvár,5430,46.9833,20.25
1798,Jász-Nagykun-Szolnok,JN,Martfű,5435,47.0167,20.2833
1799,Jász-Nagykun-Szolnok,JN,Kunszentmárton,5440,46.8392,20.2888
1800,Jász-Nagykun-Szolnok,JN,Kunszentmárton,5449,46.8392,20.2888
1801,Jász-Nagykun-Szolnok,JN,Öcsöd,5451,46.9,20.4
1802,Jász-Nagykun-Szolnok,JN,Mesterszállás,5452,46.95,20.4333
1803,Jász-Nagykun-Szolnok,JN,Mezőhék,5453,47,20.4
1804,Jász-Nagykun-Szolnok,JN,Tiszaföldvár,5461,46.9833,20.25
1805,Jász-Nagykun-Szolnok,JN,Cibakháza,5462,46.9598,20.1975
1806,Jász-Nagykun-Szolnok,JN,Nagyrév,5463,46.9458,20.1432
1807,Jász-Nagykun-Szolnok,JN,Tiszainoka,5464,46.9041,20.1537
1808,Jász-Nagykun-Szolnok,JN,Cserkeszőlő,5465,46.8632,20.187
1809,Jász-Nagykun-Szolnok,JN,Tiszakürt,5471,46.8851,20.1255
1810,Jász-Nagykun-Szolnok,JN,Tiszasas,5474,46.8223,20.0792
1811,Jász-Nagykun-Szolnok,JN,Csépa,5475,46.8055,20.1327
1812,Jász-Nagykun-Szolnok,JN,Szelevény,5476,46.8026,20.2028
1813,Komárom-Esztergom,KE,Dömös,2027,47.7616,18.9131
1814,Komárom-Esztergom,KE,Pilismarót,2028,47.7846,18.8754
1815,Komárom-Esztergom,KE,Esztergom,2500,47.7928,18.7415
1816,Komárom-Esztergom,KE,Esztergom,2508,47.7928,18.7415
1817,Komárom-Esztergom,KE,Esztergom,2509,47.7928,18.7415
1818,Komárom-Esztergom,KE,Dorog,2510,47.721,18.7364
1819,Komárom-Esztergom,KE,Kesztölc,2517,47.7127,18.8018
1820,Komárom-Esztergom,KE,Leányvár,2518,47.6777,18.7772
1821,Komárom-Esztergom,KE,Piliscsév,2519,47.6792,18.8187
1822,Komárom-Esztergom,KE,Csolnok,2521,47.6912,18.7161
1823,Komárom-Esztergom,KE,Dág,2522,47.6626,18.7205
1824,Komárom-Esztergom,KE,Sárisáp,2523,47.677,18.6793
1825,Komárom-Esztergom,KE,Nagysáp,2524,47.6851,18.5984
1826,Komárom-Esztergom,KE,Bajna,2525,47.654,18.5972
1827,Komárom-Esztergom,KE,Epöl,2526,47.6462,18.6362
1828,Komárom-Esztergom,KE,Máriahalom,2527,47.6278,18.7087
1829,Komárom-Esztergom,KE,Úny,2528,47.6424,18.746
1830,Komárom-Esztergom,KE,Annavölgy,2529,47.6608,18.6753
1831,Komárom-Esztergom,KE,Tokod,2531,47.7228,18.6589
1832,Komárom-Esztergom,KE,Tokodaltáró,2532,47.7339,18.6895
1833,Komárom-Esztergom,KE,Bajót,2533,47.7278,18.5559
1834,Komárom-Esztergom,KE,Tát,2534,47.7415,18.6481
1835,Komárom-Esztergom,KE,Mogyorósbánya,2535,47.7284,18.5974
1836,Komárom-Esztergom,KE,Nyergesújfalu,2536,47.7603,18.5569
1837,Komárom-Esztergom,KE,Lábatlan,2541,47.7473,18.4962
1838,Komárom-Esztergom,KE,Süttő,2543,47.7589,18.4487
1839,Komárom-Esztergom,KE,Neszmély,2544,47.7359,18.3597
1840,Komárom-Esztergom,KE,Dunaalmás,2545,47.7287,18.3223
1841,Komárom-Esztergom,KE,Tatabánya,2800,47.5849,18.3933
1842,Komárom-Esztergom,KE,Gyermely,2821,47.5926,18.6445
1843,Komárom-Esztergom,KE,Szomor,2822,47.592,18.6637
1844,Komárom-Esztergom,KE,Vértessomló,2823,47.5105,18.3667
1845,Komárom-Esztergom,KE,Várgesztes,2824,47.4748,18.3967
1846,Komárom-Esztergom,KE,Tarján,2831,47.6104,18.5107
1847,Komárom-Esztergom,KE,Héreg,2832,47.6493,18.5097
1848,Komárom-Esztergom,KE,Vértestolna,2833,47.6274,18.4546
1849,Komárom-Esztergom,KE,Tardos,2834,47.6619,18.4442
1850,Komárom-Esztergom,KE,Tata,2835,47.6529,18.3184
1851,Komárom-Esztergom,KE,Baj,2836,47.6459,18.3641
1852,Komárom-Esztergom,KE,Vértesszőlős,2837,47.6211,18.3813
1853,Komárom-Esztergom,KE,Oroszlány,2840,47.4867,18.3122
1854,Komárom-Esztergom,KE,Környe,2851,47.5467,18.3208
1855,Komárom-Esztergom,KE,Kecskéd,2852,47.523,18.3094
1856,Komárom-Esztergom,KE,Kömlőd,2853,47.5465,18.2602
1857,Komárom-Esztergom,KE,Dad,2854,47.5191,18.2263
1858,Komárom-Esztergom,KE,Bokod,2855,47.4919,18.2474
1859,Komárom-Esztergom,KE,Szákszend,2856,47.5575,18.1647
1860,Komárom-Esztergom,KE,Császár,2858,47.498,18.1427
1861,Komárom-Esztergom,KE,Vérteskethely,2859,47.4888,18.084
1862,Komárom-Esztergom,KE,Bakonysárkány,2861,47.4479,18.1022
1863,Komárom-Esztergom,KE,Aka,2862,47.4024,18.0713
1864,Komárom-Esztergom,KE,Kisbér,2870,47.5029,18.0367
1865,Komárom-Esztergom,KE,Kisbér,2879,47.5029,18.0367
1866,Komárom-Esztergom,KE,Ászár,2881,47.5117,18.0015
1867,Komárom-Esztergom,KE,Kerékteleki,2882,47.5129,17.9368
1868,Komárom-Esztergom,KE,Bársonyos,2883,47.5102,17.9186
1869,Komárom-Esztergom,KE,Bakonyszombathely,2884,47.4717,17.9652
1870,Komárom-Esztergom,KE,Bakonybánk,2885,47.4671,17.9041
1871,Komárom-Esztergom,KE,Réde,2886,47.4298,17.9138
1872,Komárom-Esztergom,KE,Ácsteszér,2887,47.4053,18.0062
1873,Komárom-Esztergom,KE,Csatka,2888,47.3786,17.9781
1874,Komárom-Esztergom,KE,Súr,2889,47.369,18.0304
1875,Komárom-Esztergom,KE,Tata,2890,47.6529,18.3184
1876,Komárom-Esztergom,KE,Szomód,2896,47.6849,18.3406
1877,Komárom-Esztergom,KE,Dunaszentmiklós,2897,47.7039,18.3818
1878,Komárom-Esztergom,KE,Kocs,2898,47.6075,18.2152
1879,Komárom-Esztergom,KE,Naszály,2899,47.7033,18.2575
1880,Komárom-Esztergom,KE,Komárom,2900,47.7432,18.1191
1881,Komárom-Esztergom,KE,Komárom,2903,47.7432,18.1191
1882,Komárom-Esztergom,KE,Mocsa,2911,47.67,18.185
1883,Komárom-Esztergom,KE,Komárom,2921,47.7432,18.1191
1884,Komárom-Esztergom,KE,Almásfüzitő,2931,47.7275,18.2615
1885,Komárom-Esztergom,KE,Ács,2941,47.7123,18.0113
1886,Komárom-Esztergom,KE,Nagyigmánd,2942,47.6409,18.0813
1887,Komárom-Esztergom,KE,Tárkány,2943,47.5929,18.0006
1888,Komárom-Esztergom,KE,Bábolna,2943,47.6436,17.978
1889,Komárom-Esztergom,KE,Bana,2944,47.6517,17.9218
1890,Komárom-Esztergom,KE,Tárkány,2945,47.5929,18.0006
1891,Komárom-Esztergom,KE,Csép,2946,47.5781,18.0636
1892,Komárom-Esztergom,KE,Ete,2947,47.5308,18.0753
1893,Komárom-Esztergom,KE,Kisigmánd,2948,47.654,18.0989
1894,Komárom-Esztergom,KE,Csém,2949,47.6812,18.0872
1895,Nógrád,NO,Kálló,2175,47.7486,19.4861
1896,Nógrád,NO,Erdőkürt,2176,47.7734,19.4609
1897,Nógrád,NO,Erdőtarcsa,2177,47.7667,19.55
1898,Nógrád,NO,Ősagárd,2610,47.8585,19.1934
1899,Nógrád,NO,Nőtincs,2610,47.8854,19.1443
1900,Nógrád,NO,Felsőpetény,2611,47.8912,19.1969
1901,Nógrád,NO,Keszeg,2616,47.8385,19.2461
1902,Nógrád,NO,Alsópetény,2617,47.8758,19.244
1903,Nógrád,NO,Nézsa,2618,47.8443,19.303
1904,Nógrád,NO,Legénd,2619,47.8798,19.3103
1905,Nógrád,NO,Szendehely,2640,47.8555,19.1044
1906,Nógrád,NO,Berkenye,2641,47.8888,19.0736
1907,Nógrád,NO,Nógrád,2642,47.9085,19.0481
1908,Nógrád,NO,Diósjenő,2643,47.9397,19.0432
1909,Nógrád,NO,Borsosberény,2644,47.9743,19.1168
1910,Nógrád,NO,Nagyoroszi,2645,48.005,19.0905
1911,Nógrád,NO,Drégelypalánk,2646,48.0472,19.0519
1912,Nógrád,NO,Hont,2647,48.0511,18.9919
1913,Nógrád,NO,Patak,2648,48.0229,19.1452
1914,Nógrád,NO,Dejtár,2649,48.0371,19.1646
1915,Nógrád,NO,Rétság,2651,47.9282,19.1372
1916,Nógrád,NO,Tereske,2652,47.9491,19.201
1917,Nógrád,NO,Bánk,2653,47.925,19.1736
1918,Nógrád,NO,Romhány,2654,47.9262,19.2572
1919,Nógrád,NO,Szente,2655,47.9664,19.2874
1920,Nógrád,NO,Kétbodony,2655,47.9374,19.2855
1921,Nógrád,NO,Kisecset,2655,47.9349,19.3164
1922,Nógrád,NO,Szátok,2656,47.9563,19.2306
1923,Nógrád,NO,Tolmács,2657,47.9294,19.1093
1924,Nógrád,NO,Horpács,2658,47.9972,19.1291
1925,Nógrád,NO,Pusztaberki,2658,47.9751,19.1623
1926,Nógrád,NO,Érsekvadkert,2659,47.9962,19.2023
1927,Nógrád,NO,Balassagyarmat,2660,48.073,19.2961
1928,Nógrád,NO,Ipolyszög,2660,48.073,19.2961
1929,Nógrád,NO,Patvarc,2668,48.0651,19.3468
1930,Nógrád,NO,Ipolyvece,2669,48.0608,19.1072
1931,Nógrád,NO,Őrhalom,2671,48.0785,19.4107
1932,Nógrád,NO,Hugyag,2672,48.089,19.4309
1933,Nógrád,NO,Csitár,2673,48.0539,19.4307
1934,Nógrád,NO,Iliny,2674,48.0331,19.4275
1935,Nógrád,NO,Nógrádmarcal,2675,48.0271,19.3859
1936,Nógrád,NO,Cserhátsurány,2676,47.9791,19.4277
1937,Nógrád,NO,Herencsény,2677,47.9783,19.4761
1938,Nógrád,NO,Csesztve,2678,48.0149,19.2793
1939,Nógrád,NO,Nógrádsáp,2685,47.8389,19.355
1940,Nógrád,NO,Galgaguta,2686,47.851,19.3876
1941,Nógrád,NO,Bercel,2687,47.8706,19.4071
1942,Nógrád,NO,Vanyarc,2688,47.8257,19.4527
1943,Nógrád,NO,Nógrádkövesd,2691,47.8743,19.374
1944,Nógrád,NO,Szécsénke,2692,47.9051,19.3337
1945,Nógrád,NO,Becske,2693,47.9092,19.3763
1946,Nógrád,NO,Magyarnándor,2694,47.9652,19.3378
1947,Nógrád,NO,Cserháthaláp,2694,47.9823,19.3755
1948,Nógrád,NO,Debercsény,2694,47.9599,19.3176
1949,Nógrád,NO,Terény,2696,47.947,19.4438
1950,Nógrád,NO,Szanda,2697,47.927,19.4408
1951,Nógrád,NO,Mohora,2698,47.9923,19.3357
1952,Nógrád,NO,Szügy,2699,48.0353,19.3253
1953,Nógrád,NO,Héhalom,3041,47.7802,19.5852
1954,Nógrád,NO,Palotás,3042,47.7953,19.5962
1955,Nógrád,NO,Egyházasdengeleg,3043,47.8003,19.5503
1956,Nógrád,NO,Szirák,3044,47.831,19.531
1957,Nógrád,NO,Bér,3045,47.8657,19.5022
1958,Nógrád,NO,Kisbágyon,3046,47.8244,19.5835
1959,Nógrád,NO,Buják,3047,47.8835,19.5438
1960,Nógrád,NO,Szarvasgede,3051,47.8213,19.6417
1961,Nógrád,NO,Csécse,3052,47.8667,19.6333
1962,Nógrád,NO,Kozárd,3053,47.9144,19.6192
1963,Nógrád,NO,Ecseg,3053,47.8981,19.6061
1964,Nógrád,NO,Pásztó,3060,47.9202,19.6983
1965,Nógrád,NO,Jobbágyi,3063,47.8324,19.6776
1966,Nógrád,NO,Szurdokpüspöki,3064,47.8592,19.6922
1967,Nógrád,NO,Pásztó,3065,47.9202,19.6983
1968,Nógrád,NO,Bokor,3066,47.933,19.5403
1969,Nógrád,NO,Kutasó,3066,47.9484,19.5422
1970,Nógrád,NO,Cserhátszentiván,3066,47.9394,19.5829
1971,Nógrád,NO,Garáb,3067,47.9778,19.6408
1972,Nógrád,NO,Felsőtold,3067,47.9715,19.6105
1973,Nógrád,NO,Mátraszőlős,3068,47.9587,19.6852
1974,Nógrád,NO,Alsótold,3069,47.9518,19.5972
1975,Nógrád,NO,Bátonyterenye,3070,47.9696,19.8408
1976,Nógrád,NO,Bátonyterenye,3071,47.9696,19.8408
1977,Nógrád,NO,Tar,3073,47.9537,19.7461
1978,Nógrád,NO,Sámsonháza,3074,47.9873,19.7247
1979,Nógrád,NO,Márkháza,3075,48.0172,19.7265
1980,Nógrád,NO,Nagybárkány,3075,47.9973,19.7012
1981,Nógrád,NO,Kisbárkány,3075,48.0167,19.6833
1982,Nógrád,NO,Mátraverebély,3077,47.9742,19.7805
1983,Nógrád,NO,Bátonyterenye,3078,47.9696,19.8408
1984,Nógrád,NO,Pásztó,3082,47.9202,19.6983
1985,Nógrád,NO,Salgótarján,3100,48.0987,19.803
1986,Nógrád,NO,Salgótarján,3102,48.0987,19.803
1987,Nógrád,NO,Salgótarján,3104,48.0987,19.803
1988,Nógrád,NO,Salgótarján,3109,48.0987,19.803
1989,Nógrád,NO,Somoskőújfalu,3121,48.1637,19.823
1990,Nógrád,NO,Cered,3123,48.1467,19.9662
1991,Nógrád,NO,Zabar,3124,48.1444,20.0491
1992,Nógrád,NO,Szilaspogony,3125,48.1176,20.027
1993,Nógrád,NO,Bárna,3126,48.1004,19.9355
1994,Nógrád,NO,Kazár,3127,48.0495,19.8614
1995,Nógrád,NO,Vizslás,3128,48.0517,19.8199
1996,Nógrád,NO,Nagykeresztúr,3129,48.0333,19.7333
1997,Nógrád,NO,Lucfalva,3129,48.0299,19.6902
1998,Nógrád,NO,Sóshartyán,3131,48.0731,19.6791
1999,Nógrád,NO,Nógrádmegyer,3132,48.0683,19.6249
2000,Nógrád,NO,Magyargéc,3133,48.083,19.6026
2001,Nógrád,NO,Piliny,3134,48.141,19.599
2002,Nógrád,NO,Szécsényfelfalu,3135,48.1471,19.5678
2003,Nógrád,NO,Etes,3136,48.1111,19.7192
2004,Nógrád,NO,Karancsberény,3137,48.1839,19.7481
2005,Nógrád,NO,Ipolytarnóc,3138,48.2382,19.6247
2006,Nógrád,NO,Salgótarján,3141,48.0987,19.803
2007,Nógrád,NO,Mátraszele,3142,48.0549,19.8957
