,id,name,address,city,state,zip,county,phone,type,ownership,emergency,quality,LAT,LON
0,20000,(ICO) Institut de Cancérologie de l'Ouest - Centre Paul Papin,rue André Boquel 15,Angers,Maine-et-loire,49100,,,,,,,47.4836332,-0.5565815
1,20001,A.U.R.A. Auvergne Dialyse,,Chamalières,Puy-de-dôme,63400,,,,,,,45.7794328,3.0497259
2,20002,ARGOS,,Strasbourg,Grand Est,67000,,,,,,,48.5746199,7.74461
3,20003,Abri Montagnard,,Borce,Pyrénées-atlantiques,64490,,,,,,,42.991559,-0.59979
4,20004,Abri Montagnard,,Borce,Pyrénées-atlantiques,64490,,,,,,,43.00044,-0.624863
5,20005,Allée des Dryades,,Valence,Drôme,26000,,,,,,,44.9107463,4.8894999
6,20006,American Memorial Hospital,,Reims,Grand Est,51100,,,,,,,49.2310785,4.0175041
7,20007,Ancien Hopital de Monbran (fermé),,Colayrac-Saint-Cirq,Lot-et-garonne,47450,,,,,,,44.2331905,0.6009845
8,20008,Ancien Hôpital,,Le Lorrain,Martinique,97214,,,,,,,14.8346374,-61.0575732
9,20009,Ancien hôpital,Rue Maître Georges Lefêvre nan,,Saint Pierre And Miquelon,,,,,,,,46.7828865,-56.1727707
10,20010,Ancien hôtel-Dieu,,L'Isle-sur-la-Sorgue,Vaucluse,84800,,,,,,,43.9197151,5.0490016
11,20011,Ancienne Clinique Fardeau,,,Vaucluse,,,,,,No,,47.25308,-0.083139
12,20012,Anciens Hôpitaux Maringer Villemin Fournier,,Nancy,Grand Est,54000,,,,,,,48.6775166,6.1888116
13,20013,Antenne medico-psychologique,,,Grand Est,,,,,,,,-20.5588743,164.2804961
14,20014,Arnault Tzanck Mougins,,Mougins,Alpes-maritimes,06250,,+33 4 97 16 68 00,,,,,43.6078282,7.0115289
15,20015,Association Audoise Sociale et Médicale,,Limoux,Occitanie,11300,,,,,No,,43.0558555,2.2202385
16,20016,Aura,,Paris,Paris,75014,,,,,No,,48.8294695,2.3104442
17,20017,Automne en Aspe,,Borce,Pyrénées-atlantiques,64490,,,,,,,42.995011,-0.614661
18,20018,Avenue du Docteur Santy,,Valence,Drôme,26000,,,,,,,44.9149623,4.9080471
19,20019,Bercail Saint-Denis,,Héricourt-en-Caux,Normandie,76560,,,,,,,49.700301,0.7106935
20,20020,Biologie du cancer,,Paris,Paris,75005,,,,,,,48.8442219,2.3431408
21,20021,Boulevard Franklin Roosevelt,,Valence,Drôme,26000,,,,,,,44.9123072,4.9087127
22,20022,Boulevard du Maréchal Juin,,Valence,Drôme,26000,,,,,,,44.9120235,4.9077377
23,20023,Boulevard du Maréchal Juin,,Valence,Drôme,26000,,,,,,,44.9117857,4.9057837
24,20024,Boulevard du Maréchal Juin,,Valence,Drôme,26000,,,,,,,44.9116889,4.9055168
25,20025,Boulevard du Maréchal Juin,,Valence,Drôme,26000,,,,,,,44.9121338,4.9084546
26,20026,Boulevard du Maréchal Juin,,Valence,Drôme,26000,,,,,,,44.9122428,4.9086393
27,20027,Boulevard du Maréchal Juin,,Valence,Drôme,26000,,,,,,,44.9118162,4.9063751
28,20028,Boulevard du Maréchal Juin,,Valence,Drôme,26000,,,,,,,44.9118344,4.9061369
29,20029,Bâtiment 101 - Centre de protonthérapie,Avenue Irène et Frédéric Joliot-Curie Bâtiment 101,,Essonne,,,+33 1 69 29 87 00,,,No,,48.6978483,2.1765925
30,20030,Bâtiment Constant Burg,Rue d'Ulm 45,Paris,Paris,75005,,,,,,,48.8435477,2.3456223
31,20031,C.H.S Georges Mazurelle,,La Roche-sur-Yon,Vendée,85000,,,,,,,46.6444648,-1.4260234
32,20032,C.H.U Saint-Jacques,,Nantes,Loire-atlantique,44000,,,,,,,47.1960267,-1.5362714
33,20033,CENTRE DE DIALYSE,,,Loire-atlantique,,,,,,,,-21.5703668,165.4992628
34,20034,CH Maurice André,,Saint-Galmier,Loire,42330,,,,,,,45.598189,4.301614
35,20035,CH de Grasse - Site du Petit Paris,,Grasse,Alpes-maritimes,06130,,,,,,,43.6497373,6.9133394
36,20036,CHCBE (Centre Hospitalier de Capesterre B-E),,,Guadeloupe,,,,,,,,16.0458832,-61.5637822
37,20037,CHRU de Nancy Brabois,,Vandoeuvre-lès-Nancy,Grand Est,54500,,,,,Yes,,48.648566,6.14586
38,20038,CHSA - Centre de Psychothérapie,Boulevard Louis Pasteur 13,Maubeuge,Nord,59600,,,,,,,50.2797275,3.958437
39,20039,CHU Amiens Picardie - Centre Saint-Victor,,Amiens,Somme,80000,,,,,,,49.9029602,2.3185096
40,20040,CHU Amiens Picardie Hôpital Nord,,Amiens,Somme,80080,,,,,,,49.905836,2.2930547
41,20041,CHU Amiens Sud,,Amiens,Somme,80000,,+33 3 22 45 60 00,,,Yes,,49.8700095,2.2480667
42,20042,CHU Félix Guyon,Allée des Topazes nan,,Réunion,,,0262 90 50 50,,,Yes,,-20.8899622,55.4447582
43,20043,CHU Larche Bleu,,Clapiers,Occitanie,34830,,,,,,,43.6625975,3.8999804
44,20044,CHU Louise Michel Hopital Nord,Route de Châteaugay 61,Cébazat,Puy-de-dôme,63118,,,,,Yes,,45.8388679,3.0924428
45,20045,CHU Reims - Hôpital Sébastopol,Rue de Sébastopol 48,Reims,Grand Est,51100,,,,,,,49.2654169,4.0468967
46,20046,CHU d'Angers,Rue Larrey nan,Angers,Maine-et-loire,49100,,+33 2 41 35 36 37,,,Yes,,47.4806504,-0.5595356
47,20047,CHU de Guadeloupe,,,Guadeloupe,,,+33 5 90 89 10 10,,,Yes,,16.2384565,-61.5283281
48,20048,CHU de Martinique,,,Martinique,,,0596 55 20 00,,,Yes,,14.6351662,-61.0371342
49,20049,CHU de Montpellier,,Montpellier,Occitanie,34000,,,,,,,43.6268456,3.8663104
50,20050,CHU de Montpellier,,Montpellier,Occitanie,34090,,+33 4 67 33 67 33,,,,,43.630349,3.855078
51,20051,CHU de Nîmes,,Nîmes,Occitanie,30900,,+33 4 66 68 68 68,,,Yes,,43.8242207,4.3253869
52,20052,CHU de Reims,,Reims,Grand Est,51100,,+33 3 26 78 78 78,,,Yes,,49.2299514,4.0151871
53,20053,CHU de Saint-Pierre,Avenue Président Mitterrand nan,,Réunion,,,0262 35 90 00,,,Yes,,-21.3436878,55.4962936
54,20054,CHU de la Réunion - Site Sud Cilaos,Rue des Fleurs Jaunes nan,,Réunion,,,+262 2 62 31 70 50,,,No,,-21.1326604,55.4798797
55,20055,CMP - CATTP Maupassant,,Reims,Grand Est,51100,,,,,,,49.2529907,4.0366355
56,20056,CMPP,Allée de l'Espoir 1,Gauchy,Aisne,02430,,,,,,,49.828853,3.2803136
57,20057,CPC La Bastide,Route de la Treille nan,Marseille,Bouches-du-rhône,13011,,,,,,,43.3055403,5.5077258
58,20058,CRF le Grand Large,,Marseille,Bouches-du-rhône,13008,,,,,,,43.2392724,5.3618312
59,20059,CRRF André Lalande,,Noth,Creuse,23300,,,,,No,,46.236012,1.5613694
60,20060,CSSR Les Lauriers,,Lormont,Gironde,33310,,+33 5 56 77 37 37,,,,,44.882357,-0.51962
61,20061,"Centre Alain ""Les Iris""",,Carpentras,Vaucluse,84200,,,,,,,44.0832671,5.0606762
62,20062,Centre Ambulatoire en Santé Mentale,Place du Conseil National de la Résistance 8,Saint-Martin-d'Hères,Isère,38400,,+33 4 56 58 82 70,,,,,45.184922,5.753588
63,20063,Centre Antoine Lacassagne,,Nice,Alpes-maritimes,06200,,,,,No,,43.6865092,7.211765
64,20064,Centre Bellevue - centre de soins pour personnes agées,,Montpellier,Occitanie,34090,,,,,,,43.6400913,3.8586386
65,20065,Centre Bois-Gibert,Rue de Bois Gibert nan,Ballan-Miré,Indre-et-loire,37510,,+33 2 47 48 74 00,,,,,47.327012,0.6166177
66,20066,Centre Bouffard Vercelli,,Cerbère,Occitanie,66290,,,,,,,42.4581828,3.1599891
67,20067,Centre Bourgès,Avenue Clément Ader 150,Castelnau-le-Lez,Occitanie,34170,,,,,,,43.625186,3.911414
68,20068,Centre Cardio-Vasculaire de Valmante,nan 100,Marseille,Bouches-du-rhône,13009,,+33 8 26 96 18 19,,,No,,43.247141,5.4118821
69,20069,Centre Cardiologique du Nord,,Saint-Denis,Seine-saint-denis,93200,,+33 1 49 33 41 41,,,,,48.9418241,2.3470053
70,20070,Centre Chirurgical Marie Lannelongue,Avenue de la Résistance 133,Le Plessis-Robinson,Hauts-de-seine,92350,,,,,,,48.7856738,2.27262
71,20071,Centre Chirurgical des Princes,,Boulogne-Billancourt,Hauts-de-seine,92100,,,,,,,48.8402586,2.2477665
72,20072,Centre Chirurgical Émile Gallé,,Nancy,Grand Est,54000,,+33 3 83 85 75 00,,,,,48.6987856,6.1704392
73,20073,Centre Clinical,,Soyaux,Charente,16800,,,,,,,45.6380093,0.2032554
74,20074,"Centre De Soins ""La Fabrique Du Pré""",,Saint-Dizier,Grand Est,52100,,,,,,,48.6344225,4.9612534
75,20075,Centre Esquirol,,Caen,Normandie,14000,,,,,No,,49.206575,-0.351265
76,20076,Centre Gabriel Pertat,nan 4,Joinville,Grand Est,52300,,,,,,,48.4440746,5.136962
77,20077,Centre Georges-François Leclerc,,Dijon,Côte-d'or,21000,,,,,,,47.3188935,5.0697299
78,20078,Centre Gérontologique Départemental,Avenue de Montolivet 179,Marseille,Bouches-du-rhône,13012,,,,,,,43.3097584,5.4087411
79,20079,Centre Hopitalier du Marin,,,Martinique,,,,,,,,14.4707976,-60.8701902
80,20080,Centre Hospitalier,,Ham,Somme,80400,,,,,,,49.7416271,3.0844264
81,20081,Centre Hospitalier,,La Guerche-de-Bretagne,Bretagne,35130,,,,,,,47.9453717,-1.2455983
82,20082,Centre Hospitalier - Site de Saint-Pée,,Oloron-Sainte-Marie,Pyrénées-atlantiques,64400,,,,,,,43.1869404,-0.6321287
83,20083,Centre Hospitalier Ain Val de Saône,,Pont-de-Veyle,Ain,01290,,,,,No,,46.2634915,4.889702
84,20084,Centre Hospitalier Ain Val de Saône,,Thoissey,Ain,01140,,,,,,,46.172291,4.805275
85,20085,Centre Hospitalier Alpes Léman,Route de Findrol 558,Contamine-sur-Arve,Haute-savoie,74130,,,,,Yes,,46.1433228,6.3205583
86,20086,Centre Hospitalier Alpes-Isère,Rue de la gare 3,Saint-Égrève,Isère,38120,,,,,,,45.2342944,5.6751422
87,20087,Centre Hospitalier Ardèche Méridionale,,Aubenas,Ardèche,07200,,+33 4 75 35 60 60,,,Yes,,44.6128718,4.3964802
88,20088,Centre Hospitalier Aunay-Bayeux,Rue de l'Hôpital nan,Les Monts d'Aunay,Normandie,14260,,+33 2 31 71 76 76,,,,,49.0190366,-0.6323132
89,20089,Centre Hospitalier Aunay-Bayeux,Rue de Nesmond 13,Bayeux,Normandie,14400,,+33 2 31 51 51 51,,,Yes,,49.275013,-0.701459
90,20090,Centre Hospitalier Avranches - Granville,,Granville,Normandie,50400,,+33 2 33 91 50 00,,,Yes,,48.8287736,-1.567804
91,20091,Centre Hospitalier Avranches - Granville,,Avranches,Normandie,50300,,+33 2 33 91 50 00,,,Yes,,48.691458,-1.35309
92,20092,Centre Hospitalier Bernard des Plas,,Bourganeuf,Creuse,23400,,,,,,,45.9541931,1.7486581
93,20093,Centre Hospitalier Bon Sauveur,,Bégard,Bretagne,22140,,,,,,,48.629759,-3.3002203
94,20094,Centre Hospitalier Buëch-Durance,,,Bretagne,,,,,,,,44.3237503,5.8131083
95,20095,Centre Hospitalier Bélair,Rue Pierre Hallali nan,Charleville-Mézières,Grand Est,08000,,,,,No,,49.7873025,4.7223528
96,20096,Centre Hospitalier Camille Claudel,,La Couronne,Charente,16400,,,,,,,45.6259686,0.1219547
97,20097,Centre Hospitalier Chamonix Mont Blanc,,Chamonix-Mont-Blanc,Haute-savoie,74400,,+33 4 50 53 84 00,,,Yes,,45.9138774,6.8619346
98,20098,Centre Hospitalier Côte de Lumière,Rue Jacques Monod nan,Les Sables-d'Olonne,Vendée,85100,,+33 2 51 21 85 85,,,Yes,,46.5167608,-1.7485529
99,20099,Centre Hospitalier Dinan - Saint-Brieuc,,Dinan,Bretagne,22100,,,,,,,48.4480862,-2.0539422
100,20100,Centre Hospitalier Docteur Récamier,Rue Georges Girerd 52,Belley,Ain,01300,,+33 4 79 42 59 59,,,Yes,,45.761806,5.684719
101,20101,Centre Hospitalier Départemental - Site de La-Roche-sur-Yon,,La Roche-sur-Yon,Vendée,85000,,+33 2 51 44 61 61,,,Yes,,46.6671526,-1.4155459
102,20102,Centre Hospitalier Départemental - Site de Luçon,,,Vendée,,,+33 2 51 28 33 33,,,Yes,,46.4498685,-1.1745527
103,20103,Centre Hospitalier Départemental - Site de Montaigu,,Montaigu-Vendée,Vendée,85600,,+33 2 51 45 40 00,,,Yes,,46.9710322,-1.3108931
104,20104,Centre Hospitalier Esquirol,,Limoges,Haute-vienne,87000,,,,,,,45.8165169,1.2477394
105,20105,Centre Hospitalier Esquirol,,Limoges,Haute-vienne,87000,,,,,,,45.8156925,1.2335565
106,20106,Centre Hospitalier Ferdinand Grall,,Landerneau,Bretagne,29800,,+33 2 98 21 80 00,,,Yes,,48.4489023,-4.2338213
107,20107,Centre Hospitalier Fondation d'Aligre,,Bourbon-Lancy,Saône-et-loire,71140,,,,,,,46.618479,3.76683
108,20108,Centre Hospitalier Francis Robert,,Ancenis-Saint-Géréon,Loire-atlantique,44150,,+33 2 40 09 44 00,,,Yes,,47.3730553,-1.1743569
109,20109,Centre Hospitalier Francis Vals,,,Occitanie,,,,,,,,43.0056651,3.042676
110,20110,Centre Hospitalier Gabriel Deplante,Rue de la Forêt 1,Rumilly,Haute-savoie,74150,,+33 4 50 01 80 00,,,Yes,,45.864621,5.937015
111,20111,Centre Hospitalier George Sand,,Bourges,Cher,18000,,+33 2 48 66 52 52,,,,,47.0802509,2.3792226
112,20112,Centre Hospitalier Georges Heuyer,,Saint-Dizier,Grand Est,52100,,,,,,,48.6342093,4.9552723
113,20113,Centre Hospitalier Guillaume Régnier,,Rennes,Bretagne,35700,,,,,,,48.1144846,-1.6502022
114,20114,Centre Hospitalier Guy Thomas,Boulevard Étienne Clémentel 79,Riom,Puy-de-dôme,63200,,+33 4 73 67 80 00,,,Yes,,45.8902708,3.1120648
115,20115,Centre Hospitalier Gériatrique des Mont d'Or,,Albigny-sur-Saône,Rhône,69250,,,,,No,,45.8599631,4.8339467
116,20116,Centre Hospitalier Gériatrique des Monts d'Or,,Albigny-sur-Saône,Rhône,69250,,,,,No,,45.8635701,4.833641
117,20117,Centre Hospitalier InterCommunal,,Mazamet,Occitanie,81200,,,,,,,43.4947277,2.3698842
118,20118,Centre Hospitalier Intercommunal,,,Martinique,,,,,,,,14.82504,-61.052076
119,20119,Centre Hospitalier Intercommunal Castelsarrasin-Moissac,,Castelsarrasin,Occitanie,82100,,,,,,,44.0365993,1.1116909
120,20120,Centre Hospitalier Intercommunal Castres-Mazamet,,Mazamet,Occitanie,81200,,,,,,,43.4969333,2.3767543
121,20121,Centre Hospitalier Intercommunal Corte Tattone,,,Corse,,,+33 4 95 45 05 00,,,,,42.3019181,9.154168
122,20122,Centre Hospitalier Intercommunal Elbeuf. Louviers. Val de Reuil,,Louviers,Normandie,27400,,+33 2 32 25 75 00,,,Yes,,49.2126878,1.1768487
123,20123,Centre Hospitalier Intercommunal Lucie et Raymond Aubrac,Allée de la Source 40,Villeneuve-Saint-Georges,Val-de-marne,94190,,+33 1 43 86 20 00,,,Yes,,48.7225968,2.4514191
124,20124,Centre Hospitalier Intercommunal des Alpes du Sud,,Sisteron,Alpes-de-haute-provence,04200,,+33 4 92 33 70 00,,,Yes,,44.1937351,5.9428555
125,20125,Centre Hospitalier Intercommunal des Alpes du Sud,Place Auguste Muret 1,Gap,Hautes-alpes,05000,,+33 4 92 40 61 61,,,Yes,,44.5581617,6.0730852
126,20126,Centre Hospitalier Intercommunal des Andaines - Site de Domfront,,,Normandie,,,+33 2 33 30 57 57,,,No,,48.590504,-0.659897
127,20127,Centre Hospitalier Intercommunal des Andaines - Site de la Ferté-Macé,,,Normandie,,,+33 2 33 30 50 50,,,Yes,,48.5991475,-0.3473258
128,20128,Centre Hospitalier Jacques Barrot,,Yssingeaux,Haute-loire,43200,,,,,,,45.1435086,4.1267265
129,20129,Centre Hospitalier Jacques Monod,,Flers,Normandie,61100,,+33 2 33 62 62 00,,,Yes,,48.7473277,-0.5412251
130,20130,Centre Hospitalier Jura sud,Rue des Prés Millats 4,Orgelet,Jura,39270,,+33 3 84 35 02 02,,,,,46.515273,5.6049807
131,20131,Centre Hospitalier La Tour Blanche,,Issoudun,Indre,36100,,+33 2 54 03 54 03,,,Yes,,46.9585641,1.997604
132,20132,Centre Hospitalier Lannion-Trestel,,Trévou-Tréguignec,Bretagne,22660,,,,,,,48.8210384,-3.3506813
133,20133,Centre Hospitalier Lemire,Rue Lemire 7,Saint-Avold,Grand Est,57500,,,,,,,49.0984474,6.7057889
134,20134,Centre Hospitalier Les Marronniers,,Toulon-sur-Arroux,Saône-et-loire,71320,,,,,,,46.6916388,4.1374261
135,20135,Centre Hospitalier Loire-Vendée-Océan - Site de Challans,,Challans,Vendée,85300,,+33 2 51 49 50 00,,,Yes,,46.8455579,-1.8714987
136,20136,Centre Hospitalier Louis Brunet,,Allauch,Bouches-du-rhône,13190,,,,,,,43.3356129,5.4696079
137,20137,Centre Hospitalier Louis Pasteur,,Le Coudray,Eure-et-loir,28630,,+33 2 37 30 30 30,,,Yes,,48.4241098,1.5086658
138,20138,Centre Hospitalier Louis Pasteur,,Dole,Jura,39100,,+33 3 84 79 80 80,,,Yes,,47.0819311,5.4700545
139,20139,Centre Hospitalier Louis-Daniel Beauperthuy,,,Guadeloupe,,,,,,,,16.1988935,-61.7848347
140,20140,Centre Hospitalier Lyon-Sud,Chemin du Grand Revoyet 165,Saint-Genis-Laval,Rhône,69230,,+33 8 25 08 25 69,,,Yes,,45.7037174,4.8074577
141,20141,Centre Hospitalier Lyon-Sud (Sainte-Eugénie),,Saint-Genis-Laval,Rhône,69230,,,,,No,,45.7012715,4.7961402
142,20142,Centre Hospitalier Léon Jean Grégory,,Thuir,Occitanie,66300,,,,,,,42.628476,2.7399189
143,20143,Centre Hospitalier Manhès,,Fleury-Mérogis,Essonne,91700,,,,,,,48.627858,2.360294
144,20144,Centre Hospitalier Marescot,,Vimoutiers,Normandie,61120,,,,,,,48.9251055,0.2019807
145,20145,Centre Hospitalier Marguerite de Lorraine,,,Normandie,,,+33 2 33 83 40 40,,,Yes,,48.5226591,0.5503153
146,20146,Centre Hospitalier Marie Madeleine,Rue Thérèse 2,Forbach,Grand Est,57600,,+33 3 87 88 80 00,,,Yes,,49.181845,6.911648
147,20147,Centre Hospitalier Maubert,,Flers,Normandie,61100,,,,,,,48.7387966,-0.5750923
148,20148,Centre Hospitalier Maurice Selbonne,,,Guadeloupe,,,,,,No,,16.1418011,-61.760308
149,20149,Centre Hospitalier Michel Perret,,Tullins,Isère,38210,,,,,,,45.3024416,5.4876179
150,20150,Centre Hospitalier Montpensier,,Trévoux,Ain,01600,,,,,No,,45.9404167,4.771465
151,20151,Centre Hospitalier Montperrin,,Aix-en-Provence,Bouches-du-rhône,13100,,+33 4 42 16 16 16,,,,,43.5233378,5.4388752
152,20152,Centre Hospitalier Mémorial,,Saint-Lô,Normandie,50000,,+33 2 33 06 33 33,,,Yes,,49.1046627,-1.1112861
153,20153,Centre Hospitalier Métropole Savoie,,Chambéry,Savoie,73000,,+33 4 79 96 50 50,,,Yes,,45.5639137,5.9145497
154,20154,Centre Hospitalier Métropole Savoie (site d'Aix-les-Bains),,Aix-les-Bains,Savoie,73100,,+33 4 79 88 61 61,,,Yes,,45.6980554,5.903834
155,20155,Centre Hospitalier Neufchâtel-en-Bray,Route de Gaillefontaine 4,Neufchâtel-en-Bray,Normandie,76270,,,,,,,49.7307359,1.4499276
156,20156,Centre Hospitalier Nord Ouest Villefranche,,Gleizé,Rhône,69400,,+33 4 74 09 25 03,,,Yes,,46.0055909,4.692005
157,20157,Centre Hospitalier Paul Ardier,,Issoire,Puy-de-dôme,63500,,+33 4 73 89 72 72,,,Yes,,45.5411035,3.251009
158,20158,Centre Hospitalier Paul Guiraud,,Villejuif,Val-de-marne,94800,,,,,,,48.7885753,2.3616088
159,20159,Centre Hospitalier Paul Nappez Morteau,,Morteau,Doubs,25500,,,,,,,47.061089,6.602677
160,20160,Centre Hospitalier Paul Ribeyre,,,Ardèche,,,,,,,,44.6540103,4.3701603
161,20161,Centre Hospitalier Pierre Gallice,,Langeac,Haute-loire,43300,,,,,,,45.0958694,3.4939266
162,20162,Centre Hospitalier Pierre Oudot,Avenue du Médipôle 30,,Isère,,,+33 4 69 15 70 00,,,Yes,,45.5964572,5.2427431
163,20163,Centre Hospitalier Pont-Saint-Esprit,Rue Philippe le Bel nan,Pont-Saint-Esprit,Occitanie,30130,,+33466334000,,,,,44.2654969,4.6425221
164,20164,Centre Hospitalier Psychiatrique Interdépartemental Site de Clermont,,Clermont,Oise,60600,,,,,,,49.3771534,2.4166586
165,20165,Centre Hospitalier Psychiatrique Interdépartemental Site de Fitz James,,Breuil-le-Sec,Oise,60840,,,,,,,49.3865415,2.4404077
166,20166,Centre Hospitalier Psychiatrique de Ravenel,Avenue Porterat 1115,Mirecourt,Grand Est,88500,,+33 3 29 37 00 77,,,No,,48.2951386,6.1035747
167,20167,Centre Hospitalier René Pleven,,Dinan,Bretagne,22100,,+33 2 96 85 72 85,,,Yes,,48.4446872,-2.0507735
168,20168,Centre Hospitalier Régional Centre Gériatrique de Champmaillot,,Dijon,Côte-d'or,21000,,,,,,,47.3179004,5.0574206
169,20169,Centre Hospitalier Régional Universitaire de Lille,,,Nord,,,,,,Yes,,50.6083638,3.0301983
170,20170,Centre Hospitalier Régional d'Orléans,,Orléans,Loiret,45100,,+33 2 38 51 44 44,,,Yes,,47.8368281,1.9173824
171,20171,Centre Hospitalier Saint Eloi,,La Bollène-Vésubie,Alpes-maritimes,06450,,,,,,,43.878453,7.4523958
172,20172,Centre Hospitalier Saint-Charles,Cours Raymond Poincaré 1,Toul,Grand Est,54200,,+33 3 83 62 20 20,,,Yes,,48.675808,5.886645
173,20173,Centre Hospitalier Saint-Louis,,Ornans,Doubs,25290,,,,,,,47.106895,6.142232
174,20174,Centre Hospitalier Saint-Louis,,Saint-Georges-sur-Loire,Maine-et-loire,49170,,,,,,,47.409168,-0.757958
175,20175,Centre Hospitalier Saint-Maixent,,Saint-Maixent-l'École,Deux-sèvres,79400,,,,,No,,46.410691,-0.221158
176,20176,Centre Hospitalier Saint-Roch,,Buzançais,Indre,36500,,,,,,,46.8927806,1.4210649
177,20177,Centre Hospitalier Sainte-Béatrix de Lorraine,Rue Georges Lang 1,Remiremont,Grand Est,88200,,+33 329 234 141,,,Yes,,48.0140082,6.5906405
178,20178,Centre Hospitalier Sainte-Catherine,,Saverne,Grand Est,67700,,+33 3 88 71 67 67,,,Yes,,48.7472653,7.3482217
179,20179,Centre Hospitalier Sainte-Marie,Route de Montredon 50,,Haute-loire,,,,,,,,45.0500998,3.8994628
180,20180,Centre Hospitalier Seurre,,Seurre,Côte-d'or,21250,,,,,,,46.995692,5.146658
181,20181,Centre Hospitalier Spécialisé,,Rennes,Bretagne,35000,,,,,No,,48.1147652,-1.6477464
182,20182,Centre Hospitalier Spécialisé,,Sevrey,Saône-et-loire,71100,,,,,,,46.7234937,4.835092
183,20183,Centre Hospitalier Spécialisé - ISTMA,,Saint-Lô,Normandie,50000,,,,,,,49.1075308,-1.0951137
184,20184,Centre Hospitalier Spécialisé Albert Bousquet - Centre d'accueil et hôpital de jour,,,Normandie,,,,,,,,-22.2967014,166.4483013
185,20185,Centre Hospitalier Spécialisé Avignon Montfavet,Avenue de la Pinède nan,Avignon,Vaucluse,84000,,,,,,,43.9215495,4.8777974
186,20186,Centre Hospitalier Spécialisé d'Erstein,,Erstein,Grand Est,67150,,,,,,,48.4307112,7.6878484
187,20187,Centre Hospitalier Spécialisé de Blain,,Blain,Loire-atlantique,44130,,+33 2 40 51 51 51,,,No,,47.4690877,-1.8162281
188,20188,Centre Hospitalier Spécialisé de Cadillac,,Cadillac,Gironde,33410,,,,,,,44.6358799,-0.3177026
189,20189,Centre Hospitalier Spécialisé de Lorquin,,Lorquin,Grand Est,57790,,,,,No,,48.6720347,6.9993236
190,20190,Centre Hospitalier Spécialisé des Pyrénées,,Pau,Pyrénées-atlantiques,64000,,,,,,,43.3049642,-0.3364305
191,20191,Centre Hospitalier Spécialisé la Chartreuse,,Dijon,Côte-d'or,21000,,,,,Yes,,47.3222547,5.015575
192,20192,Centre Hospitalier Spécialisé Édouard Toulouse,,Marseille,Bouches-du-rhône,13015,,,,,,,43.3826184,5.3586285
193,20193,Centre Hospitalier Sud Francilien,,Corbeil-Essonnes,Essonne,91100,,+33 1 61 69 61 69,,,Yes,,48.6215433,2.4574678
194,20194,Centre Hospitalier Sépcialisé de Saint-Rémy & Nord Franche-Comté,,Saint-Rémy-en-Comté,Haute-saône,70160,,,,,,,47.8331988,6.0885762
195,20195,Centre Hospitalier Universitaire Côte de Nacre,Avenue de la Côte de Nacre nan,Caen,Normandie,14000,,+33 2 31 06 31 06,,,Yes,,49.202482,-0.3534934
196,20196,Centre Hospitalier Valvert,,Marseille,Bouches-du-rhône,13011,,+33 4 91 87 67 02,,,,,43.3001306,5.4642472
197,20197,Centre Hospitalier Yves Grassot,Rue du Docteur Courret 76,Marmande,Lot-et-garonne,47200,,+33 5 53 20 30 40,,,Yes,,44.5019139,0.1655302
198,20198,Centre Hospitalier Yves Touraine,,Le Pont-de-Beauvoisin,Isère,38480,,+33 4 76 32 64 32,,,Yes,,45.539076,5.664412
199,20199,Centre Hospitalier d'Albert,,Albert,Somme,80300,,+33 3 22 74 41 35,,,,,49.998905,2.654681
200,20200,Centre Hospitalier d'Ambert,,,Somme,,,+33 4 73 82 73 82,,,Yes,,45.5539687,3.7420262
201,20201,Centre Hospitalier d'Argonne,,Sainte-Menehould,Grand Est,51800,,+33 3 26 60 81 41,,,Yes,,49.0916952,4.9099274
202,20202,Centre Hospitalier d'Hauteville - Unité Albarine,,Plateau d'Hauteville,Ain,01110,,,,,,,45.9831114,5.6116977
203,20203,Centre Hospitalier d'Hauteville - Unité Espérence,,Plateau d'Hauteville,Ain,01110,,,,,,,45.9759445,5.6040568
204,20204,Centre Hospitalier d'Hauteville - Unité Inter,,Plateau d'Hauteville,Ain,01110,,,,,,,45.9745043,5.6102185
205,20205,Centre Hospitalier d'Hazebrouck,,Hazebrouck,Nord,59190,,+33 3 28 42 66 00,,,Yes,,50.727861,2.5376066
206,20206,Centre Hospitalier d'Hénin-Beaumont,,Hénin-Beaumont,Pas-de-calais,62110,,,,,No,,50.4304078,2.9462342
207,20207,Centre Hospitalier de Bapaume,,Bapaume,Pas-de-calais,62450,,,,,,,50.1039847,2.8585026
208,20208,Centre Hospitalier de Belfort-Montbéliard - Site de Montbéliard,,Montbéliard,Doubs,25200,,+33381988000,,,,,47.5195077,6.7936918
209,20209,Centre Hospitalier de Belleville,,Belleville-en-Beaujolais,Rhône,69220,,,,,,,46.1105056,4.7469454
210,20210,Centre Hospitalier de Bigorre - L'Ayguerote,,Tarbes,Occitanie,65000,,,,,,,43.2338181,0.0652157
211,20211,Centre Hospitalier de Boën-sur-Lignon,,Boën-sur-Lignon,Loire,42130,,+33 4 77 97 75 25,,,,,45.74481,4.0175453
212,20212,Centre Hospitalier de Brioude,,Brioude,Haute-loire,43100,,+33 4 71 50 99 99,,,Yes,,45.2974457,3.3811491
213,20213,Centre Hospitalier de Cadillac - Unité pour Malades Difficiles,,Cadillac,Gironde,33410,,,,,,,44.6356504,-0.3112248
214,20214,Centre Hospitalier de Carentan,Avenue Qui Qu'en Grogne 1,,Normandie,,,,,,,,49.3061586,-1.244359
215,20215,Centre Hospitalier de Charlieu,,Charlieu,Loire,42190,,,,,,,46.1588265,4.1649142
216,20216,Centre Hospitalier de Chatillon-sur-Indre,,Châtillon-sur-Indre,Indre,36700,,,,,No,,46.988776,1.1655157
217,20217,Centre Hospitalier de Chauny,,Chauny,Aisne,02300,,+33 3 23 38 55 00,,,Yes,,49.6235703,3.2306461
218,20218,Centre Hospitalier de Château du Loir,Allée Saint-Martin 5,Montval-sur-Loir,Sarthe,72500,,+33 2 43 44 77 77,,,Yes,,47.6912468,0.4202901
219,20219,Centre Hospitalier de Condom,,Condom,Occitanie,32100,,+33 5 62 28 20 77,,,Yes,,43.9562919,0.3782684
220,20220,Centre Hospitalier de Cosne sur Loire,Avenue du Maréchal Leclerc 96,Cosne-Cours-sur-Loire,Nièvre,58200,,,,,,,47.4152364,2.9286799
221,20221,Centre Hospitalier de Crest,,Crest,Drôme,26400,,+33 4 75 25 37 00,,,Yes,,44.7278265,5.007578
222,20222,Centre Hospitalier de Crozon,,,Bretagne,,,,,,No,,48.2457267,-4.4870358
223,20223,Centre Hospitalier de Doullens,,Doullens,Somme,80600,,+33 3 22 32 33 33,,,Yes,,50.1539297,2.3514221
224,20224,Centre Hospitalier de Falaise,Boulevard des Bercagnes nan,Falaise,Normandie,14700,,+33 2 31 40 40 40,,,Yes,,48.8907135,-0.2065239
225,20225,Centre Hospitalier de Fontenay-le-Comte,,,Normandie,,,+33 2 51 53 51 53,,,,,46.4657118,-0.8289133
226,20226,Centre Hospitalier de Gisors - Pôle Sanitaire du Vexin,,Gisors,Normandie,27140,,+33 2 32 27 76 76,,,Yes,,49.2828514,1.7576147
227,20227,Centre Hospitalier de Grasse - Site Clavary,,Grasse,Alpes-maritimes,06130,,+33 4 93 09 55 55,,,Yes,,43.620205,6.9286253
228,20228,Centre Hospitalier de Hirson,Rue Aux Loups 40,Hirson,Aisne,02500,,+33 3 23 58 82 82,,,Yes,,49.925533,4.073861
229,20229,Centre Hospitalier de La Châtre,,La Châtre,Indre,36400,,,,,,,46.5707701,1.9861802
230,20230,Centre Hospitalier de La Fere,,La Fère,Aisne,02800,,,,,,,49.6647705,3.3585197
231,20231,Centre Hospitalier de La Mûre,,La Mure,Isère,38350,,+33 4 76 81 42 00,,,Yes,,44.9052689,5.7936902
232,20232,Centre Hospitalier de La Tour-du-Pin,,La Tour-du-Pin,Isère,38110,,,,,,,45.57053,5.4487403
233,20233,Centre Hospitalier de Lanmeur,Rue de Traonbézéden 9,Lanmeur,Bretagne,29620,,+33 2 98 78 84 84,,,,,48.6475643,-3.7105224
234,20234,Centre Hospitalier de Laval,,Laval,Mayenne,53000,,+33 2 43 66 50 00,,,Yes,,48.0646288,-0.7869535
235,20235,Centre Hospitalier de Limoux,,Limoux,Occitanie,11300,,,,,,,43.055017,2.2198127
236,20236,Centre Hospitalier de Lunéville,Rue François Girardet 6,Lunéville,Grand Est,54300,,+33 3 83 76 12 12,,,Yes,,48.5905635,6.4914122
237,20237,Centre Hospitalier de Luzy-Dufeillant,,Beaurepaire,Isère,38270,,+33 4 74 29 72 58,,,,,45.3408337,5.0595447
238,20238,Centre Hospitalier de Lézignan-Corbières,,Lézignan-Corbières,Occitanie,11200,,,,,No,,43.1948095,2.7585504
239,20239,Centre Hospitalier de Mamers,,Mamers,Sarthe,72600,,,,,,,48.360401,0.358103
240,20240,Centre Hospitalier de Montdidier,,Montdidier,Somme,80500,,+33 3 22 78 70 00,,,Yes,,49.6502059,2.57355
241,20241,Centre Hospitalier de Montgelas,,Givors,Rhône,69700,,+33 4 78 07 30 30,,,Yes,,45.6004523,4.7638469
242,20242,Centre Hospitalier de Montéran,,,Guadeloupe,,,,,,,,16.0256592,-61.7029554
243,20243,Centre Hospitalier de Murat,,,Guadeloupe,,,,,,,,45.1102326,2.8731309
244,20244,Centre Hospitalier de Novillars,,Roche-lez-Beaupré,Doubs,25220,,,,,,,47.2801973,6.120715
245,20245,Centre Hospitalier de Noyon,,Noyon,Oise,60400,,+33 3 44 44 42 22,,,Yes,,49.5896793,2.9986108
246,20246,Centre Hospitalier de Nérac,,Nérac,Lot-et-garonne,47600,,,,,Yes,,44.136159,0.33674
247,20247,Centre Hospitalier de Néris-Les-Bains,Rue Voltaire 16,Néris-les-Bains,Allier,03310,,,,,No,,46.2853839,2.6606424
248,20248,Centre Hospitalier de Penthièvre,Rue du Jeu de Paume 13,Lamballe-Armor,Bretagne,22400,,,,,,,48.4700306,-2.5182455
249,20249,Centre Hospitalier de Pfastatt,,Pfastatt,Grand Est,68120,,,,,,,47.7669384,7.3021507
250,20250,Centre Hospitalier de Pont-de-Vaux,,Pont-de-Vaux,Ain,01190,,,,,No,,46.4354752,4.9439251
251,20251,Centre Hospitalier de Péronne,,Péronne,Somme,80200,,+33 3 22 83 60 00,,,Yes,,49.93462,2.927698
252,20252,Centre Hospitalier de Rambouillet,,Rambouillet,Yvelines,78120,,+33 1 34 83 78 78,,,Yes,,48.6514768,1.8228153
253,20253,Centre Hospitalier de Rives,,Rives,Isère,38140,,,,,,,45.3550814,5.4995404
254,20254,Centre Hospitalier de Roanne,,Roanne,Loire,42300,,+33 4 77 44 30 00,,,Yes,,46.043253,4.080851
255,20255,Centre Hospitalier de Rouffach,,Rouffach,Grand Est,68250,,+33 3 89 78 70 70,,,,,47.9503035,7.2905394
256,20256,Centre Hospitalier de Saint-Esprit,,,Martinique,,,,,,,,14.5594193,-60.9423428
257,20257,Centre Hospitalier de Saint-Flour,,Saint-Flour,Cantal,15100,,+33 4 71 60 64 64,,,Yes,,45.0344814,3.0851227
258,20258,Centre Hospitalier de Saint-Hilaire-du-Harcouet,,Saint-Hilaire-du-Harcouët,Normandie,50600,,+33 2 33 79 44 44,,,Yes,,48.5702004,-1.0959452
259,20259,Centre Hospitalier de Saint-Laurent-du-Pont,,,Manche,,,,,,,,45.387205,5.7381334
260,20260,Centre Hospitalier de Saint-Marcellin,,Saint-Marcellin,Isère,38160,,,,,,,45.1527548,5.3235444
261,20261,"Centre Hospitalier de Sarrebourg, Site de Hoff",Rue des Roses nan,Sarrebourg,Grand Est,57400,,,,,,,48.7440694,7.0272485
262,20262,"Centre Hospitalier de Sarrebourg, Site de Hoff",Route de Verdun 90,Sarrebourg,Grand Est,57400,,,,,,,48.7410621,7.0322236
263,20263,Centre Hospitalier de Saumur,,,Grand Est,,,+33 2 41 53 30 30,,,Yes,,47.2472895,-0.0570352
264,20264,Centre Hospitalier de Savenay,Rue de l'Hôpital 13,Savenay,Loire-atlantique,44260,,,,,,,47.3570513,-1.9410666
265,20265,Centre Hospitalier de Seclin,,Seclin,Nord,59113,,,,,Yes,,50.5444479,3.0188983
266,20266,Centre Hospitalier de Somain,Rue Joseph Bouliez nan,Somain,Nord,59490,,,,,,,50.355024,3.2855687
267,20267,Centre Hospitalier de St. Nicolas de Port,,Saint-Nicolas-de-Port,Grand Est,54210,,+33 3 83 18 60 00,,,,,48.633532,6.299963
268,20268,Centre Hospitalier de Sélestat,,Sélestat,Grand Est,67600,,+33 3 88 57 56 00,,,Yes,,48.2634187,7.4312733
269,20269,Centre Hospitalier de Sézanne,,Sézanne,Grand Est,51120,,+33 3 26 81 79 79,,,,,48.7227535,3.7276268
270,20270,Centre Hospitalier de Thiers,Route du Fau nan,,Marne,,,+33 4 73 51 10 00,,,Yes,,45.85808,3.5196444
271,20271,Centre Hospitalier de Tréguier,,Tréguier,Bretagne,22220,,,,,,,48.7792072,-3.2356294
272,20272,Centre Hospitalier de Tulle,Le chandou nan,Tulle,Corrèze,19000,,,,,,,45.2831013,1.7669077
273,20273,Centre Hospitalier de Valenciennes,,Valenciennes,Nord,59300,,+33 3 27 14 33 33,,,Yes,,50.3611231,3.4967099
274,20274,Centre Hospitalier de Valognes,,Valognes,Normandie,50700,,+33 2 33 95 70 00,,,limited,,49.5035548,-1.4639502
275,20275,Centre Hospitalier de Vic Fezensac,,Vic-Fezensac,Occitanie,32190,,+33 5 62 64 49 00,,,,,43.760972,0.2967636
276,20276,Centre Hospitalier de Vitry-le-François,,Vitry-le-François,Grand Est,51300,,+33 3 26 73 60 60,,,Yes,,48.7171593,4.6012375
277,20277,Centre Hospitalier de l'Aigle,,L'Aigle,Normandie,61300,,+33 2 33 24 95 95,,,Yes,,48.7666018,0.6098708
278,20278,Centre Hospitalier de l'Arrondissement de Montreuil,,Étaples,Pas-de-calais,62630,,,,,,,50.514952,1.642065
279,20279,Centre Hospitalier de l'Ouest Vosgien - Site de Vittel,nan 191,Vittel,Grand Est,88800,,+33 3 29 94 80 00,,,Yes,,48.2061967,5.9456899
280,20280,Centre Hospitalier de la Bresse Louhannaise,,Louhans,Saône-et-loire,71500,,,,,,,46.6229026,5.2319364
281,20281,Centre Hospitalier de la Candélie,,Pont-du-Casse,Lot-et-garonne,47480,,,,,,,44.2381957,0.6547823
282,20282,Centre Hospitalier de la Côte Fleurie,La Brèche du Bois nan,Cricqueboeuf,Normandie,14113,,+33 2 31 89 89 89,,,Yes,,49.3812756,0.1304307
283,20283,Centre Hospitalier de la Milétrie,Rue de la Milétrie 2,Mignaloux-Beauvoir,Vienne,86550,,+33 5 49 44 44 44,,,Yes,,46.5516086,0.3877045
284,20284,Centre Hospitalier des Murets,,La Queue-en-Brie,Val-de-marne,94510,,,,,,,48.7891565,2.5784156
285,20285,Centre Hospitalier des Quatre Villes,Grande Rue 141,Sèvres,Hauts-de-seine,92310,,+33 1 77707070,,,Yes,,48.8207745,2.201871
286,20286,Centre Hospitalier du Beaujolais Vert,,Cours,Rhône,69470,,,,,,,46.0982634,4.318779
287,20287,Centre Hospitalier du Forez,,Montbrison,Loire,42600,,+33 4 77 96 78 00,,,Yes,,45.6125842,4.0475763
288,20288,Centre Hospitalier du Haut-Bugey,Route de Veyziat 1,Géovreisset,Ain,01100,,+33 4 74 73 10 01,,,Yes,,46.2609108,5.6307257
289,20289,Centre Hospitalier du Jura,,Dole,Jura,39100,,,,,,,47.0693001,5.4619644
290,20290,Centre Hospitalier du Mans,,Le Mans,Sarthe,72000,,+33 2 43 43 43 43,,,Yes,,48.0127166,0.1789534
291,20291,Centre Hospitalier du Mans - Gériaterie,,Allonnes,Sarthe,72700,,,,,No,,47.9644645,0.1552427
292,20292,Centre Hospitalier du Nord-Mayenne,,Mayenne,Mayenne,53100,,+33 2 43 08 73 00,,,Yes,,48.3069815,-0.6048006
293,20293,Centre Hospitalier du Ternois,,Saint-Pol-sur-Ternoise,Pas-de-calais,62130,,,,,,,50.3775505,2.3226913
294,20294,Centre Hospitalier d‘Arcachon,,La Teste-de-Buch,Gironde,33260,,+33 5 57 52 90 00,,,Yes,,44.6155719,-1.1140113
295,20295,Centre Hospitalier intercommunal Alençon-Mamers,,Mamers,Sarthe,72600,,+33 2 43 31 31 31,,,Yes,,48.3594332,0.3607798
296,20296,Centre Hospitalier Émile Durkheim,Avenue Robert Schuman 3,Épinal,Grand Est,88000,,+33 3 29 68 70 00,,,Yes,,48.1794318,6.4541012
297,20297,Centre Hospitaliser Spécialisé Saint-Cyr,,Collonges-au-Mont-d'Or,Rhône,69660,,,,,,,45.8179703,4.8355398
298,20298,Centre Jacques Parisot,,Bainville-sur-Madon,Grand Est,54550,,,,,,,48.5885206,6.0935186
299,20299,Centre Jean Chanton,,Roquebillière,Alpes-maritimes,06450,,,,,,,44.0141448,7.3023553
300,20300,Centre Jean Wier,,Nanterre,Hauts-de-seine,92000,,,,,,,48.8829055,2.220104
301,20301,Centre Laennec,,Malakoff,Hauts-de-seine,92240,,,,,,,48.8111735,2.2947535
302,20302,Centre Languedoc,,Montpellier,Occitanie,34070,,,,,,,43.6015438,3.8301428
303,20303,Centre Léon Bérard,,Lyon,Rhône,69008,,,,,No,,45.7412455,4.87878
304,20304,Centre Martel de Janville,,Bonneville,Haute-savoie,74130,,,,,No,,46.0813057,6.4055577
305,20305,Centre Municipal d'Education Pour la Santé Louis Pasteur,,Aulnay-sous-Bois,Seine-saint-denis,93600,,,,,No,,48.9304148,2.4961175
306,20306,Centre Mutualiste Neurologique Propara,Rue du Caducée 263,,Occitanie,,,,,,,,43.6436019,3.8325108
307,20307,Centre Mutualiste de Réadaptation Fonctionnelle,,Albi,Occitanie,81000,,,,,No,,43.925674,2.1340614
308,20308,Centre Médical Alfred Leune,,Sainte-Feyre,Creuse,23000,,,,,No,,46.1398258,1.8843028
309,20309,Centre Médical Infantile de Montpribat,,Montfort-en-Chalosse,Landes,40380,,,,,,,43.7001582,-0.851681
310,20310,Centre Médical Lalance,,Lutterbach,Grand Est,68460,,,,,,,47.7605402,7.2911385
311,20311,Centre Médical Nicolas de Pontoux,,Chalon-sur-Saône,Saône-et-loire,71100,,,,,,,46.7983896,4.8536607
312,20312,Centre Médical Rio Vert,Avenue de Marseille 650,La Saulce,Hautes-alpes,05110,,+33 4 92 54 76 76,,,,,44.424185,6.000048
313,20313,Centre Médical Rocheplane,Rue Massenet 6,Saint-Martin-d'Hères,Isère,38400,,,,,,,45.1788517,5.7616087
314,20314,Centre Médical de Lanmary,,Antonne-et-Trigonant,Dordogne,24420,,,,,,,45.2391068,0.8134449
315,20315,Centre Médical de Salem,,,Dordogne,,,,,,,,48.1986978,7.1977592
316,20316,Centre Médical et Pédagogique Jacques Arnaud,Rue Pasteur 5,,Val-d'oise,,,,,,,,49.0462942,2.2934851
317,20317,Centre Médical les Aloès,Rue Adrien Lagourgue 42 bis,,Réunion,,,,,,,,-21.217972,55.3109216
318,20318,Centre Médical pour Affections Cardiaques,,Schirmeck,Grand Est,67130,,,,,,,48.4877549,7.2161268
319,20319,Centre Médico Chirurgical,,Aurillac,Cantal,15000,,,,,,,44.9101103,2.4256048
320,20320,Centre Médico Chirurgical du Mans,,Le Mans,Sarthe,72100,,+33 2 43 78 38 38,,,Yes,,47.9651921,0.2257117
321,20321,Centre Médico Psycho Pédagogique C.M.P.P,,Compiègne,Oise,60200,,,,,,,49.405095,2.7979807
322,20322,Centre Médico Psychologique de Volzac,,Saint-Flour,Cantal,15100,,,,,,,45.031731,3.0660381
323,20323,Centre Médico Pédagogique,,Haguenau,Grand Est,67500,,,,,,,48.7860967,7.7388613
324,20324,Centre Médico-Chirurgical de Réadaptation des Massues,,Lyon,Rhône,69005,,,,,,,45.760071,4.7980838
325,20325,Centre Médico-Chirurgical de l'Europe,,Le Port-Marly,Yvelines,78560,,+33 1 39 17 22 22,,,Yes,,48.880691,2.10698
326,20326,"Centre Médico-Psychologique ""Adultes""",,Saint-Aubin-d'Aubigné,Bretagne,35250,,,,,,,48.2615461,-1.6046676
327,20327,Centre Médico-Psychologique Camille Claudel,,Tarbes,Occitanie,65000,,,,,,,43.2240836,0.0738455
328,20328,Centre Médico-Psychologique Capou,Route de Bordeaux nan,Montauban,Occitanie,82000,,,,,No,,44.0354604,1.311829
329,20329,Centre Médico-Psychologique de Gençay,Rue de l'Échelle 1,Gençay,Vienne,86160,,,,,No,,46.3746584,0.4035696
330,20330,Centre Médico-Psychologique de Saint-Julien-en-Genevois,,Saint-Julien-en-Genevois,Haute-savoie,74160,,,,,,,46.1444397,6.0765491
331,20331,Centre Médico-Social du Perray,,Nantes,Loire-atlantique,44300,,,,,,,47.2470641,-1.5123572
332,20332,Centre Médico-psychologique,,Roanne,Loire,42300,,,,,,,46.0442967,4.0792989
333,20333,Centre Neuro-Psychiatrique-Infantile Théophile-Roussel,,Montesson,Yvelines,78360,,,,,,,48.9256545,2.1292811
334,20334,Centre Orthopédique Maguelone,,Castelnau-le-Lez,Occitanie,34170,,,,,,,43.6238284,3.9081884
335,20335,Centre Oscar Lambret,,,Nord,,,,,,,,50.6120816,3.0324272
336,20336,Centre Paul Strauss,,Strasbourg,Grand Est,67000,,,,,,,48.5760302,7.7511488
337,20337,Centre Psychothérapique Saint-Martin de Vignogoul,,Pignan,Occitanie,34570,,,,,,,43.5917024,3.787532
338,20338,Centre Psychothérapique de Nancy,,Laxou,Grand Est,54520,,+33 3 83 92 50 50,,,,,48.6788527,6.1413029
339,20339,Centre Psychothérapique de Tours Sud (CHU),,Chambray-lès-Tours,Indre-et-loire,37170,,+33 2 47 47 47 47,,,,,47.3520214,0.7109872
340,20340,Centre Psychothérapique de l'Ain,,Viriat,Ain,01440,,,,,,,46.2280783,5.2327902
341,20341,Centre Psychothérapique de l'Orne,,Alençon,Normandie,61000,,,,,No,,48.435203,0.0768957
342,20342,Centre Psychotérapique de l'Orne,,Flers,Normandie,61100,,,,,,,48.7473036,-0.5416414
343,20343,Centre Pédiatrique des Côtes,,Jouy-en-Josas,Yvelines,78350,,,,,,,48.7587061,2.1471274
344,20344,Centre Ressources Autismes - Nord-Pas-de-Calais,,Loos,Nord,59120,,,,,No,,50.6047363,3.0282344
345,20345,Centre Rhône-Azur,,Gap,Hautes-alpes,05000,,,,,,,44.5681427,6.0686355
346,20346,Centre Régional de Médecine Physique et de Réadaptation Les Herbiers,Rue Herbeuse 111,Bois-Guillaume,Normandie,76230,,+33 2 35 59 52 00,,,,,49.4624475,1.1149131
347,20347,Centre Rééducation Moteur Cérébral,,Fagnières,Grand Est,51510,,,,,No,,48.9527767,4.3275261
348,20348,Centre Saint-Jean,,,Grand Est,,,+33 3 89 38 59 00,,,,,47.756935,7.05873
349,20349,Centre Sainte-Barbe,,Fouquières-lès-Lens,Pas-de-calais,62740,,,,,,,50.42215,2.8907979
350,20350,Centre William Harvey,,,Normandie,,,,,,,,49.1768223,-1.3313203
351,20351,Centre cardiologique d'Évecquemont,,Évecquemont,Yvelines,78740,,,,,,,49.0103465,1.9355061
352,20352,Centre catalan d'imagerie,,Perpignan,Occitanie,66000,,+33 4 68 55 21 35,,,,,42.6953658,2.8637466
353,20353,Centre catalan d'oncologie,,Perpignan,Occitanie,66000,,+33 4 68 55 74 96,,,,,42.6957407,2.8642197
354,20354,Centre de Biologie-Pathologie,,,Nord,,,,,,No,,50.6095124,3.0323893
355,20355,Centre de Convalescence Mutualiste,,Saint-Sébastien-sur-Loire,Loire-atlantique,44230,,,,,No,,47.1919552,-1.5022291
356,20356,Centre de Convalescence l'Hostrea,,Noyers,Normandie,27720,,+33 2 32 27 75 75,,,,,49.2410408,1.6799879
357,20357,Centre de Dialyse - Diaverum,,Arles,Bouches-du-rhône,13200,,+33 4 90 52 15 20,,,,,43.6574624,4.6315163
358,20358,Centre de Gérontologie de Serre Cavalier,,Nîmes,Occitanie,30000,,+33 4 66 68 34 71,,,,,43.8500519,4.3791168
359,20359,Centre de Gérontologie et d'Accueil Spécialisé Philippe Dugué,,,Gard,,,,,,No,,48.7073841,2.0342104
360,20360,Centre de Jour Marie Noël pour Enfants,,Compiègne,Oise,60200,,,,,,,49.405095,2.7979807
361,20361,Centre de Long et Moyen Séjour des Monts d'Or,,Chasselay,Rhône,69380,,,,,,,45.878398,4.7692925
362,20362,Centre de Lutte contre le Cancer René Gauducheau,,Saint-Herblain,Loire-atlantique,44800,,,,,,,47.2367559,-1.6378712
363,20363,Centre de Médecine Physique et de Capture4Réadaptation (CMPR) de Bagnoles de l’Orne,Avenue du Docteur Jacques Aimez 17,,Normandie,,,,,,No,,48.5536991,-0.4247676
364,20364,Centre de Pneumologie Henri Bazire,,,Loire-atlantique,,,+33 4 76 56 32 32,,,,,45.3466806,5.6567574
365,20365,Centre de Post-Cure,,Dury,Somme,80480,,,,,,,49.8665201,2.2779375
366,20366,Centre de Psychiatrie Les Tournesols,,Vendôme,Loir-et-cher,41100,,+33 2 54 23 36 41,,,,,47.8025878,1.0562421
367,20367,Centre de Psychothérapie Les Marronniers,,Bully-les-Mines,Pas-de-calais,62160,,,,,,,50.4598365,2.7155694
368,20368,Centre de Radiologie,,,Pas-de-calais,,,,,,,,-21.5701343,165.4984696
369,20369,Centre de Réadaptation Cardio-Respiratoire de la Loire (CRCRL),,Saint-Priest-en-Jarez,Loire,42270,,,,,,,45.4773028,4.365774
370,20370,Centre de Réadaptation Cardiologique et Pneumologique de Franche-Comté,,Pont-d'Héry,Jura,39110,,,,,,,46.8814196,5.9071409
371,20371,Centre de Réadaptation Fonctionnelle,,Salins-les-Bains,Jura,39110,,,,,,,46.940846,5.877238
372,20372,Centre de Réadaptation Fonctionnelle E. Bretegnier,,Héricourt,Haute-saône,70400,,,,,,,47.5773071,6.7553917
373,20373,Centre de Réadaptation Le Muesberg,,,Haute-saône,,,,,,,,48.1957484,7.2241428
374,20374,Centre de Réadaptation Spécialisé Saint-Luc,,Abreschviller,Grand Est,57560,,,,,,,48.628396,7.1214208
375,20375,Centre de Réadaptation de Lay-Saint-Christophe,,Lay-Saint-Christophe,Grand Est,54690,,,,,,,48.747048,6.1815778
376,20376,Centre de Réadaptation et de Rééducation Fonctionnelles Le Bourbonnais,,Bourbon-Lancy,Saône-et-loire,71140,,,,,,,46.617684,3.7672403
377,20377,Centre de Réeducation Fonctionnelle de la Tour de Gassies,,Eysines,Gironde,33320,,+33 5 56 16 33 33,,,,,44.8849129,-0.6275582
378,20378,Centre de Rééducation Florentin,,Nancy,Grand Est,54000,,,,,,,48.68795,6.196986
379,20379,Centre de Rééducation Fonctionnelle Institut Asclépiade,,Saint-Parres-aux-Tertres,Grand Est,10410,,,,,,,48.2937664,4.13549
380,20380,Centre de Rééducation Fonctionnelle Notre-Dame,,Chamalières,Puy-de-dôme,63400,,,,,,,45.7777757,3.0713978
381,20381,Centre de Rééducation Korian Les Grands Chênes,Rue Stéhélin 40-52,Bordeaux,Gironde,33200,,,,,,,44.8545587,-0.6237237
382,20382,Centre de Santé H. Barbusse,,Saint-Ouen-sur-Seine,Seine-saint-denis,93400,,+33 1 49 45 68 90,,,,,48.9079446,2.3316958
383,20383,Centre de Santé Infirmier de Molène,,Île-Molène,Bretagne,29259,,,,,,,48.3958628,-4.9585425
384,20384,Centre de Santé Mentale Angevin (CESAME),,Sainte-Gemmes-sur-Loire,Maine-et-loire,49130,,,,,,,47.4201948,-0.5682165
385,20385,Centre de Santé Médical,,Wingles,Pas-de-calais,62410,,,,,,,50.490457,2.849963
386,20386,Centre de Santé de Manosque,Avenue du Majoral Mestre Raoul Arnaud nan,,Pas-de-calais,,,+33 4 92 70 58 60,,,,,43.8300825,5.7808189
387,20387,Centre de Soins,,Escaudain,Nord,59124,,,,,,,50.341287,3.347138
388,20388,Centre de Soins de Suite Le parc,,,Normandie,,,,,,,,48.5518283,-0.4188272
389,20389,Centre de Soins de Suite de Sartrouville;Centre Imagerie Médicale Yvelines Nord (CIMYN),,Sartrouville,Yvelines,78500,,,,,,,48.9424747,2.161001
390,20390,Centre de Soins de Suite et de Réadaptation Sainte-Catherine Labouré,,La Baume-d'Hostun,Drôme,26730,,,,,No,,45.0597219,5.2158125
391,20391,Centre de Soins et d'Accompagnement et de Prévention en Addictologie,,Lille,Nord,59000,,,,,,,50.6192757,3.0451803
392,20392,Centre de Soins et de Réadaptation Les Tilleroyes,,Besançon,Doubs,25000,,,,,,,47.2345516,5.9604533
393,20393,Centre de Traumatologie et d'Orthopédie de la Main,,Illkirch-Graffenstaden,Grand Est,67400,,,,,,,48.5376629,7.7256698
394,20394,Centre de cure médicale,Rue de la Croix Duchet nan,Saint-Amand-Montrond,Cher,18200,,+33 2 48 63 26 00,,,No,,46.7373268,2.5084327
395,20395,Centre de dépistage anonyme et gratuit,,Paris,Paris,75004,,,,,,,48.8535095,2.3594089
396,20396,Centre de l'Espoir,,Lille,Nord,59260,,,,,,,50.6220315,3.1228906
397,20397,Centre de long séjour,,Saint-Pierre-le-Moûtier,Nièvre,58240,,,,,,,46.7934216,3.1166946
398,20398,Centre de long séjour de Bellevaux,,Besançon,Doubs,25000,,,,,,,47.2422323,6.0215783
399,20399,Centre de réadaptation CRF de Beaurouvre,,Blandainville,Eure-et-loir,28120,,,,,,,48.3184911,1.2736067
400,20400,Centre de réadaptation Château Walk,,Haguenau,Grand Est,67500,,,,,,,48.7940768,7.768046
401,20401,Centre de réadaptation fonctionnelle Richelieu,,La Rochelle,Charente-maritime,17000,,+33 5 46 43 12 05,,,,,46.1538977,-1.1745953
402,20402,Centre de rééducation fonctionnelle de la Hève,,Le Havre,Normandie,76600,,,,,,,49.5194193,0.0875644
403,20403,Centre de rééducation fonctionnelle du Cabirol,,Colomiers,Occitanie,31770,,,,,,,43.597177,1.3291387
404,20404,Centre de santé,,Nailloux,Occitanie,31560,,,,,No,,43.3601681,1.6246255
405,20405,Centre de soins Louis Sevestre,,La Membrolle-sur-Choisille,Indre-et-loire,37390,,+33 2 47 42 46 46,,,,,47.4389649,0.6465182
406,20406,Centre de soins de suite et de réadaptation,,Châteauroux,Indre,36000,,,,,,,46.7925722,1.7042166
407,20407,Centre des Maladies du Foie et de l'Appareil Digestif,,Irigny,Rhône,69540,,+33472666700,,,No,,45.6890859,4.823331
408,20408,Centre départemental Georges Daumézon,,Fleury-les-Aubrais,Loiret,45400,,,,,,,47.9460349,1.9481554
409,20409,"Centre d’écoute, de consultations et d’activités thérapeutiques (CECAT)",Allée de la Providence 17,Poitiers,Vienne,86000,,,,,,,46.561988,0.367398
410,20410,Centre hopitalier de Chaumont,Rue Jeanne d'Arc 2,Chaumont,Grand Est,52000,,+33 3 25 30 70 30,,,Yes,,48.1212756,5.1379222
411,20411,Centre hospitaier de Saint-Tropez,Rond-Point du Général Diego Brosset nan,Gassin,Var,83580,,+33 4 98 12 50 00,,,Yes,,43.2496608,6.5722658
412,20412,Centre hospitalier,,Verneuil d'Avre et d'Iton,Normandie,27130,,+33 2 32 23 60 00,,,Yes,,48.7400746,0.9208392
413,20413,Centre hospitalier,,Châteauroux,Indre,36000,,+33 2 54 29 60 00,,,Yes,,46.7988082,1.6925839
414,20414,Centre hospitalier Aiguilles-Queyras,,,Hautes-alpes,,,+33 4 92 46 70 18,,,,,44.7806824,6.8670989
415,20415,Centre hospitalier Alphonse Guérin,Rue du Roi Arthur nan,Ploërmel,Bretagne,56800,,+33 2 97 73 26 26,,,Yes,,47.9365644,-2.3970238
416,20416,Centre hospitalier Alès-Cévennes,,Alès,Occitanie,30100,,+33 4 66 78 33 33,,,Yes,,44.144635,4.0931699
417,20417,Centre hospitalier Annecy-Genevois,,Saint-Julien-en-Genevois,Haute-savoie,74160,,+33 4 50 49 65 65,,,Yes,,46.1471833,6.0790072
418,20418,Centre hospitalier Ardèche Nord,,Annonay,Ardèche,07100,,+33 4 75 67 35 00,,,Yes,,45.2432613,4.6647689
419,20419,Centre hospitalier Ariège Couserans,,,Occitanie,,,+33 5 61 96 20 20,,,Yes,,43.0014401,1.1291401
420,20420,Centre hospitalier Auban-Moët,Rue de l'Hôpital 137,Épernay,Grand Est,51200,,+33 3 26 58 70 00,,,Yes,,49.031018,3.956321
421,20421,Centre hospitalier Bat.1,,Aire-sur-la-Lys,Pas-de-calais,62120,,,,,,,50.641901,2.398562
422,20422,Centre hospitalier Comminges Pyrénées,Boulevard d'Encore 21,Saint-Gaudens,Occitanie,31800,,,,,,,43.1162449,0.7330826
423,20423,Centre hospitalier Comminges Pyrénées,,Saint-Gaudens,Occitanie,31800,,+33 5 62 00 40 00,,,Yes,,43.112755,0.7137674
424,20424,Centre hospitalier Durécu-Lavoisier,Rue Louis Pasteur 116,Darnétal,Normandie,76160,,+33 2 32 12 32 32,,,No,,49.4450136,1.1483224
425,20425,Centre hospitalier Erstein Ville,,Erstein,Grand Est,67150,,+33 3 88 64 66 46,,,No,,48.4216042,7.6603156
426,20426,Centre hospitalier Eure-Seine,Rue du Docteur Burnet 5,Vernon,Normandie,27200,,+33 2 32 71 66 00,,,Yes,,49.0908332,1.4889871
427,20427,Centre hospitalier Eure-Seine,Rue Louis Gillain nan,Évreux,Normandie,27000,,+33 2 32 33 80 00,,,Yes,,49.0327971,1.11126
428,20428,Centre hospitalier Fanny Ramadier,,Saint-Chély-d'Apcher,Occitanie,48200,,+33 4 66 31 00 66,,,,,44.8075534,3.2793956
429,20429,Centre hospitalier François Quesnay,,Mantes-la-Jolie,Yvelines,78200,,+33 1 34 97 40 00,,,Yes,,48.9997244,1.6720779
430,20430,Centre hospitalier François Tosquelles,,Saint-Alban-sur-Limagnole,Occitanie,48120,,+33 4 66 42 55 55,,,,,44.7808718,3.3942345
431,20431,Centre hospitalier Geneviève de Gaulle Anthonioz,,,Grand Est,,,+33 3 25 56 84 84,,,Yes,,48.6561502,4.9617003
432,20432,Centre hospitalier Georges Claudinon,Rue Paul Langevin nan,Le Chambon-Feugerolles,Loire,42500,,,,,No,,45.3919822,4.3217034
433,20433,Centre hospitalier Henri Guérin,,Pierrefeu-du-Var,Var,83390,,,,,,,43.236708,6.1501765
434,20434,Centre hospitalier Henri Mondor,,Aurillac,Cantal,15000,,+33 4 71 46 56 56,,,Yes,,44.9274367,2.4335189
435,20435,Centre hospitalier Henri laborit,,Châtellerault,Vienne,86100,,,,,,,46.8303053,0.5560937
436,20436,Centre hospitalier Henri laborit,,Mignaloux-Beauvoir,Vienne,86550,,,,,Yes,,46.551616,0.3877224
437,20437,Centre hospitalier Hôtel Dieu,Rue Alfred Labbé 4,Mont-Saint-Martin,Grand Est,54350,,+33 3 82 44 70 00,,,Yes,,49.5361613,5.7809966
438,20438,Centre hospitalier Irénée de Bruyn,Rue de Pére Irénée de Bruyn 1,Saint-Barthélemy,Saint-barthélemy,97133,,,,,,,17.8947099,-62.850948
439,20439,Centre hospitalier Jacques Boutard,,Saint-Yrieix-la-Perche,Haute-vienne,87500,,+33 5 55 75 75 75,,,Yes,,45.5158334,1.2028489
440,20440,Centre hospitalier Jacques Cœur,,Bourges,Cher,18000,,+33 2 48 48 48 48,,,Yes,,47.0838142,2.4400431
441,20441,Centre hospitalier Jacques Lacarin,Boulevard Denière 1,Vichy,Allier,03200,,+33 4 70 97 33 33,,,Yes,,46.1240941,3.4327423
442,20442,Centre hospitalier Jean-Martin Charcot,,Saint-Cyr-l'École,Yvelines,78210,,,,,,,48.8036351,2.0629916
443,20443,Centre hospitalier Le Cateau,,Le Cateau-Cambrésis,Nord,59360,,+33 3 27 84 66 66,,,Yes,,50.1041776,3.5360532
444,20444,Centre hospitalier Le Vinatier,,Bron,Rhône,69500,,,,,,,45.746643,4.8965931
445,20445,Centre hospitalier Loire Vendée Océan,,Machecoul-Saint-Même,Loire-atlantique,44270,,+33 2 40 78 44 00,,,,,46.994735,-1.8226846
446,20446,Centre hospitalier Louis Constant Fleming,Spring Concordia nan,,Saint Martin,,,+33 5 90 52 25 25,,,Yes,,18.0654981,-63.0740235
447,20447,Centre hospitalier Louis Jaillon,Montée de l'Hôpital 2,,Saint Martin,,,+33 3 84 41 33 33,,,Yes,,46.3845328,5.8670067
448,20448,Centre hospitalier Lucien Hussel,,Vienne,Isère,38200,,+33 4 74 31 33 33,,,Yes,,45.5363487,4.8785738
449,20449,Centre hospitalier Manchester,Avenue de Manchester 45,Charleville-Mézières,Grand Est,08000,,+33 3 24 58 70 70,,,Yes,,49.7613444,4.6946447
450,20450,Centre hospitalier Max Querrien,Chemin de Kerpuns 36,Paimpol,Bretagne,22500,,,,,Yes,,48.7724685,-3.0362123
451,20451,Centre hospitalier Michel Mazéas,Rue Laënnec 85,Douarnenez,Bretagne,29100,,+33 2 98 75 10 10,,,Yes,,48.0842056,-4.318538
452,20452,Centre hospitalier Notre-Dame de la Miséricorde,,,Corse,,,+33 4 95 29 90 90,,,Yes,,41.923073,8.7308335
453,20453,Centre hospitalier Ouest Réunion,,,Réunion,,,02 62 45 30 30,,,Yes,,-20.9776191,55.3004867
454,20454,Centre hospitalier Paul Martinais,,,Indre-et-loire,,,+33 2 47 91 33 33,,,Yes,,47.1287167,1.0015743
455,20455,Centre hospitalier Pierre Dezarnaulds,,Gien,Loiret,45500,,+33 2 38 29 38 29,,,Yes,,47.6902613,2.6369145
456,20456,Centre hospitalier René Dubos,,Pontoise,Val-d'oise,95300,,+33 1 30 75 40 40,,,Yes,,49.0607915,2.0939121
457,20457,Centre hospitalier Rives de Seine - Neuilly-sur-Seine,Boulevard du Général Leclerc 36,Neuilly-sur-Seine,Hauts-de-seine,92200,,+33 1 40 88 60 00,,,Yes,,48.8903736,2.2613266
458,20458,Centre hospitalier Robert Bisson,,Lisieux,Normandie,14100,,+33 2 31 61 31 31,,,Yes,,49.143406,0.2318713
459,20459,Centre hospitalier Robert Morlevat,,Semur-en-Auxois,Côte-d'or,21140,,+33 3 80 89 64 64,,,Yes,,47.4957892,4.3424166
460,20460,Centre hospitalier Saint-Esprit,,Agen,Lot-et-garonne,47000,,+33 5 53 69 70 71,,,Yes,,44.2148783,0.6334881
461,20461,Centre hospitalier Saint-Nazaire,Boulevard Georges Charpak 11,Saint-Nazaire,Loire-atlantique,44600,,+33 2 72 27 80 00,,,Yes,,47.2644084,-2.2600696
462,20462,Centre hospitalier Saint-Pierre d'Oléron,,,Charente-maritime,,,+33 5 46 76 31 00,,,limited,,45.942953,-1.30472
463,20463,Centre hospitalier Sainte-Marie,,,Guadeloupe,,,+33 5 90 97 65 00,,,Yes,,15.8897434,-61.3073906
464,20464,Centre hospitalier Simone Veil,Rue de Rennes 30,Vitré,Bretagne,35500,,+33 2 99 74 14 14,,,Yes,,48.1236345,-1.2267729
465,20465,Centre hospitalier Universitaire de Nantes,,Nantes,Loire-atlantique,44000,,+33 2 40 08 33 33,,,Yes,,47.2093415,-1.5551253
466,20466,Centre hospitalier William Morey,,Chalon-sur-Saône,Saône-et-loire,71100,,+33 3 85 44 66 88,,,Yes,,46.7771133,4.8392774
467,20467,Centre hospitalier Yves Le Foll,,Saint-Brieuc,Bretagne,22000,,+33 2 96 01 71 23,,,Yes,,48.494007,-2.753637
468,20468,Centre hospitalier d'Abbeville,Rue de l'Isle 43,Abbeville,Somme,80100,,+33 3 22 25 52 00,,,Yes,,50.1007453,1.8312942
469,20469,Centre hospitalier d'Albertville-Moûtiers,Rue de l'École des Mines 43,Moûtiers,Savoie,73600,,+33 4 79 09 60 60,,,Yes,,45.4835066,6.5339946
470,20470,Centre hospitalier d'Albertville-Moûtiers,,Albertville,Savoie,73200,,+33 4 79 89 55 55,,,Yes,,45.6697133,6.3699983
471,20471,Centre hospitalier d'Albi,Boulevard Général Sibille 22,Albi,Occitanie,81000,,+33 5 63 47 47 47,,,Yes,,43.9250095,2.1439634
472,20472,Centre hospitalier d'Alençon,Rue de Fresnay 25,Alençon,Normandie,61000,,+33 2 33 32 30 30,,,Yes,,48.426406,0.0865764
473,20473,Centre hospitalier d'Altkirch,,Altkirch,Grand Est,68130,,+33 3 89 08 30 30,,,,,47.6253892,7.2537594
474,20474,Centre hospitalier d'Amboise,,Amboise,Indre-et-loire,37400,,+33 2 47 23 33 33,,,Yes,,47.4092098,0.9804845
475,20475,Centre hospitalier d'Angoulême,,Saint-Michel,Charente,16470,,+33 5 45 24 40 40,,,Yes,,45.6366171,0.1183945
476,20476,Centre hospitalier d'Antibes - Juan-les-Pins,Avenue de Nice 107,Antibes,Alpes-maritimes,06600,,,,,Yes,,43.602543,7.116229
477,20477,Centre hospitalier d'Argentan,Rue Aristide Briand 47,Argentan,Normandie,61200,,+33 2 33 12 33 12,,,Yes,,48.7465864,-0.02026
478,20478,Centre hospitalier d'Argenteuil,Rue du Lieutenant-Colonel Prudhon 69,Argenteuil,Val-d'oise,95100,,+33 1 34 23 24 25,,,Yes,,48.9423763,2.2357211
479,20479,Centre hospitalier d'Arles,,Arles,Bouches-du-rhône,13200,,+33 4 90 49 29 29,,,Yes,,43.6590211,4.6355366
480,20480,Centre hospitalier d'Armentières,,Armentières,Nord,59280,,+33 3 20 48 33 33,,,Yes,,50.683678,2.8689847
481,20481,Centre hospitalier d'Arpajon,,Arpajon,Essonne,91290,,+33 1 64 92 92 92,,,Yes,,48.5844717,2.2390163
482,20482,Centre hospitalier d'Arras,,Arras,Pas-de-calais,62000,,+33 3 21 21 10 10,,,Yes,,50.297033,2.755097
483,20483,Centre hospitalier d'Aubagne,Avenue des Soeurs Gastine 179,Aubagne,Bouches-du-rhône,13400,,+33 4 42 84 70 00,,,Yes,,43.2917123,5.5628146
484,20484,Centre hospitalier d'Auch,,Auch,Occitanie,32000,,+33 5 62 61 32 32,,,Yes,,43.6313603,0.5809226
485,20485,Centre hospitalier d'Avallon,,,Gers,,,+33 3 86 34 66 00,,,Yes,,47.4897034,3.9052601
486,20486,Centre hospitalier d'Avignon,,Avignon,Vaucluse,84000,,+33 4 32 75 33 33,,,Yes,,43.9195164,4.7965552
487,20487,Centre hospitalier d'Elbeuf,Rue du Docteur Villiers nan,Saint-Aubin-lès-Elbeuf,Normandie,76410,,+33 2 32 96 35 35,,,Yes,,49.3065768,1.0396532
488,20488,Centre hospitalier d'Embrun,,Orcières,Hautes-alpes,05170,,+33 4 92 43 73 00,,,Yes,,44.5618383,6.4927456
489,20489,Centre hospitalier d'Is-sur-Tille,,Is-sur-Tille,Côte-d'or,21120,,+33 3 80 95 62 62,,,No,,47.5196887,5.1073565
490,20490,Centre hospitalier d'Oloron,,Oloron-Sainte-Marie,Pyrénées-atlantiques,64400,,,,,Yes,,43.1966977,-0.6154097
491,20491,Centre hospitalier d'Orange,,Orange,Vaucluse,84100,,+33 4 90 11 22 22,,,Yes,,44.1479406,4.8216058
492,20492,Centre hospitalier d'Orsay,,Orsay,Essonne,91400,,+33 1 69 29 75 75,,,Yes,,48.6999579,2.1868766
493,20493,Centre hospitalier d'Ortez,,Orthez,Pyrénées-atlantiques,64300,,+33 5 59 69 70 70,,,Yes,,43.4862888,-0.77277
494,20494,Centre hospitalier d'Étampes,Avenue Charles de Gaulle 26,Étampes,Essonne,91150,,+33 1 60 80 76 76,,,Yes,,48.4200853,2.1509242
495,20495,Centre hospitalier de Bagnols-sur-Cèze,,Bagnols-sur-Cèze,Occitanie,30200,,+33 4 66 79 10 11,,,Yes,,44.1582699,4.6153648
496,20496,Centre hospitalier de Bagnères-de-Bigorre,,Bagnères-de-Bigorre,Occitanie,65200,,+33 5 62 91 41 11,,,Yes,,43.066465,0.1466433
497,20497,Centre hospitalier de Bailleul,,Bailleul,Nord,59270,,,,,,,50.7370825,2.7385897
498,20498,Centre hospitalier de Basse-Terre,Avenue Gaston Feuillard nan,,Guadeloupe,,,+33 590 80 54 54,,,Yes,,16.0046534,-61.7298013
499,20499,Centre hospitalier de Bastia,,,Corse,,,+33 4 95 59 11 11,,,Yes,,42.6803543,9.4277025
500,20500,Centre hospitalier de Beauvais,,Beauvais,Oise,60000,,+33 3 44 11 21 21,,,Yes,,49.4509421,2.0719811
501,20501,Centre hospitalier de Bergerac,,Bergerac,Dordogne,24100,,+33 5 53 63 88 88,,,Yes,,44.8515028,0.4991762
502,20502,Centre hospitalier de Bernay,Rue Anne de Ticheville 5,Bernay,Normandie,27300,,+33 2 32 45 63 00,,,Yes,,49.0897148,0.5910711
503,20503,Centre hospitalier de Bigorre - La Gespe,,Tarbes,Occitanie,65000,,+33 5 62 51 51 51,,,Yes,,43.2190551,0.056632
504,20504,Centre hospitalier de Bigorre - Site de Vic,,Vic-en-Bigorre,Occitanie,65500,,+33 5 62 54 70 00,,,,,43.3885242,0.0533728
505,20505,Centre hospitalier de Blaye,,Blaye,Gironde,33390,,+33 5 57 33 40 00,,,Yes,,45.13393,-0.659974
506,20506,Centre hospitalier de Bligny,,,Essonne,,,,,,No,,48.6278725,2.1468841
507,20507,Centre hospitalier de Blois,,Blois,Loir-et-cher,41000,,+33 2 54 55 66 33,,,Yes,,47.6065446,1.3433668
508,20508,Centre hospitalier de Bonifacio,,,Corse,,,+33 4 95 73 95 73,,,,,41.39939,9.1628317
509,20509,Centre hospitalier de Boscamnant,,Boscamnant,Charente-maritime,17360,,+33 5 46 86 50 00,,,No,,45.1985354,-0.0891084
510,20510,Centre hospitalier de Boulogne-sur-Mer,,Boulogne-sur-Mer,Pas-de-calais,62200,,+33 3 21 99 33 33,,,Yes,,50.7220646,1.6256386
511,20511,Centre hospitalier de Bourbonne les Bains,,Bourbonne-les-Bains,Grand Est,52400,,,,,,,47.9467441,5.7327711
512,20512,Centre hospitalier de Bourg-Saint-Maurice,,Bourg-Saint-Maurice,Savoie,73700,,+33 4 79 41 79 79,,,Yes,,45.6170992,6.7634515
513,20513,Centre hospitalier de Brignoles,,Brignoles,Var,83170,,+33 4 94 72 66 00,,,Yes,,43.404717,6.066261
514,20514,Centre hospitalier de Brive-la-Gaillarde,Boulevard Docteur Verlhac 3,Brive-la-Gaillarde,Corrèze,19100,,,,,Yes,,45.1677815,1.5315587
515,20515,Centre hospitalier de Béthune,,Beuvry,Pas-de-calais,62660,,+33 3 21 64 44 44,,,Yes,,50.5163509,2.6722465
516,20516,Centre hospitalier de Béziers,Rue Valentin Haüy 2,Béziers,Occitanie,34500,,+33 4 67 35 70 35,,,Yes,,43.3423214,3.2536523
517,20517,Centre hospitalier de Cahors,,Cahors,Occitanie,46000,,+33 5 65 20 50 50,,,Yes,,44.4448503,1.437638
518,20518,Centre hospitalier de Calais,,Calais,Pas-de-calais,62100,,+33 3 21 46 33 33,,,Yes,,50.9428578,1.8892642
519,20519,Centre hospitalier de Calvi-Balagne,,,Corse,,,+33 9 74 56 57 38,,,Yes,,42.5491318,8.7655602
520,20520,Centre hospitalier de Cambrai,Avenue de Paris 516,Cambrai,Nord,59400,,+33 3 27 73 73 73,,,Yes,,50.1656773,3.228497
521,20521,Centre hospitalier de Cannes,,Cannes,Alpes-maritimes,06400,,+33 4 93 69 70 00,,,,,43.5632344,7.0054862
522,20522,Centre hospitalier de Capesterre-Belle-Eau (CHCBE),,,Guadeloupe,,,,,,,,16.0112126,-61.5978238
523,20523,Centre hospitalier de Carcassonne,,Carcassonne,Occitanie,11000,,+33 4 68 24 24 24,,,Yes,,43.222308,2.3935785
524,20524,Centre hospitalier de Carhaix,,Carhaix-Plouguer,Bretagne,29270,,+33 2 98 99 20 20,,,Yes,,48.2738275,-3.5806077
525,20525,Centre hospitalier de Carpentras,Rond-Point de l'Amitié Vevey Seesen nan,Carpentras,Vaucluse,84200,,+33 4 32 85 88 88,,,Yes,,44.0477911,5.0269223
526,20526,Centre hospitalier de Castelnaudary,,Castelnaudary,Occitanie,11400,,+33 4 68 94 57 52,,,Yes,,43.3172265,1.9611186
527,20527,Centre hospitalier de Cernay,,Cernay,Grand Est,68700,,+33 3 89 38 54 14,,,No,,47.8071964,7.1732095
528,20528,Centre hospitalier de Chagny,,Chagny,Saône-et-loire,71150,,,,,,,46.910617,4.750314
529,20529,Centre hospitalier de Champagnole,Rue de Franche Comté 1,Champagnole,Jura,39300,,+33 3 84 53 02 02,,,Yes,,46.737379,5.9095529
530,20530,Centre hospitalier de Charolles,Rue du Prieuré 6,Charolles,Saône-et-loire,71120,,,,,,,46.4315342,4.2815296
531,20531,Centre hospitalier de Chateau-Chinon,,,Saône-et-loire,,,+33 3 86 79 60 00,,,No,,47.061313,3.935654
532,20532,Centre hospitalier de Chatellerault,,Châtellerault,Vienne,86100,,+33 5 49 02 90 90,,,Yes,,46.8292684,0.5550704
533,20533,Centre hospitalier de Cholet,,Cholet,Maine-et-loire,49300,,+33 2 41 49 60 00,,,Yes,,47.0408295,-0.9005742
534,20534,Centre hospitalier de Châlons-en-Champagne,,Châlons-en-Champagne,Grand Est,51000,,+33 3 26 69 60 60,,,Yes,,48.9730152,4.372341
535,20535,Centre hospitalier de Château-Renault,,Château-Renault,Indre-et-loire,37110,,+33 2 47 23 33 33,,,,,47.588496,0.9174006
536,20536,Centre hospitalier de Château-Thierry,,Château-Thierry,Aisne,02400,,+33 3 23 69 66 00,,,Yes,,49.0520734,3.4127033
537,20537,Centre hospitalier de Châteaubriant,,Châteaubriant,Loire-atlantique,44110,,+33 2 40 55 88 00,,,Yes,,47.7271373,-1.3797967
538,20538,Centre hospitalier de Châteaudun,,Châteaudun,Eure-et-loir,28200,,+33 2 37 44 40 40,,,Yes,,48.0753371,1.3561809
539,20539,Centre hospitalier de Châteauneuf sur Charente,Place de l'Eglise nan,Châteauneuf-sur-Charente,Charente,16120,,0545662189,,,No,,45.597259,-0.059052
540,20540,Centre hospitalier de Châtillon-sur-Seine,,Leuglay,Côte-d'or,21290,,+33 3 80 91 21 21,,,Yes,,47.863412,4.5575898
541,20541,Centre hospitalier de Clamecy,Route de Beaugy 14,Clamecy,Nièvre,58500,,+33 3 86 27 60 00,,,Yes,,47.4542017,3.5105506
542,20542,Centre hospitalier de Clermont de l'Oise,,Clermont,Oise,60600,,+33 3 44 77 33 00,,,Yes,,49.3789518,2.4104261
543,20543,Centre hospitalier de Commercy,,Commercy,Grand Est,55200,,+33 3 29 91 63 00,,,limited,,48.7608701,5.5871889
544,20544,Centre hospitalier de Compiègne,,Compiègne,Oise,60200,,+33 3 44 23 60 00,,,Yes,,49.386385,2.7873618
545,20545,Centre hospitalier de Coulommiers,,Coulommiers,Seine-et-marne,77120,,+33 1 64 77 64 77,,,Yes,,48.8265658,3.0934875
546,20546,Centre hospitalier de Coulommiers,,Coulommiers,Seine-et-marne,77120,,+33 1 64 77 64 77,,,No,,48.814407,3.081542
547,20547,Centre hospitalier de Courbevoie - Neuilly-sur-Seine,,Courbevoie,Hauts-de-seine,92400,,,,,,,48.8999759,2.2525283
548,20548,Centre hospitalier de Coutances,Rue de la Gare 2,Coutances,Normandie,50200,,+33 2 33 47 40 00,,,Yes,,49.0427387,-1.4421312
549,20549,Centre hospitalier de Creil,Boulevard Laennec BP 72 nan,Creil,Oise,60100,,+33 3 44 61 60 00,,,Yes,,49.2481747,2.4577253
550,20550,Centre hospitalier de Dax-Côte d'Argent,Boulevard Yves Du Manoir 51,Dax,Landes,40100,,+33 5 58 91 48 48,,,Yes,,43.7098295,-1.0394178
551,20551,Centre hospitalier de Decazeville,Rue Prosper Alfaric 60,Decazeville,Occitanie,12300,,+33 5 65 43 71 71,,,Yes,,44.5693952,2.2520522
552,20552,Centre hospitalier de Decize,Route de Moulins 74,Decize,Nièvre,58300,,+33 3 86 77 78 79,,,Yes,,46.8213067,3.4524614
553,20553,Centre hospitalier de Denain,,Denain,Nord,59220,,+33 3 27 24 30 00,,,Yes,,50.329632,3.393933
554,20554,Centre hospitalier de Die,,,Nord,,,+33 4 75 22 55 00,,,Yes,,44.755526,5.3704681
555,20555,Centre hospitalier de Dieppe,Avenue Pasteur nan,Dieppe,Normandie,76200,,+33 2 32 14 76 76,,,Yes,,49.9194795,1.0771974
556,20556,Centre hospitalier de Dieppe le Château Michel,,Saint-Aubin-sur-Scie,Normandie,76550,,,,,No,,49.9078416,1.0728942
557,20557,Centre hospitalier de Digne-les-Bains,Quartier Saint-Christophe BP 213,Digne-les-Bains,Alpes-de-haute-provence,04000,,+33 4 92 30 15 15,,,Yes,,44.0707516,6.1769046
558,20558,Centre hospitalier de Douai,,Dechy,Nord,59187,,+33 3 27 99 61 61,,,Yes,,50.34092,3.1020257
559,20559,Centre hospitalier de Dourdan,,Dourdan,Essonne,91410,,+33 1 60 81 58 58,,,Yes,,48.5345483,1.997779
560,20560,Centre hospitalier de Dreux,,Dreux,Eure-et-loir,28100,,+33 2 37 51 52 53,,,Yes,,48.7261332,1.3872653
561,20561,Centre hospitalier de Dunkerque,,Dunkerque,Nord,59240,,+33 3 28 28 59 00,,,Yes,,51.03849,2.4003221
562,20562,Centre hospitalier de Eu,,Eu,Normandie,76260,,+33 2 27 28 22 22,,,Yes,,50.0499578,1.4226932
563,20563,Centre hospitalier de Faye L'Abbesse,,Faye-l'Abbesse,Deux-sèvres,79350,,+33 5 49 68 49 68,,,Yes,,46.8335069,-0.3896718
564,20564,Centre hospitalier de Figeac,,Figeac,Occitanie,46100,,+33 5 65 50 65 50,,,Yes,,44.6093046,2.0278657
565,20565,Centre hospitalier de Fismes,,Fismes,Grand Est,51170,,+33 3 26 48 95 95,,,,,49.3067383,3.6775419
566,20566,Centre hospitalier de Florac,,Barre-des-Cévennes,Occitanie,48400,,+33 4 66 49 63 00,,,,,44.3247307,3.597419
567,20567,Centre hospitalier de Fontainebleau,Boulevard du Maréchal Joffre 55,Fontainebleau,Seine-et-marne,77300,,+33 1 60 74 10 10,,,Yes,,48.4112175,2.6946995
568,20568,Centre hospitalier de Fougères,Rue de la Forêt 133,Fougères,Bretagne,35300,,+33 2 99 17 70 00,,,Yes,,48.3578794,-1.1941369
569,20569,Centre hospitalier de Fourmies,,,Ille-et-vilaine,,,+33 3 27 56 47 47,,,Yes,,50.009485,4.0579079
570,20570,Centre hospitalier de Fumay,,,Grand Est,,,+33 3 24 41 10 32,,,,,49.9891225,4.7096345
571,20571,Centre hospitalier de Gaillac,,Gaillac,Occitanie,81600,,+33 5 63 42 50 50,,,,,43.9017325,1.8865976
572,20572,Centre hospitalier de Gonesse,,Gonesse,Val-d'oise,95500,,+33 1 34 53 21 21,,,Yes,,48.9943659,2.4487735
573,20573,Centre hospitalier de Gourdon,,Gourdon,Occitanie,46300,,+33 5 65 27 65 27,,,Yes,,44.7330844,1.3752571
574,20574,Centre hospitalier de Grand-Fougeray,Rue Saint-Roch 29,Grand-Fougeray,Bretagne,35390,,+33 2 99 08 30 30,,,No,,47.7251064,-1.7330119
575,20575,Centre hospitalier de Gray,,Gray,Haute-saône,70100,,+33 3 84 64 61 61,,,Yes,,47.4461597,5.5845454
576,20576,Centre hospitalier de Guervénan,,,Bretagne,,,,,,,,48.5231047,-3.7348901
577,20577,Centre hospitalier de Guingamp,,Pabu,Bretagne,22200,,+33 2 96 44 56 56,,,Yes,,48.5692474,-3.1449932
578,20578,Centre hospitalier de Guise,,Guise,Aisne,02120,,,,,,,49.9030851,3.6412456
579,20579,Centre hospitalier de Guéret,,Guéret,Creuse,23000,,+33 5 55 51 70 00,,,Yes,,46.1638026,1.8717686
580,20580,Centre hospitalier de Haguenau,,Haguenau,Grand Est,67500,,+33 3 88 06 33 33,,,Yes,,48.7978044,7.7822082
581,20581,Centre hospitalier de Haute-Corrèze,,Ussel,Corrèze,19200,,+33 5 55 96 40 00,,,Yes,,45.541932,2.3104897
582,20582,Centre hospitalier de Hyères,Boulevard du Maréchal Juin 579,,Var,,,+33 4 94 00 24 00,,,Yes,,43.1205798,6.1122804
583,20583,Centre hospitalier de Joigny,Quai de l'Hôpital 3,Joigny,Yonne,89300,,+33 3 86 92 33 33,,,Yes,,47.9802587,3.3956987
584,20584,Centre hospitalier de Jonzac,,Jonzac,Charente-maritime,17500,,+33 5 46 48 75 75,,,Yes,,45.4398001,-0.4351518
585,20585,Centre hospitalier de Josselin,,Josselin,Bretagne,56120,,+33 2 97 73 13 13,,,,,47.9590109,-2.5496103
586,20586,Centre hospitalier de Juvisy-sur-Orge,,Juvisy-sur-Orge,Essonne,91260,,+33 1 69 54 27 27,,,Yes,,48.6926097,2.3733352
587,20587,Centre hospitalier de Kourou,,Kourou,Guyane,97310,,+594 594 32 76 76,,,Yes,,5.1648238,-52.6444701
588,20588,Centre hospitalier de La Ferté-Bernard,,La Ferté-Bernard,Sarthe,72400,,+33 2 43 71 61 51,,,Yes,,48.1883514,0.6612088
589,20589,Centre hospitalier de La Rochelle,,La Rochelle,Charente-maritime,17000,,+33 5 46 45 50 50,,,Yes,,46.1593637,-1.1461599
590,20590,Centre hospitalier de La Souterraine,,La Souterraine,Creuse,23300,,+33 5 55 89 58 00,,,No,,46.2363942,1.4802688
591,20591,Centre hospitalier de Langogne,,Langogne,Occitanie,48300,,+33 4 66 69 78 00,,,,,44.7245075,3.8400891
592,20592,Centre hospitalier de Langon,,Langon,Gironde,33210,,+33 5 56 76 57 57,,,Yes,,44.5433695,-0.2438557
593,20593,Centre hospitalier de Langres,,Langres,Grand Est,52200,,+33 3 25 87 88 88,,,Yes,,47.866054,5.3366377
594,20594,Centre hospitalier de Lannion,,Lannion,Bretagne,22300,,+33 2 96 05 71 11,,,Yes,,48.7230333,-3.4657743
595,20595,Centre hospitalier de Laon,,Laon,Aisne,02000,,+33 3 23 24 33 33,,,Yes,,49.5622462,3.6112165
596,20596,Centre hospitalier de Lavaur,,Lavaur,Occitanie,81500,,+33 5 63 58 81 81,,,Yes,,43.7018648,1.8177522
597,20597,Centre hospitalier de Lens,,Lens,Pas-de-calais,62300,,+33 3 21 69 12 34,,,Yes,,50.4414038,2.8202238
598,20598,Centre hospitalier de Libourne,,Libourne,Gironde,33500,,+33 5 57 55 34 34,,,Yes,,44.9169576,-0.2307435
599,20599,Centre hospitalier de Lodève,,Lodève,Occitanie,34700,,,,,,,43.7300673,3.3147117
600,20600,Centre hospitalier de Longjumeau,,Longjumeau,Essonne,91160,,+33 1 64 54 33 33,,,Yes,,48.6915411,2.2900378
601,20601,Centre hospitalier de Lons-le-Saunier,Rue du Docteur Jean Michel 55,Lons-le-Saunier,Jura,39000,,+33 3 84 35 60 00,,,Yes,,46.6779145,5.5524735
602,20602,Centre hospitalier de Loudun,,Loudun,Vienne,86200,,+33 5 49 98 45 42,,,Yes,,47.010425,0.0766629
603,20603,Centre hospitalier de Lourdes,,Lourdes,Occitanie,65100,,+33 5 62 42 42 42,,,Yes,,43.0993656,-0.0462977
604,20604,Centre hospitalier de Lure,,Lure,Haute-saône,70200,,+33384624306,,,Yes,,47.6812758,6.4992981
605,20605,Centre hospitalier de Luxeuil-les-Bains,,Luxeuil-les-Bains,Haute-saône,70300,,+33 3 84 93 35 50,,,Yes,,47.8229501,6.3818838
606,20606,Centre hospitalier de Marennes,,Marennes-Hiers-Brouage,Charente-maritime,17320,,+33 5 46 85 01 38,,,,,45.8221733,-1.0998727
607,20607,Centre hospitalier de Martigues,,Martigues,Bouches-du-rhône,13500,,+33 4 42 43 22 22,,,Yes,,43.4141334,5.0383472
608,20608,Centre hospitalier de Mauriac,,Mauriac,Cantal,15200,,+33 4 71 67 33 33,,,Yes,,45.2168015,2.34003
609,20609,Centre hospitalier de Mauvezin,,Mauvezin,Occitanie,32120,,+33 5 62 58 32 00,,,No,,43.7294516,0.8742419
610,20610,Centre hospitalier de Mayotte,Rue de l'Hôpital nan,,Mayotte,,,+262 2 69 61 80 00,,,Yes,,-12.7772767,45.2278125
611,20611,Centre hospitalier de Meaux,,Meaux,Seine-et-marne,77100,,+33 1 64 77 64 77,,,Yes,,48.9655917,2.8876817
612,20612,Centre hospitalier de Melun,,Melun,Seine-et-marne,77000,,+33 1 64 71 60 00,,,Yes,,48.5561925,2.6425633
613,20613,Centre hospitalier de Menton,Rue Antoine Péglion 2,Roquebrune-Cap-Martin,Alpes-maritimes,06190,,+33 4 93 28 77 77,,,Yes,,43.7666641,7.4843448
614,20614,Centre hospitalier de Meulan-en-Yvelines,,,Alpes-maritimes,,,+33 1 30 91 85 00,,,Yes,,49.0032469,1.9104445
615,20615,Centre hospitalier de Millau,Boulevard Achille Souques 265,,Occitanie,,,+33 5 65 59 30 00,,,Yes,,44.0944698,3.0497531
616,20616,Centre hospitalier de Millau Site de Saint-Côme,Avenue du Général Cossé 251,,Occitanie,,,,,,,,44.0958348,3.0706842
617,20617,Centre hospitalier de Mont-de-Marsan,Avenue Pierre de Coubertin nan,Mont-de-Marsan,Landes,40000,,+33 5 58 05 10 10,,,Yes,,43.8947398,-0.4878132
618,20618,Centre hospitalier de Mont-de-Marsan - Site de Sainte-Anne,,Mont-de-Marsan,Landes,40000,,+33 5 58 05 10 10,,,,,43.9035723,-0.4994912
619,20619,Centre hospitalier de Montauban,Rue Léon Cladel nan,Montauban,Occitanie,82000,,+33 5 63 92 82 82,,,Yes,,44.0241838,1.3490608
620,20620,Centre hospitalier de Montereau,Rue Victor Hugo 1,Montereau-Fault-Yonne,Seine-et-marne,77130,,+33 1 64 31 64 31,,,Yes,,48.3841738,2.9540162
621,20621,Centre hospitalier de Montluçon,,Montluçon,Allier,03100,,+33 4 70 02 30 30,,,Yes,,46.3428578,2.6090735
622,20622,Centre hospitalier de Montmorillon,,Montmorillon,Vienne,86500,,,,,Yes,,46.4301254,0.8661526
623,20623,Centre hospitalier de Montélimar,,Montélimar,Drôme,26200,,+33 4 75 53 40 00,,,Yes,,44.5691908,4.781298
624,20624,Centre hospitalier de Morestel,,Morestel,Isère,38510,,,,,,,45.6793783,5.4616414
625,20625,Centre hospitalier de Moulins-Yzeure,,Moulins,Allier,03000,,+33 4 70 35 77 77,,,Yes,,46.5705256,3.3245466
626,20626,Centre hospitalier de Mâcon,,Mâcon,Saône-et-loire,71000,,+33 3 85 20 30 40,,,Yes,,46.3178643,4.8136811
627,20627,Centre hospitalier de Nemours,,Nemours,Seine-et-marne,77140,,+33 1 64 45 19 00,,,Yes,,48.2613753,2.7025589
628,20628,Centre hospitalier de Niort - Site de Goise,,,Seine-et-marne,,,,,,,,46.3128366,-0.4570832
629,20629,Centre hospitalier de Nogent-le-Rotrou,,,Eure-et-loir,,,+33 2 37 53 75 75,,,Yes,,48.3167531,0.8372317
630,20630,Centre hospitalier de Parthenay,nan 13,Parthenay,Deux-sèvres,79200,,+33 5 49 68 49 68,,,limited,,46.6537521,-0.2220225
631,20631,Centre hospitalier de Pau,,Pau,Pyrénées-atlantiques,64000,,+33 5 59 92 48 48,,,Yes,,43.3286417,-0.3513231
632,20632,Centre hospitalier de Perpignan,,Perpignan,Occitanie,66000,,+33 4 68 61 66 33,,,Yes,,42.7225002,2.8866527
633,20633,Centre hospitalier de Pertuis,,,Pyrénées-orientales,,,+33 4 42 33 50 00,,,Yes,,43.6949602,5.4985367
634,20634,Centre hospitalier de Pithiviers,,Pithiviers,Loiret,45300,,+33 2 38 32 31 31,,,Yes,,48.1701477,2.2505397
635,20635,Centre hospitalier de Plaisir-Site Mansart,,Plaisir,Yvelines,78370,,+33 1 30 79 57 57,,,,,48.8260147,1.9440443
636,20636,Centre hospitalier de Plaisir-Site Marc Laurent,,Plaisir,Yvelines,78370,,,,,,,48.8254778,1.9451604
637,20637,Centre hospitalier de Pont-à-Mousson,,Pont-à-Mousson,Grand Est,54700,,+33 3 83 80 20 00,,,Yes,,48.906003,6.0511471
638,20638,Centre hospitalier de Pontarlier,,Pontarlier,Doubs,25300,,+33 3 81 38 54 54,,,Yes,,46.9002053,6.3609191
639,20639,Centre hospitalier de Provins,,Provins,Seine-et-marne,77160,,+33 1 64 60 40 00,,,Yes,,48.5463066,3.3016196
640,20640,Centre hospitalier de Périgueux,,Périgueux,Dordogne,24000,,+33 5 53 45 25 25,,,Yes,,45.1945529,0.7313351
641,20641,Centre hospitalier de Pézenas,,Pézenas,Occitanie,34120,,,,,,,43.4600235,3.4179494
642,20642,Centre hospitalier de Quimperlé,,Quimperlé,Bretagne,29300,,+33 2 98 96 60 00,,,Yes,,47.8689242,-3.5576552
643,20643,Centre hospitalier de Rochefort,,Rochefort,Charente-maritime,17300,,+33 5 46 88 50 50,,,Yes,,45.9683527,-0.966709
644,20644,Centre hospitalier de Rodez,,Rodez,Occitanie,12000,,+33 5 65 55 12 12,,,Yes,,44.3619279,2.5493632
645,20645,Centre hospitalier de Romorantin-Lanthenay,Rue des Capucins 96,Romorantin-Lanthenay,Loir-et-cher,41200,,+33 2 54 88 33 00,,,Yes,,47.3560874,1.7340662
646,20646,Centre hospitalier de Roubaix,,Roubaix,Nord,59100,,+33 3 20 99 31 31,,,Yes,,50.6779121,3.1745263
647,20647,Centre hospitalier de Royan,,Vaux-sur-Mer,Charente-maritime,17640,,+33 5 46 39 52 52,,,Yes,,45.633994,-1.0616358
648,20648,Centre hospitalier de Ruffec,,Ruffec,Charente,16700,,+33 5 45 29 50 00,,,Yes,,46.0284391,0.1946104
649,20649,Centre hospitalier de Saint-Affrique,,,Occitanie,,,+33 5 65 49 70 22,,,Yes,,43.9593114,2.8745982
650,20650,Centre hospitalier de Saint-Amand-Montrond,Avenue Jean Jaurès 44,Saint-Amand-Montrond,Cher,18200,,+33 2 48 63 25 25,,,Yes,,46.7256937,2.4943766
651,20651,Centre hospitalier de Saint-Calais,,Saint-Calais,Sarthe,72120,,+33 2 43 63 64 65,,,Yes,,47.9180707,0.743417
652,20652,Centre hospitalier de Saint-Céré,,Saint-Céré,Occitanie,46400,,+33 5 65 10 40 00,,,Yes,,44.8624221,1.8866084
653,20653,Centre hospitalier de Saint-Jean-d'Angely,Avenue du Port 18,Saint-Jean-d'Angély,Charente-maritime,17400,,+33 5 46 59 50 50,,,Yes,,45.9460458,-0.5307636
654,20654,Centre hospitalier de Saint-Jean-de-Maurienne,,Saint-Jean-de-Maurienne,Savoie,73300,,+33 4 79 20 60 20,,,Yes,,45.2770438,6.3422884
655,20655,Centre hospitalier de Saint-Junien,Rue Châteaubriand 12,Saint-Junien,Haute-vienne,87200,,+33 5 55 43 50 00,,,Yes,,45.888154,0.897854
656,20656,Centre hospitalier de Saint-Malo,Rue de la Marne 1,Saint-Malo,Bretagne,35400,,+33 2 99 21 21 21,,,Yes,,48.6399287,-2.0072371
657,20657,Centre hospitalier de Saint-Méen le Grand,,Saint-Méen-le-Grand,Bretagne,35290,,+33 2 99 09 88 88,,,,,48.186078,-2.20232
658,20658,Centre hospitalier de Saint-Palais,,Saint-Palais,Pyrénées-atlantiques,64120,,+33 5 59 65 45 35,,,Yes,,43.3263326,-1.0266192
659,20659,Centre hospitalier de Saint-Quentin,,Saint-Quentin,Aisne,02100,,+33 3 23 06 71 71,,,Yes,,49.8618238,3.270086
660,20660,Centre hospitalier de Sainte-Foy-la-Grande,,Sainte-Foy-la-Grande,Gironde,33220,,+33 5 57 41 96 96,,,Yes,,44.8425134,0.2214481
661,20661,Centre hospitalier de Saintonge,Boulevard Ambroise Paré 11,Saintes,Charente-maritime,17100,,+33 5 46 95 15 15,,,Yes,,45.7456996,-0.6572275
662,20662,Centre hospitalier de Salon-de-Provence,,Salon-de-Provence,Bouches-du-rhône,13300,,+33 4 90 44 91 44,,,Yes,,43.6408028,5.1030138
663,20663,Centre hospitalier de Sambre-Avesnois,Boulevard Louis Pasteur 13,Maubeuge,Nord,59600,,+33 3 27 69 43 43,,,Yes,,50.2782132,3.95791
664,20664,Centre hospitalier de Sarlat,,Sarlat-la-Canéda,Dordogne,24200,,+33 5 53 31 75 75,,,Yes,,44.9004235,1.2217288
665,20665,Centre hospitalier de Sault,,Sault,Vaucluse,84390,,+33 4 90 64 19 00,,,No,,44.0937586,5.4162705
666,20666,Centre hospitalier de Sedan,,Sedan,Grand Est,08200,,+33 3 24 22 80 00,,,Yes,,49.705814,4.939293
667,20667,Centre hospitalier de Senlis,,,Oise,,,+33 3 44 21 70 00,,,Yes,,49.197882,2.5744427
668,20668,Centre hospitalier de Sens,,Sens,Yonne,89100,,+33 3 86 86 15 15,,,Yes,,48.1921619,3.2964747
669,20669,Centre hospitalier de Sierentz,,Sierentz,Grand Est,68510,,+33 3 89 26 60 00,,,No,,47.6511838,7.4603767
670,20670,Centre hospitalier de Soissons,,Soissons,Aisne,02200,,+33 3 23 75 70 70,,,Yes,,49.3686545,3.3356069
671,20671,Centre hospitalier de Thouars,,Thouars,Deux-sèvres,79100,,+33 5 49 66 50 42,,,limited,,46.9719996,-0.184819
672,20672,Centre hospitalier de Tourcoing,,Tourcoing,Nord,59200,,+33 3 20 69 49 49,,,Yes,,50.748005,3.1808049
673,20673,Centre hospitalier de Tournus - Romenay,,Tournus,Saône-et-loire,71700,,+33 3 85 27 47 67,,,No,,46.5665862,4.8921226
674,20674,Centre hospitalier de Troyes,,Troyes,Grand Est,10000,,+33 3 25 49 49 49,,,Yes,,48.2799096,4.0684557
675,20675,Centre hospitalier de Tulle,Place Docteur Maschat 3,Tulle,Corrèze,19000,,+33 5 55 29 79 00,,,Yes,,45.2725395,1.771253
676,20676,Centre hospitalier de Vaison-la-Romaine,,Vaison-la-Romaine,Vaucluse,84110,,+33 4 90 36 04 58,,,Yes,,44.2399022,5.0750226
677,20677,Centre hospitalier de Valréas,,Valréas,Vaucluse,84600,,+33 4 90 28 51 51,,,Yes,,44.3827739,4.9908099
678,20678,Centre hospitalier de Vendôme-Montoire,,Vendôme,Loir-et-cher,41100,,+33 2 54 23 33 33,,,,,47.7940232,1.0646844
679,20679,Centre hospitalier de Versailles,,Le Chesnay-Rocquencourt,Yvelines,78150,,+33 1 39 63 91 33,,,Yes,,48.8299463,2.122778
680,20680,Centre hospitalier de Vesoul,Avenue René Heymes 2,Vesoul,Haute-saône,70000,,+33 3 84 96 60 60,,,Yes,,47.6351127,6.1371884
681,20681,Centre hospitalier de Vierzon,,Vierzon,Cher,18100,,+33 2 48 52 33 33,,,Yes,,47.2283008,2.0514432
682,20682,Centre hospitalier de Ville-Évrard,,Saint-Denis,Seine-saint-denis,93200,,,,,,,48.9374016,2.3738784
683,20683,Centre hospitalier de Villefranche de Rouergue - Site de Saint-Alain,,Villefranche-de-Rouergue,Occitanie,12200,,,,,No,,44.3546653,2.0360567
684,20684,Centre hospitalier de Villefranche-de-Rouergue - Site de Ruhle,,Villefranche-de-Rouergue,Occitanie,12200,,,,,,,44.3840688,2.0303059
685,20685,Centre hospitalier de Villefranche-de-Rouergue - Site de la Chartreuse,,Villefranche-de-Rouergue,Occitanie,12200,,+33 5 65 65 30 00,,,Yes,,44.3437638,2.0317108
686,20686,Centre hospitalier de Vire,,Vire Normandie,Normandie,14500,,+33 2 31 67 47 47,,,Yes,,48.8372723,-0.8857157
687,20687,Centre hospitalier de Voiron,,Voiron,Isère,38500,,+33 4 76 67 14 91,,,Yes,,45.3681573,5.5955191
688,20688,Centre hospitalier de l'Arrondissement de Montreuil-sur-Mer,Route Départementale 140,Rang-du-Fliers,Pas-de-calais,62180,,+33 3 21 89 46 25,,,Yes,,50.4156606,1.6606522
689,20689,Centre hospitalier de l'Estran,,Pontorson,Normandie,50170,,,,,,,48.5516626,-1.5207857
690,20690,Centre hospitalier de l'Ouest Guyanais,,Saint-Laurent-du-Maroni,Guyane,97320,,+594 594 34 88 88,,,Yes,,5.4873487,-54.0219364
691,20691,Centre hospitalier de l'agglomération montargoise,,Amilly,Loiret,45200,,+33 2 38 95 91 11,,,Yes,,47.9945485,2.7749607
692,20692,Centre hospitalier de la Ciotat,,La Ciotat,Bouches-du-rhône,13600,,+33 4 42 08 76 00,,,Yes,,43.1791292,5.6086769
693,20693,Centre hospitalier de la Côte Basque - Site Cam de Prats,,Bayonne,Pyrénées-atlantiques,64100,,,,,,,43.4851035,-1.4659903
694,20694,Centre hospitalier de la Côte Basque - Site de Saint-Leon,Avenue Interne Jacques Loëb 13,Bayonne,Pyrénées-atlantiques,64100,,+33 5 59 44 35 35,,,Yes,,43.4824909,-1.4786213
695,20695,Centre hospitalier de la Dracénie,Route de Montferrat nan,Draguignan,Var,83300,,+33 4 94 60 50 00,,,Yes,,43.5483285,6.4457772
696,20696,Centre hospitalier de la Haute Côte-d'Or,,Vitteaux,Côte-d'or,21350,,+33 3 80 33 91 91,,,,,47.3972536,4.5399327
697,20697,Centre hospitalier de la Risle,Route de Lisieux 64,Pont-Audemer,Normandie,27500,,+33 2 32 41 64 64,,,Yes,,49.3478111,0.5130262
698,20698,Centre hospitalier de la Région de Saint-Omer,,,Eure,,,+33 3 21 88 70 00,,,Yes,,50.7025571,2.2479368
699,20699,Centre hospitalier de l’Austreberthe,Rue Pierre et Marie Curie 17,Barentin,Normandie,76360,,+33 2 35 92 82 82,,,No,,49.541599,0.9533363
700,20700,Centre hospitalier de l’Estran,,Avranches,Normandie,50300,,+33 2 33 60 72 00,,,,,48.6854704,-1.3529877
701,20701,Centre hospitalier de l’Ouest Vosgien - Site de Neufchâteau,,Neufchâteau,Grand Est,88300,,+33 3 29 94 80 00,,,Yes,,48.3676161,5.7089794
702,20702,Centre hospitalier des Charmes,,Paray-le-Monial,Saône-et-loire,71600,,+33 3 85 81 80 00,,,Yes,,46.4656786,4.1069354
703,20703,Centre hospitalier des Escartons,,Briançon,Hautes-alpes,05100,,+33 4 92 25 25 25,,,Yes,,44.9065737,6.6319471
704,20704,Centre hospitalier des Mureaux,,Les Mureaux,Yvelines,78130,,+33 1 30 91 85 00,,,,,48.9873854,1.9331116
705,20705,Centre hospitalier des Pays de Morlaix,,Morlaix,Bretagne,29600,,+33 2 98 62 61 60,,,Yes,,48.5742219,-3.8290998
706,20706,Centre hospitalier des Quinze-Vingts,,Paris,Paris,75012,,+33 1 40 02 15 20,,,Yes,,48.8514645,2.3714152
707,20707,Centre hospitalier des Trois-Îlets,,,Martinique,,,+596 5 96 66 30 00,,,,,14.538419,-61.0348225
708,20708,Centre hospitalier des vallées de l’Ariège - Site de Foix,,Saint-Jean-de-Verges,Occitanie,09000,,+33 5 61 03 30 30,,,Yes,,43.0272398,1.619345
709,20709,Centre hospitalier du Bassin de Thau,,Sète,Occitanie,34200,,+33 4 67 46 57 57,,,Yes,,43.4064895,3.6670303
710,20710,Centre hospitalier du Belvédère,Rue Louis Pasteur 72,Mont-Saint-Aignan,Normandie,76130,,,,,,,49.4577607,1.0824289
711,20711,Centre hospitalier du Blanc,,,Seine-maritime,,,+33 2 54 28 28 28,,,Yes,,46.633678,1.05919
712,20712,Centre hospitalier du Bois-Petit,,Sotteville-lès-Rouen,Normandie,76300,,,,,,,49.4135524,1.0845719
713,20713,Centre hospitalier du Centre Bretagne - Centre de rééducation fonctionnelle,,Plémet,Bretagne,22210,,,,,,,48.1712175,-2.5993855
714,20714,Centre hospitalier du Centre-Bretagne,,Noyal-Pontivy,Bretagne,56920,,+33 2 97 79 00 00,,,Yes,,48.0862938,-2.9157514
715,20715,Centre hospitalier du Chinonais,,,Indre-et-loire,,,+33 2 47 93 75 15,,,Yes,,47.1889177,0.291422
716,20716,Centre hospitalier du Forez,,Feurs,Loire,42110,,+33 4 77 27 54 54,,,Yes,,45.7469109,4.2205215
717,20717,Centre hospitalier du François,,,Martinique,,,+596 596 30 10 99,,,,,14.6255095,-60.9043751
718,20718,Centre hospitalier du Grand Large,,Saint-Valery-en-Caux,Normandie,76460,,,,,,,49.8675003,0.7080434
719,20719,Centre hospitalier du Pays d'Aix,Avenue des Tamarys nan,Aix-en-Provence,Bouches-du-rhône,13100,,+33 4 42 33 50 00,,,Yes,,43.5349583,5.4417897
720,20720,Centre hospitalier du Pays d'Apt,,,Bouches-du-rhône,,,+33 4 90 04 33 00,,,Yes,,43.875441,5.3840108
721,20721,Centre hospitalier du Rouvray,Rue Paul Eluard 4,,Normandie,,,+33 2 32 95 12 34,,,,,49.4002661,1.0995619
722,20722,Centre hospitalier du Sud-Charente,,Barbezieux-Saint-Hilaire,Charente,16300,,+33 5 45 78 78 00,,,Yes,,45.4742261,-0.1408333
723,20723,Centre hospitalier du Tonnerrois,,Tonnerre,Yonne,89700,,+33 3 86 54 33 00,,,Yes,,47.8575734,3.9782188
724,20724,Centre hospitalier d’Auxerre,,Auxerre,Yonne,89000,,+33 3 86 48 48 48,,,Yes,,47.8063897,3.5572565
725,20725,Centre hospitalier en Pays d'Olmes,,Lavelanet,Occitanie,09300,,+33 5 61 65 78 78,,,Yes,,42.9282234,1.8602077
726,20726,Centre hospitalier intercommunal André Grégoire,,Romainville,Seine-saint-denis,93230,,+33 1 49 20 30 40,,,Yes,,48.8784526,2.4517257
727,20727,Centre hospitalier intercommunal Caux-Vallée de Seine,,Lillebonne,Normandie,76170,,+33 2 35 39 36 36,,,Yes,,49.5190136,0.5418606
728,20728,Centre hospitalier intercommunal Fréjus Saint-Raphaël,,Fréjus,Var,83600,,+33 4 94 40 21 21,,,Yes,,43.4379084,6.7548481
729,20729,Centre hospitalier intercommunal Lys Hyrôme,,Lys-Haut-Layon,Maine-et-loire,49310,,+33 2 41 75 80 36,,,,,47.1453289,-0.5405469
730,20730,Centre hospitalier intercommunal Redon-Carentoir,Avenue Étienne Gascon 8,Redon,Bretagne,35600,,+33 2 99 71 71 71,,,Yes,,47.6530269,-2.0807345
731,20731,Centre hospitalier intercommunal Robert Ballanger,,Villepinte,Seine-saint-denis,93420,,+33 1 49 36 71 23,,,Yes,,48.9557125,2.518623
732,20732,Centre hospitalier intercommunal de Cavaillon-Lauris,,,Seine-saint-denis,,,+33 4 90 78 85 00,,,Yes,,43.8413849,5.0373259
733,20733,Centre hospitalier intercommunal de Cornouaille,Avenue Yves Thépot 14,Quimper,Bretagne,29000,,+33 2 98 52 60 60,,,Yes,,47.9875037,-4.0975146
734,20734,Centre hospitalier intercommunal de Créteil,,Créteil,Val-de-marne,94000,,+33 1 45 17 50 00,,,Yes,,48.7961978,2.4637099
735,20735,Centre hospitalier intercommunal de Poissy,,Poissy,Yvelines,78300,,+33 1 39 27 40 50,,,Yes,,48.9205947,2.0213849
736,20736,Centre hospitalier intercommunal de Saint-Germain-en-Laye,Rue Armagis 20,Saint-Germain-en-Laye,Yvelines,78100,,+33 1 39 27 40 50,,,Yes,,48.8979273,2.0827192
737,20737,Centre hospitalier intercommunal de la Lauter,,,Grand Est,,,+33 3 88 54 11 11,,,Yes,,49.040552,7.9301052
738,20738,Centre hospitalier intercommunal du Pays de Cognac,,Châteaubernard,Charente,16100,,+33 5 45 80 15 15,,,Yes,,45.6838914,-0.2991059
739,20739,Centre hospitalier privé du Montgardé,,Aubergenville,Yvelines,78410,,+33 1 30 95 52 00,,,Yes,,48.9561824,1.8464289
740,20740,Centre hospitalier régional universitaire Jean Minjoz,,Besançon,Doubs,25000,,+33 3 81 66 81 66,,,Yes,,47.2276931,5.9631062
741,20741,Centre hospitalier spécialisé,,Auch,Occitanie,32000,,,,,,,43.6432898,0.593787
742,20742,Centre hospitalier spécialisé d'Yzeure,,Yzeure,Allier,03400,,+33 4 70 20 33 33,,,No,,46.5784048,3.3439656
743,20743,Centre hospitalier spécialisé de Bassens,,Bassens,Savoie,73000,,,,,,,45.5757202,5.9360086
744,20744,Centre hospitalier spécialisé de Fains-Véel,Rue de Bar 36,Fains-Véel,Grand Est,55000,,+33 3 29 76 86 86,,,,,48.7898899,5.1270368
745,20745,Centre hospitalier spécialisé de Sarreguemines,,Sarreguemines,Grand Est,57200,,+33 3 87 27 98 00,,,No,,49.0992739,7.082683
746,20746,Centre hospitalier universitaire Amiens Picardie,,Pont-de-Metz,Somme,80480,,,,,,,49.873647,2.254567
747,20747,Centre hospitalier universitaire de Limoges,Avenue Martin Luther King 2,Limoges,Haute-vienne,87000,,+33 5 55 05 55 55,,,Yes,,45.8142021,1.2323441
748,20748,Centre hospitalier universitaire de Nice,,Nice,Alpes-maritimes,06000,,+33 4 92 03 77 77,,,Yes,,43.7249415,7.2800804
749,20749,Centre hospitalier Émile Durkheim,,Golbey,Grand Est,88190,,+33 3 29 68 15 15,,,No,,48.195313,6.4326708
750,20750,Centre hospitalier Émile Roux,,Espaly-Saint-Marcel,Haute-loire,43000,,+33 4 71 04 32 10,,,Yes,,45.050816,3.8757935
751,20751,Centre hostipalier Psychiatrique Sainte-Marie,,Clermont-Ferrand,Puy-de-dôme,63000,,,,,,,45.778892,3.0753145
752,20752,Centre hostpitalier Saint-Egrève,,Grenoble,Isère,38000,,,,,,,45.1866419,5.7202194
753,20753,Centre infantile Raymond Lerch,,Le Havre,Normandie,76600,,,,,,,49.503707,0.1260293
754,20754,Centre local hospitalier Saint-Joseph,Les Rivières nan,Combourg,Bretagne,35270,,+33 2 99 73 05 34,,,No,,48.409685,-1.724287
755,20755,Centre medical spectateurs,Rue de Laigné 445,Le Mans,Sarthe,72100,,,,,,,47.9541361,0.2116133
756,20756,Centre municipal de santé,Rue du Général Leclerc 18,Corbeil-Essonnes,Essonne,91100,,+33 1 60 89 74 33,,,,,48.6125945,2.4748593
757,20757,Centre municipal de santé Pierre Rouquès,,Vitry-sur-Seine,Val-de-marne,94400,,,,,No,,48.7936607,2.3926652
758,20758,Centre médical,,,Bretagne,,,,,,,,47.518165,-2.580971
759,20759,Centre médical Claude Bernard,,Élancourt,Yvelines,78990,,,,,No,,48.763547,1.955771
760,20760,Centre médical de l'Argentière,Route du Pont Grizon 980,Aveize,Rhône,69610,,,,,,,45.6887832,4.4544746
761,20761,Centre médical du Hantz,,Saulxures,Grand Est,67420,,,,,,,48.3986698,7.1267091
762,20762,Centre médical et pédagogique de Rennes Beaulieu,,Rennes,Bretagne,35700,,+33 2 99 25 19 19,,,,,48.1226769,-1.6385265
763,20763,Centre médical pédagogique,,Varennes-Jarcy,Essonne,91480,,,,,,,48.67727,2.560025
764,20764,Centre médico psychologique Lucien Clarac,,,Occitanie,,,,,,,,42.9829527,1.1443955
765,20765,Centre médico-chirurgical Floréal,Rue Floréal 40,Bagnolet,Seine-saint-denis,93170,,+33 1 48 97 72 00,,,Yes,,48.8781898,2.4311202
766,20766,Centre médico-psycho-pédagogique du Glandier,,Beyssac,Corrèze,19230,,,,,No,,45.3660459,1.4484049
767,20767,Centre médico-psychologique - Hôpital de jour,Rue du Stade 1,Segré-en-Anjou Bleu,Maine-et-loire,49500,,+33 2 41 80 76 21,,,,,47.673279,-0.887644
768,20768,Centre médico-psychologique - Unité pour soins intensifs psychiatriques - Hôpital de jour Maxéville,,Maxéville,Grand Est,54320,,,,,,,48.7129241,6.1611297
769,20769,Centre médico-psychologique La Pommeraie,,Plaisir,Yvelines,78370,,+33 1 30 55 34 59,,,,,48.8249018,1.9490437
770,20770,Centre médico-social,Rue Saint-Claude 36,Livry-Gargan,Seine-saint-denis,93190,,,,,,,48.9207317,2.5451753
771,20771,Centre of Radiology Olivier Leguay,,,Guadeloupe,,,,,,,,16.2518668,-61.5903062
772,20772,Centre post-cure de la Métairie,,Paris,Paris,75020,,,,,,,48.8735963,2.3860482
773,20773,Centre psychothérapique Camille Claudel,,Béziers,Occitanie,34500,,,,,,,43.3447285,3.2404278
774,20774,Centre spécialisé du Haut-Languedoc,,,Occitanie,,,+33 4 67 97 43 00,,,,,43.487475,2.7657467
775,20775,Centre thérapeutique de jour,,Colmar,Grand Est,68000,,,,,,,48.0755782,7.329875
776,20776,Château Le Moine,,Cenon,Gironde,33150,,,,,,,44.84767,-0.529939
777,20777,Château de la Vernede - Centre de soin de suite et de réadaptation,,Conques-sur-Orbiel,Occitanie,11600,,,,,,,43.2644934,2.4048836
778,20778,Clinique,,Brétigny-sur-Orge,Essonne,91220,,,,,,,48.615198,2.303532
779,20779,"Clinique ""Château Caradoc""",,Bayonne,Pyrénées-atlantiques,64100,,,,,No,,43.5016554,-1.4602016
780,20780,Clinique Aguiléra,Rue de l'Estagnas 2,Biarritz,Pyrénées-atlantiques,64200,,+33 8 25 13 50 64,,,Yes,,43.4850145,-1.5401687
781,20781,Clinique Alleray Labrouste,,Paris,Paris,75015,,,,,,,48.8325587,2.306735
782,20782,Clinique Ambroise Paré,Rue Marie Marvingt 2,Nancy,Grand Est,54100,,+33 8 26 66 66 56,,,,,48.7019591,6.1405957
783,20783,Clinique Ambroise Paré,,Thionville,Grand Est,57100,,,,,No,,49.3603642,6.1541274
784,20784,Clinique Ambroise Paré,nan 4,Lille,Nord,59800,,+33826204700,,,,,50.6491385,3.0857646
785,20785,Clinique Ambroise Paré,Route de Saint-Simon 387,Toulouse,Occitanie,31100,,+33 8 26 30 19 19,,,Yes,,43.5901482,1.4137634
786,20786,Clinique Anne d'Artois,Rue Émile Basly 100,Béthune,Pas-de-calais,62400,,+33 826 200 110,,,Yes,,50.5400381,2.631676
787,20787,Clinique Arago,Rue Raymond Losserand 187,Paris,Paris,75014,,+33 1 44 08 04 00,,,No,,48.8290952,2.3106578
788,20788,Clinique Atlantis,,Nice,Alpes-maritimes,06000,,,,,,,43.70262,7.2528695
789,20789,Clinique Beau Soleil,Avenue de Lodève 119,Montpellier,Occitanie,34070,,+33 4 67 75 99 99,,,Yes,,43.6103812,3.849778
790,20790,Clinique Belharra,,Bayonne,Pyrénées-atlantiques,64100,,+33 8 26 96 64 64,,,Yes,,43.4781522,-1.4528963
791,20791,Clinique Belledonne,,Saint-Martin-d'Hères,Isère,38400,,+33 4 38 38 02 02,,,,,45.1866592,5.7611337
792,20792,Clinique Bethanie,,Talence,Gironde,33400,,+33 5 56 84 81 00,,,,,44.8058405,-0.5985653
793,20793,Clinique Blomet,,Paris,Paris,75015,,,,,,,48.839487,2.295048
794,20794,Clinique Bon secours,Avenue du Maréchal Foch 67,Le Puy-en-Velay,Haute-loire,43000,,,,,,,45.033362,3.8883269
795,20795,Clinique Bonnefon,Avenue Carnot 45,Alès,Occitanie,30100,,+33 8 26 20 73 30,,,Yes,,44.121468,4.0879053
796,20796,Clinique Bouchard,Rue du Docteur Escat 77,Marseille,Bouches-du-rhône,13006,,,,,,,43.2824317,5.3806445
797,20797,Clinique Bretéché,,Nantes,Loire-atlantique,44000,,+33 8 90 71 07 11,,,,,47.2257105,-1.5460906
798,20798,Clinique Bénigne Joly,,Talant,Côte-d'or,21240,,,,,,,47.3345624,5.0092809
799,20799,Clinique Capio La Croix du Sud,Chemin de Ribaute 52,Quint-Fonsegrives,Occitanie,31130,,+33 8 06 23 32 33,,,Yes,,43.5836399,1.5080489
800,20800,Clinique Cave,Boulevard Montauriol nan,Montauban,Occitanie,82000,,,,,,,44.0115924,1.3626683
801,20801,Clinique Champ Fleuri,,Décines-Charpieu,Rhône,69150,,,,,,,45.7698701,4.9580218
802,20802,Clinique Champeau Méditérannée,Avenue Enseigne Albertini nan,Béziers,Occitanie,34500,,+33 4 67 09 19 20,,,,,43.346024,3.226909
803,20803,Clinique Chantecler,Avenue des Poilus 240,Marseille,Bouches-du-rhône,13012,,,,,,,43.3177852,5.4598915
804,20804,Clinique Charcot,Rue du Commandant Charcot nan,Lyon,Rhône,69005,,+33472326868,,,,,45.749779,4.796317
805,20805,Clinique Chirurgicale Victor Hugo,,Paris,Paris,75116,,,,,,,48.8713364,2.2914783
806,20806,Clinique Château d'Aufrery,,Pin-Balma,Occitanie,31130,,,,,,,43.6115953,1.526016
807,20807,Clinique Claude Bernard,Avenue Louis Armand 9,Ermont,Val-d'oise,95120,,+33 1 30 72 34 34,,,Yes,,48.9807205,2.2630427
808,20808,Clinique Claude Bernard,,Metz,Grand Est,57070,,+33 8 26 30 66 66,,,Yes,,49.1141956,6.2117602
809,20809,Clinique Claude Bernard,,Albi,Occitanie,81000,,+33 5 63 77 77 63,,,Yes,,43.9306544,2.1633243
810,20810,Clinique Clément Drevon,,Dijon,Côte-d'or,21000,,,,,,,47.3127364,5.0435698
811,20811,Clinique Convert,,Bourg-en-Bresse,Ain,01000,,+33 4 74 45 64 45,,,Yes,,46.210928,5.252698
812,20812,Clinique Croix Saint-Michel du docteur Boyé,Avenue Charles De Gaulle 40,Montauban,Occitanie,82000,,,,,,,44.0101829,1.3669081
813,20813,Clinique De Saint-Joseph,,,Réunion,,,,,,,,-21.3775767,55.6115007
814,20814,Clinique Diététique,,Villecresnes,Val-de-marne,94440,,,,,,,48.721931,2.531646
815,20815,Clinique Edouard Rist,,Paris,Paris,75116,,,,,,,48.8460148,2.2647938
816,20816,Clinique Esquirol Saint-Hilaire,,Agen,Lot-et-garonne,47000,,+33 5 53 47 47 47,,,Yes,,44.1854228,0.6279259
817,20817,Clinique Eugénie - Ramsay Générale de Santé,,Pierrefonds,Oise,60350,,,,,,,49.3480812,2.9859713
818,20818,Clinique François Chénieux,,Limoges,Haute-vienne,87000,,+33 8 25 56 45 00,,,Yes,,45.8138888,1.284284
819,20819,Clinique Gallieni,,Le Blanc-Mesnil,Seine-saint-denis,93150,,,,,,,48.9278856,2.4649831
820,20820,Clinique Gaston Métivet,Rue d'Alsace-Lorraine 48,Saint-Maur-des-Fossés,Val-de-marne,94100,,,,,No,,48.8048761,2.4786805
821,20821,Clinique Guillaume de Varye,,Saint-Doulchard,Cher,18230,,,,,,,47.1079657,2.3549905
822,20822,Clinique Générale,Chemin de la Tour la Reine 4,Annecy,Haute-savoie,74000,,+33 8 26 88 88 88,,,Yes,,45.8960217,6.1259622
823,20823,Clinique Générale de Marignane,Avenue Général Raoul Salan nan,Marignane,Bouches-du-rhône,13700,,+33 4 42 78 45 00,,,Yes,,43.4095262,5.2141965
824,20824,Clinique Jean Causse,,Colombiers,Occitanie,34440,,+33 4 67 35 63 21,,,,,43.3131218,3.1450242
825,20825,Clinique Jean Paoli,Rue Pierre Renaudel 19,Arles,Bouches-du-rhône,13200,,+33 4 90 99 34 00,,,,,43.6719745,4.6352937
826,20826,Clinique Jeanne d'Arc,,Arles,Bouches-du-rhône,13200,,+33 4 90 99 32 32,,,,,43.6770225,4.6401745
827,20827,Clinique Jeanne d'Arc,,,Indre-et-loire,,,+33 2 47 93 70 00,,,,,47.1887473,0.2917654
828,20828,Clinique Jouvenet,,Paris,Paris,75116,,,,,,,48.8423264,2.2660875
829,20829,Clinique Juge,,Marseille,Bouches-du-rhône,13008,,+33 8 26 20 78 78,,,,,43.2739368,5.3871518
830,20830,Clinique Jules Verne,"Route de Paris 2,4",Nantes,Loire-atlantique,44000,,,,,,,47.248529,-1.5195003
831,20831,Clinique Kennedy,,Nîmes,Occitanie,30000,,,,,,,43.8317784,4.3468882
832,20832,Clinique Kennedy,,Montélimar,Drôme,26200,,+33 4 75 00 35 00,,,,,44.5575159,4.7316365
833,20833,Clinique Ker Yonnec,,Champigny,Yonne,89340,,,,,,,48.3076889,3.123231
834,20834,Clinique Kuindo-Magnin,,,Yonne,,,,,,,,-22.2680196,166.4091262
835,20835,Clinique L'Angélus,,Marseille,Bouches-du-rhône,13007,,+33 4 96 11 47 47,,,,,43.2844965,5.3673669
836,20836,Clinique L'Espérance,,,Guadeloupe,,,,,,,,16.2668275,-61.5101983
837,20837,Clinique La Carmargue,,Bouillargues,Occitanie,30230,,,,,,,43.8101105,4.4071591
838,20838,Clinique La Ligne Bleue,,,Grand Est,,,+33 3 29 68 60 60,,,No,,48.1996261,6.4627315
839,20839,Clinique La Majolane,,Meyzieu,Rhône,69330,,,,,No,,45.7699592,4.99972
840,20840,Clinique La Mare,,Les Damps,Normandie,27340,,,,,,,49.2980489,1.1747068
841,20841,Clinique La Montagne,,Courbevoie,Hauts-de-seine,92400,,,,,,,48.8961009,2.258639
842,20842,Clinique La Parisière,Avenue Antonin Vallon nan,Bourg-de-Péage,Drôme,26300,,+33 4 75 70 30 00,,,,,45.0395419,5.0602549
843,20843,Clinique La Provençale,,Marseille,Bouches-du-rhône,13011,,,,,,,43.3002124,5.5029193
844,20844,Clinique Lambert,,La Garenne-Colombes,Hauts-de-seine,92250,,,,,,,48.9080578,2.2421462
845,20845,Clinique Lautréamont,nan 1,Lille,Nord,59000,,+33826109990,,,No,,50.6183041,3.0233978
846,20846,Clinique Lavalette,,Montpellier,Occitanie,34090,,,,,,,43.638641,3.8703468
847,20847,Clinique Le Castelet,Avenue Georges Clemenceau 18,Saint-Jean-de-Védas,Occitanie,34430,,,,,,,43.5791927,3.8263001
848,20848,Clinique Le Marquisat,,Saint-Jean,Occitanie,31240,,+33 5 61 37 81 81,,,,,43.6528042,1.5122905
849,20849,Clinique Le Sermay,Avenue des Massettes nan,Challes-les-Eaux,Savoie,73190,,+33 4 79 26 91 00,,,,,45.5438954,5.9704943
850,20850,Clinique Les Bruyères,Chemin de la Source 40,Grasse,Alpes-maritimes,06130,,,,,,,43.6281394,6.9211244
851,20851,Clinique Les Fontaines,,Melun,Seine-et-marne,77000,,+33 1 60 56 40 00,,,Yes,,48.5437401,2.651771
852,20852,Clinique Les Jeunes Chênes,,Pau,Pyrénées-atlantiques,64000,,+33 5 59 02 19 20,,,,,43.3284147,-0.3529814
853,20853,Clinique Les Martinets,,Rueil-Malmaison,Hauts-de-seine,92500,,,,,,,48.8847934,2.1711896
854,20854,Clinique Les Sophoras,Rue des Sophoras nan,Nîmes,Occitanie,30000,,+33 4 66 62 79 00,,,No,,43.8548232,4.3828046
855,20855,Clinique Lyon Champvert,,Lyon,Rhône,69005,,,,,,,45.758755,4.8023946
856,20856,Clinique Madeleine Rémuzat,,Marseille,Bouches-du-rhône,13001,,,,,,,43.292284,5.419917
857,20857,Clinique Malartic,Chemin de Faveyrolles 203,Ollioules,Var,83190,,+33 4 94 89 89 89,,,Yes,,43.1301902,5.8747789
858,20858,Clinique Marcel Sembat,,Boulogne-Billancourt,Hauts-de-seine,92100,,+33 1 47 11 99 99,,,,,48.8350527,2.2446235
859,20859,Clinique Mathilde,Boulevard de l'Europe 7,Rouen,Normandie,76100,,+33 2 32 81 10 10,,,No,,49.4284307,1.0948604
860,20860,Clinique Maussins-Nollet,,Paris,Paris,75019,,+33 1 42 03 47 37,,,,,48.8773381,2.4046789
861,20861,Clinique Mon Repos,,Écully,Rhône,69130,,,,,,,45.7713655,4.7838372
862,20862,Clinique Montevideo,,Boulogne-Billancourt,Hauts-de-seine,92100,,+33 1 41 22 98 88,,,,,48.8410484,2.2507302
863,20863,Clinique Monticelli-Vélodrome,,Marseille,Bouches-du-rhône,13008,,,,,,,43.2683628,5.3953142
864,20864,Clinique Mutualiste Bonneveine,,Marseille,Bouches-du-rhône,13008,,+33 4 96 14 14 14,,,,,43.2489788,5.3832557
865,20865,Clinique Mutualiste Catalane,,Perpignan,Occitanie,66000,,,,,,,42.7285556,2.8761902
866,20866,Clinique Mutualiste Chirurgicale,,Saint-Étienne,Loire,42000,,+33 4 77 12 12 12,,,Yes,,45.4145085,4.3936153
867,20867,Clinique Mutualiste de la Porte de Lorient,,Lorient,Bretagne,56100,,,,,,,47.751777,-3.3844953
868,20868,Clinique Médicale Les Jardins de Brunoy,nan 38,Brunoy,Essonne,91800,,,,,No,,48.7023213,2.510979
869,20869,Clinique Médicale et Pédagogique Jean Sarrailh,Rue de Prat 2,Aire-sur-l'Adour,Landes,40800,,,,,,,43.7010067,-0.2660697
870,20870,Clinique Mégival,,Saint-Aubin-sur-Scie,Normandie,76550,,,,,,,49.8953141,1.0779656
871,20871,Clinique Notre-Dame,,Vire Normandie,Normandie,14500,,+33 2 31 66 64 00,,,,,48.8411869,-0.8977904
872,20872,Clinique Notre-Dame,,Thionville,Grand Est,57100,,,,,No,,49.3566099,6.1554727
873,20873,Clinique Notre-Dame,,Draguignan,Var,83300,,,,,,,43.5316288,6.4529928
874,20874,Clinique Notre-Dame d'Espérance,,Perpignan,Occitanie,66000,,,,,No,,42.68264,2.9100847
875,20875,Clinique Notre-Dame de Bon Voyage,,La Ciotat,Bouches-du-rhône,13600,,,,,,,43.1802477,5.6120822
876,20876,Clinique Océane,,Vannes,Bretagne,56000,,,,,No,,47.680768,-2.7743134
877,20877,Clinique Ophtalmologique Thiers,Avenue Thiers 330,Bordeaux,Gironde,33100,,+33 8 26 30 13 30,,,,,44.8511194,-0.5425349
878,20878,Clinique Ormeau Pyrénées,,Tarbes,Occitanie,65000,,,,,No,,43.2188384,0.0777824
879,20879,Clinique Pasteur,,Toulouse,Occitanie,31300,,,,,,,43.5953487,1.4177508
880,20880,Clinique Pasteur,,Essey-lès-Nancy,Grand Est,54270,,+33 3 83 18 83 83,,,,,48.701587,6.218162
881,20881,Clinique Pasteur,Rue Malbec nan,Bergerac,Dordogne,24100,,,,,,,44.8521781,0.4904871
882,20882,Clinique Pasteur,,Royan,Charente-maritime,17200,,+33 5 46 22 22 22,,,Yes,,45.6538858,-1.0252443
883,20883,Clinique Pasteur,Boulevard Pasteur 58,Évreux,Normandie,27000,,+33 2 32 38 95 00,,,Yes,,49.0279803,1.160597
