,id,name,address,city,state,zip,county,phone,type,ownership,emergency,quality,LAT,LON
0,10000,118 Bologna Soccorso,,Marzabotto,,40043,,,,,,,44.3437299,11.2690951
1,10001,A.S.L.,,Colle di Val d'Elsa,Toscana,53034,,,,,,,43.4106947,11.135165
2,10002,A.S.L. CN1 - Avis,Piazza Andrea Willy Burgo 1,Verzuolo,Piemonte,12039,,,,,,,44.60195,7.4813442
3,10003,A.S.L. NA1,,Napoli,Campania,80127,,,,,,,40.8478584,14.227409
4,10004,A.S.L. Roma C,,Roma,Lazio,00181,,,,,,,41.8776857,12.5298555
5,10005,ANFASS Savona,,Savona,Liguria,17100,,,,,,,44.3149142,8.4856439
6,10006,AOVV,,Chiavenna,Lombardia,23022,,,,,Yes,,46.3226233,9.4001921
7,10007,APSS Banca del Sangue,,Trento,Trentino-alto Adige,38122,,,,,No,,46.0617251,11.1269017
8,10008,APSS Villa Igea,,Trento,Trentino-alto Adige,38122,,,,,,,46.061813,11.1275484
9,10009,ASL,,Scalea,Calabria,87029,,,,,No,,39.8241042,15.7809218
10,10010,ASL,,Scandicci,Toscana,50018,,,,,,,43.7644253,11.1830936
11,10011,ASL,,Rende,Calabria,87036,,,,,,,39.3588839,16.2417442
12,10012,ASL,,Poggio Mirteto,Lazio,02047,,,,,,,42.2705904,12.6870417
13,10013,ASL,,Montesarchio,Campania,82016,,,,,,,41.0562056,14.6245331
14,10014,ASL,,Petilia Policastro,Calabria,88837,,,,,No,,39.1147507,16.7831501
15,10015,ASL - Corteolona,Via dei Longobardi 4,Corteolona e Genzone,Lombardia,27014,,,,,,,45.1546725,9.3721834
16,10016,ASL 15 Alta Padovana - Distaccamento Carmignano di Brenta,,Carmignano di Brenta,Veneto,35010,,,,,,,45.6266725,11.7020772
17,10017,ASL 5 Unità Cure Primarie,,Terricciola,Toscana,56030,,,,,,,43.5405701,10.7016994
18,10018,"ASL Avellino, Presidio Ospedaliero Sant'Ottone Frangipane",,Ariano Irpino,Campania,83031,,,,,,,41.1495151,15.0831758
19,10019,ASL BI - Presidio sanitario (ex Ospedaletto),,Valdilana,Piemonte,13835,,,,,,,45.6726811,8.1591287
20,10020,ASL Bari,,Bari,Puglia,70122,,,,,No,,41.1365938,16.8418377
21,10021,ASL Casaccia,Via Anguillarese nan,Roma,Lazio,00185,,,,,,,42.0444536,12.3022279
22,10022,ASL Caserta Palazzo della salute,,,Campania,,,,,,No,,41.0555128,14.3419016
23,10023,ASL Cepagatti DSB,Via Piano Ripa nan,Cepagatti,,65012,,,,,,,42.3586956,14.0674803
24,10024,ASL Cirò Marina,Via Palmiro Togliatti nan,Cirò Marina,Calabria,88811,,,,,,,39.3660542,17.1250336
25,10025,ASL Dipartimento di prevenzione,,Teramo,,64100,,,,,No,,42.6735871,13.7278175
26,10026,ASL Mandello del Lario,,Mandello del Lario,Lombardia,23826,,,,,,,45.9182254,9.3225104
27,10027,ASL NA 1 - Poliambulatorio,,Napoli,Campania,80125,,,,,No,,40.820024,14.1912676
28,10028,ASL NA 2 NORD - Distretto 46 Acerra,,Acerra,Campania,80011,,,,,,,40.9467693,14.3787784
29,10029,ASL NA1 - Poliambulatorio,,Napoli,Campania,80125,,,,,No,,40.831155,14.198108
30,10030,ASL NA1 - Poliambulatorio,,Napoli,Campania,80132,,,,,No,,40.8305118,14.2466195
31,10031,ASL NA1 - Poliambulatorio,,Napoli,Campania,80126,,,,,No,,40.8418316,14.2016262
32,10032,ASL NA1 Poliambulatorio,,Napoli,Campania,80141,,,,,No,,40.8586844,14.2722031
33,10033,ASL RM5 Sede di Palestrina,,Palestrina,Lazio,00036,,+39 06 95322211,,,No,,41.8392209,12.8881213
34,10034,ASL TO5,,Santena,Piemonte,10026,,,,,No,,44.9513694,7.7699919
35,10035,ASP,,Crotone,Calabria,88900,,,,,No,,39.0576588,17.1141431
36,10036,ASP 5 Reggio Calabria - Ex ASL 10 Palmi,,Palmi,Calabria,89015,,,,,,,38.3778989,15.8696914
37,10037,ASS4 - Centro territoriale di Tricesimo,,Tricesimo,Friuli-venezia Giulia,33019,,,,,No,,46.1582849,13.2245783
38,10038,ASST Bergamo Ovest,Viale Natale Betelli 2,Dalmine,Lombardia,24044,,,,,,,45.64828,9.6019667
39,10039,Administration and mortuary,,,Sardegna,,,,,,,,40.3006894,8.4956226
40,10040,Ambulatori,,Lavis,Trentino-alto Adige,38015,,,,,,,46.1418978,11.1069814
41,10041,Ambulatori,,Artegna,Friuli-venezia Giulia,33011,,,,,,,46.242117,13.1564266
42,10042,Ambulatorio,,San Quirico d'Orcia,Toscana,53027,,,,,,,43.0584616,11.603566
43,10043,Ambulatorio ASL 9 Siena,,Santa Fiora,Toscana,58037,,,,,,,42.8336795,11.5889376
44,10044,Ambulatorio Medico,,Frascineto,Calabria,87010,,,,,No,,39.8287965,16.3137863
45,10045,Ambulatorio Policlinico Casilino - Edificio D,Via Casilina 1040,Roma,Lazio,00185,,,,,,,41.8674904,12.5882558
46,10046,Amedeo di Savoia,,Torino,Piemonte,10123,,,,,,,45.0887575,7.6596936
47,10047,Andrea Tortora,,Pagani,Campania,84016,,,,,,,40.7472555,14.621024
48,10048,Anthea,,Bari,Puglia,70122,,,,,,,41.1038554,16.8564099
49,10049,Arcispedale Sant'Anna,,Ferrara,,44121,,,,,Yes,,44.8014753,11.7000088
50,10050,Area Malpighi,,Bologna,,40138,,,,,,,44.4892451,11.3663723
51,10051,Area Malpighi,,Bologna,,40138,,,,,,,44.489767,11.3649961
52,10052,Area ed edifici Ex Ospedale Psichiatrico,Via Pratozanino nan,Cogoleto,Liguria,16016,,,,,No,,44.394418,8.6235732
53,10053,Arnaldo Angelucci,,Subiaco,Lazio,00028,,,,,,,41.9322255,13.0862424
54,10054,Asl,Corso Lodi 94,Milano,Lombardia,20139,,,,,,,45.4425983,9.2185176
55,10055,Asl,,Carignano,Piemonte,10041,,,,,,,44.9054467,7.6758523
56,10056,Asl 5 Presidio Distrettuale Vecchiano,,Vecchiano,Toscana,56019,,,,,No,,43.7848792,10.3851504
57,10057,Associazione Pubblica Assistenza Castello di Serravalle Onlus,Via venticinque Aprile 75,Valsamoggia,,40050,,0516704815,,,Yes,,44.4408795,11.0648908
58,10058,Ausl Cerversi,,Cattolica,,47841,,,,,,,43.9522419,12.7355588
59,10059,Avis,,Bergamo,Lombardia,24121,,,,,No,,45.7183006,9.684695
60,10060,Avis comunale di Casalmaggiore - Associazione volontari italiani sangue,Via Guerrazzi nan,Casalmaggiore,Lombardia,26041,,,,,,,44.9944056,10.4122618
61,10061,Avis sezione di Platania,,Platania,Calabria,88040,,,,,,,39.0068851,16.3214929
62,10062,Azienda Ospedale Piemonte,,,Sicilia,,,,,,,,38.1816969,15.5454678
63,10063,Azienda Ospedaliera Cardinale Giovanni Panico,Via Pio X 4,Tricase,Puglia,73039,,,,,,,39.936623,18.3576239
64,10064,Azienda Ospedaliera Gravina e Santo Pietro,,,Sicilia,,,,,,,,37.1061523,14.4904143
65,10065,Azienda Ospedaliera Mellino Mellini,Via delle Battaglie nan,Chiari,Lombardia,25032,,,,,Yes,,45.5389887,9.9336571
66,10066,Azienda Ospedaliera Ospedale di Circolo di Busto Arsizio,,Busto Arsizio,Lombardia,21052,,,,,Yes,,45.624518,8.8447564
67,10067,Azienda Ospedaliera Papardo,,,Sicilia,,,,,,Yes,,38.2653678,15.5955523
68,10068,Azienda Ospedaliera San Giovanni Addolorata,Via di Santo Stefano Rotondo 5,Roma,Lazio,00184,,06 7705 4503,,,,,41.8851918,12.4980921
69,10069,Azienda Ospedaliera Sant'Antonio Abate - Gallarate,Via Eusebio Pastori 4,Gallarate,Lombardia,21013,,+39 0331 751111,,,Yes,,45.6576103,8.7916406
70,10070,Azienda Ospedaliera Universitaria - sassari,,,Sardegna,,,,,,,,40.7208265,8.5553419
71,10071,Azienda Ospedaliera Universitaria Federico II,,Napoli,Campania,80133,,,,,,,40.8677902,14.2225716
72,10072,"Azienda Ospedaliera Universitaria Policlinico ""Paolo Giaccone""",,,Sicilia,,,,,,,,38.1049977,13.3626637
73,10073,Azienda Ospedaliera Universitaria di Careggi,,Firenze,Toscana,50127,,,,,Yes,,43.8121396,11.2483455
74,10074,Azienda Ospedaliera Zappatoni,Via Quintiliano Di Vona nan,Cassano d'Adda,Lombardia,20062,,,,,No,,45.5233874,9.5158962
75,10075,Azienda Ospedaliera di Caserta Sant'Anna e San Sebastiano,,Caserta,Campania,81100,,,,,Yes,,41.0861206,14.3313619
76,10076,Azienda Ospedaliera di Padova,Via Nicolò Giustiniani 2,Padova,Veneto,35128,,,,,Yes,,45.4019136,11.8890089
77,10077,Azienda Ospedialiera San Carlo,,Pescopagano,Basilicata,85020,,,,,,,40.8348974,15.3945379
78,10078,Azienda Sanitaria Locale,,Montecorvino Rovella,Campania,84096,,,,,,,40.6678912,15.1014221
79,10079,Azienda Sanitaria Locale Gavardo,,Gavardo,Lombardia,25085,,,,,,,45.5822151,10.4374088
80,10080,Azienda Sanitaria Provinciale Caltanissetta,,,Sicilia,,,,,,,,37.4920024,14.0438534
81,10081,Azienda Sanitaria Provinciale Caltanissetta,,,Sicilia,,,,,,,,37.4832816,14.0604564
82,10082,Azienda Sanitaria Provinciale Catanzaro Polo Sanitario,,Chiaravalle Centrale,Calabria,88064,,,,,Yes,,38.6815743,16.4205712
83,10083,Azienda Sanitaria Provinciale di Palermo,,,Sicilia,,,,,,,,37.7046563,13.2567593
84,10084,Azienda USL - Casa della Salute,,Medesano,,43014,,,,,,,44.7592424,10.1366605
85,10085,Azienda USL Toscana Nord Ovest - Distretto Collesalvetti,,Collesalvetti,Toscana,57014,,,,,,,43.5883926,10.4776807
86,10086,"Azienda Universitario-Ospedaliera ""Maggiore della Carità""",,Novara,Piemonte,28100,,,,,Yes,,45.4416489,8.6201327
87,10087,Azienda ospedaliera Arcispedale Santa Maria Nuova,Viale Risorgimento 80,Reggio nell'Emilia,,42121,,,,,Yes,,44.6871708,10.6317061
88,10088,Azienda ospedaliera Sant'Elia,,,Sicilia,,,,,,Yes,,37.4914865,14.0303938
89,10089,Azienda ospedaliere Cannizzaro,,,Sicilia,,,,,,Yes,,37.5448561,15.1133436
90,10090,Bagno WC,,Padula,Campania,84034,,,,,,,40.3375999,15.674985
91,10091,Bassa Val di Cecina,,Cecina,Toscana,57023,,,,,,,43.3150551,10.5293701
92,10092,Bezirkskrankenhaus Schlanders - Ospedale di distretto Silandro,Krankenhausstraße 3,Silandro,Trentino-alto Adige,39028,,,,,Yes,,46.6286962,10.7776997
93,10093,C.N.S.A.S. Serv.Reg.Emilia Romagna,,Castelnovo Ne' Monti,,42035,,,,,,,44.4523884,10.4671764
94,10094,CAsa di cura Villa Fiorita,Via Venti Settembre 55,Perugia,Umbria,06123,,+39 075 575981,,,No,,43.1036509,12.3825426
95,10095,COF Lanzo,,Alta Valle Intelvi,Lombardia,22024,,,,,,,45.9935262,9.0398079
96,10096,COT,,,Sicilia,,,,,,,,38.1898283,15.5439559
97,10097,CRI Cesenatico,,Cesenatico,,47042,,,,,,,44.1989169,12.3964471
98,10098,Casa Della Salute di Colorno-Torrile,,Colorno,,43052,,,,,,,44.9342253,10.3756501
99,10099,Casa Di Cura Villa Pini D'Abruzzo,,Chieti,,66100,,,,,,,42.3797246,14.1878767
100,10100,Casa Serena,,Brembate di Sopra,Lombardia,24030,,,,,,,45.7209452,9.5842648
101,10101,Casa Sollievo della Sofferenza,,San Giovanni Rotondo,Puglia,71013,,,,,,,41.7090351,15.7086633
102,10102,Casa del Sole,,Formia,Lazio,04023,,+39 0771 324901,,,No,,41.2520501,13.5890248
103,10103,Casa della Divina Provvidenza,,Bisceglie,Puglia,76011,,,,,,,41.2456159,16.498848
104,10104,"Casa della Divina Provvidenza Ospedale ""Don Uva""",,Foggia,Puglia,71121,,,,,,,41.4682505,15.524307
105,10105,Casa della Salute,Piazzale P. Vaccaro e G. Laurito nan,Lungro,Calabria,87010,,,,,,,39.7284294,16.1420241
106,10106,Casa della Salute,Via Agostino Paci 1,Sarzana,Liguria,19038,,,,,,,44.1139748,9.9632599
107,10107,Casa della Salute,Piazzale Rita Levi Montalcini nan,Casalecchio di Reno,,40033,,,,,,,44.4761092,11.2737471
108,10108,"Casa della Salute ""Finale Emilia""",Piazza Antonio Gramsci nan,Finale Emilia,,41034,,,,,Yes,,44.8332136,11.2973219
109,10109,Casa della Salute - ULSS 7 Pedemontana,,Schio,Veneto,36015,,,,,,,45.719337,11.3555745
110,10110,Casa della Salute del Comune di Capannori,,Capannori,Toscana,55014,,,,,,,43.8966205,10.5587567
111,10111,Casa della salute,Viale Roma 3,Castel Bolognese,,48014,,,,,No,,44.3176656,11.8005193
112,10112,Casa della salute,,Treia,Marche,62010,,,,,,,43.3074958,13.315308
113,10113,Casa di Betania Honlus,,Tricase,Puglia,73039,,,,,,,39.9369155,18.3578131
114,10114,"Casa di Cura ""Maria Grazia Barone""",,Foggia,Puglia,71121,,,,,,,41.4566647,15.5470064
115,10115,"Casa di Cura ""San Raffaele""",,,,,,,,,,,42.0723713,13.9116572
116,10116,"Casa di Cura ""Villa Bianca""",,Trento,Trentino-alto Adige,38122,,,,,,,46.0625375,11.1264718
117,10117,"Casa di Cura ""Villa Tirrena""",,Livorno,Toscana,57124,,,,,,,43.5377439,10.3070389
118,10118,"Casa di Cura ""Villa dei Pini""",,Firenze,Toscana,50122,,,,,No,,43.7594684,11.2334997
119,10119,Casa di Cura - Padre Pio,,Adelfia,Puglia,70010,,,,,No,,41.0019213,16.859202
120,10120,Casa di Cura Ambrosiana,,Cesano Boscone,Lombardia,20090,,,,,,,45.4494513,9.0898964
121,10121,Casa di Cura Città di Aprilia,,Aprilia,Lazio,04011,,,,,,,41.5869133,12.6492127
122,10122,Casa di Cura Città di Parma,,Parma,,43123,,,,,,,44.785261,10.3386086
123,10123,Casa di Cura Cobellis,Contrada Badia nan,Vallo della Lucania,Campania,84078,,+39 0974 75888,,,,,40.2311585,15.2423013
124,10124,Casa di Cura Dottor Pederzoli,Via Monte Baldo 24,Peschiera del Garda,Veneto,37019,,+39 045 644 91 11,,,Yes,,45.4435685,10.7056203
125,10125,Casa di Cura La Madonnina,Via Quadronno 29,Milano,Lombardia,20122,,,,,,,45.4548598,9.1948442
126,10126,Casa di Cura Liotti,Via Serafino Siepi 11,Perugia,Umbria,06123,,+39 075 5721647,,,No,,43.1132806,12.3806035
127,10127,Casa di Cura Maddonna della Salute,Via Nicola Badaloni 25,Porto Viro,Veneto,45014,,,,,,,45.0259392,12.2229745
128,10128,Casa di Cura Malzoni - Villa dei Platani,Via Carmelo Errico 2,Avellino,Campania,83100,,+39 0825 7961,,,,,40.9115358,14.7744888
129,10129,Casa di Cura Montanari,Via Giuseppe Montanari 1,Morciano di Romagna,,47833,,,,,,,43.9137281,12.6479464
130,10130,Casa di Cura Montevergine,,Mercogliano,Campania,83013,,,,,,,40.9226493,14.7457917
131,10131,Casa di Cura Nuova ITOR,,Roma,Lazio,00157,,,,,,,41.9244238,12.54221
132,10132,Casa di Cura Ospedale Internazionale Villa Benti,,Napoli,Campania,80122,,,,,,,40.8367678,14.2273975
133,10133,Casa di Cura Papa Giovanni XXIII,,Monastier di Treviso,Veneto,31050,,,,,,,45.6581811,12.4262411
134,10134,Casa di Cura Privata Città di BRA,Strada Montenero 1,Bra,Piemonte,12042,,+39,,,No,,44.6972238,7.8591479
135,10135,Casa di Cura Privata Villa Santa Apollonia,nan 37/39,Bergamo,Lombardia,24121,,,,,No,,45.7136855,9.6787998
136,10136,Casa di Cura Privata di S. M. Maddalena,Via Gorizia 2,Occhiobello,Veneto,45030,,+39 0425 768 411,,,,,44.8922017,11.6110905
137,10137,Casa di Cura Privata “Villa Serena”,,Città Sant'Angelo,,65013,,,,,,,42.519816,14.1114848
138,10138,Casa di Cura Quarenghi,,San Pellegrino Terme,Lombardia,24016,,,,,,,45.8367858,9.6632997
139,10139,Casa di Cura San Giorgio,,Pordenone,Friuli-venezia Giulia,33170,,,,,No,,45.9459036,12.660107
140,10140,Casa di Cura San Giovanni,Via Matteo Civitali 71,Milano,Lombardia,20151,,,,,,,45.4742552,9.1287649
141,10141,Casa di Cura San Rossore,Viale delle Cascine 152/F,Pisa,Toscana,56125,,+39 050 586111,,,No,,43.7246775,10.3744385
142,10142,Casa di Cura Sant'Anna,,Crotone,Calabria,88900,,,,,Yes,,39.0619303,17.1301854
143,10143,Casa di Cura Sant'Anna,,Crotone,Calabria,88900,,,,,No,,39.0557448,17.0893051
144,10144,Casa di Cura Toniolo,Via Toscana nan,Bologna,,40141,,,,,,,44.4668955,11.3708864
145,10145,Casa di Cura Tortorella,Via Nicola Aversano 1,Salerno,Campania,84123,,+39 089 2578111,,,,,40.681474,14.7685283
146,10146,Casa di Cura Tricarico Rosano,Via Capo Tirone 14,Belvedere Marittimo,Calabria,87021,,+39 0985 849091,,,Yes,,39.6236293,15.8478883
147,10147,Casa di Cura Villa Cintia,,Napoli,Campania,80126,,,,,No,,40.8449265,14.2043869
148,10148,Casa di Cura Villa Esther,Via Gino Di Biase 18,Bojano,Molise,86021,,+39 0874 751001,,,,,41.4882342,14.4733949
149,10149,Casa di Cura Villa Fiorita,,Capua,Campania,81043,,+39 0823 997211,,,,,41.1194342,14.2005345
150,10150,Casa di Cura Villa Gemma,Corso Giuseppe Zanardelli nan,Toscolano Maderno,Lombardia,25088,,,,,No,,45.62508,10.5730675
151,10151,Casa di Cura Villa Maria,Viale Principe di Piemonte 4,Campobasso,Molise,86100,,+39 0874 91723,,,No,,41.5537291,14.6596854
152,10152,Casa di Cura Villa Montallegro,,Genova,Liguria,16145,,,,,,,44.4021509,8.9644858
153,10153,Casa di Cura Villa Pini,,Civitanova Marche,Marche,62012,,,,,,,43.3129766,13.7186265
154,10154,Casa di Cura Villa Salus,Via Ulderico Levi 7,Reggio nell'Emilia,,42121,,,,,,,44.696659,10.6217476
155,10155,Casa di Cura Villa Serena,Via di Colle Onorato 2,Jesi,Marche,60035,,+39 0731 262100,,,,,43.508213,13.1822588
156,10156,Casa di Cura Villa dei Pini,,Anzio,Lazio,00042,,,,,,,41.4638283,12.615815
157,10157,Casa di Cura Villa del Sole,Via Belvedere 31,Salerno,Campania,84123,,+39 089 564412,,,,,40.6813152,14.7777917
158,10158,Casa di Cura del Policlinico,,Milano,Lombardia,20144,,,,,,,45.4597641,9.1615106
159,10159,Casa di Cura privata Villa Berica,,Vicenza,Veneto,36100,,,,,,,45.5485867,11.5595324
160,10160,Casa di Riposo,,Albisola Superiore,Liguria,17011,,,,,,,44.3384539,8.5099665
161,10161,Casa di Riposo,,Sacile,Friuli-venezia Giulia,33077,,,,,,,45.9572943,12.4990354
162,10162,Casa di Riposo,,Portogruaro,Veneto,30026,,,,,,,45.7788885,12.83837
163,10163,"Casa di Riposo ""I.R.C.E.R. Villa Cozza""",,Macerata,Marche,62100,,,,,,,43.2939799,13.4610143
164,10164,"Casa di Riposo ""San Giuseppe""",,San Casciano in Val di Pesa,Toscana,50026,,,,,,,43.6620276,11.1919882
165,10165,Casa di Riposo di Lonigo,,Lonigo,Veneto,36045,,,,,,,45.3854327,11.3995762
166,10166,"Casa di cura ""Domus Nova""",,Ravenna,,48121,,,,,No,,44.4203226,12.1844769
167,10167,"Casa di cura ""Il Pigneto""",,Velletri,Lazio,00049,,,,,,,41.6911799,12.7901812
168,10168,"Casa di cura ""Le Betulle""",,Appiano Gentile,Lombardia,22070,,,,,,,45.7285659,8.9968428
169,10169,"Casa di cura ""Villa Regina""",,Arco,Trentino-alto Adige,38062,,,,,,,45.9173679,10.8873211
170,10170,"Casa di cura ""Villa Verde""",,Taranto,Puglia,74121,,,,,,,40.4479911,17.2754303
171,10171,"Casa di cura ""Villa Vialarda""",,Biella,Piemonte,13900,,,,,,,45.5733733,8.0471369
172,10172,Casa di cura Cristo Re,,,Sicilia,,,,,,,,38.1961845,15.5489888
173,10173,Casa di cura Eremo,,Arco,Trentino-alto Adige,38062,,,,,,,45.9194163,10.8699417
174,10174,Casa di cura Monte Imperatore,,Noci,Puglia,70015,,+39 080 4978616,,,,,40.7478711,17.0198165
175,10175,Casa di cura San Camillo,,Cremona,Lombardia,26100,,,,,,,45.1376214,10.0386431
176,10176,Casa di cura Sant'Alessandro,,Roma,Lazio,00137,,+39 06 41400356,,,,,41.9657846,12.5982714
177,10177,Casa di cura Sant'Anna,,,Sardegna,,,,,,,,39.2260305,9.1175083
178,10178,Casa di cura Santa Rita,,Bari,Puglia,70122,,,,,No,,41.0878101,16.8660121
179,10179,Casa di cura Santa Rita,,Bari,Puglia,70122,,,,,No,,41.087333,16.8654405
180,10180,Casa di cura Solatrix,,Rovereto,Trentino-alto Adige,38068,,,,,No,,45.8972416,11.0456741
181,10181,Casa di cura Villa Fiorita,,Sassuolo,,41049,,,,,,,44.5377236,10.792875
182,10182,Casa di cura Villa S. Giuliana,,Verona,Veneto,37128,,,,,No,,45.4682784,10.9999531
183,10183,Casa di cura Villa Serena,,Piossasco,Piemonte,10045,,,,,,,44.9913162,7.4569762
184,10184,Casa di cura policlinica Villa Verde,,Reggio nell'Emilia,,42121,,,,,,,44.680019,10.6191873
185,10185,Casa di riposo  Villa San Fortunato,Via Gerbida 73,Casal Cermelli,Piemonte,15072,,,,,,,44.8376057,8.621418
186,10186,Casa di riposo sant'antonio pucci,,Viareggio,Toscana,55049,,,,,,,43.8619817,10.2489609
187,10187,Centrale 118 e Nue 112,,Saluzzo,Piemonte,12037,,,,,,,44.6533328,7.4695647
188,10188,Centro Cardiologico Monzino,,Milano,Lombardia,20138,,,,,Yes,,45.4436829,9.262571
189,10189,Centro Chirurgico Toscano,Via dei Lecci 22,Arezzo,Toscana,52100,,+39 0575 3335,,,,,43.4803557,11.8799029
190,10190,Centro Cuore Morgagni,,,Sicilia,,,,,,No,,37.6172558,15.0530398
191,10191,Centro Cura e Salute,,,Sardegna,,,,,,,,40.8184864,8.4631788
192,10192,Centro Dialisi,,Piario,Lombardia,24020,,,,,,,45.890144,9.918282
193,10193,Centro Iperbarico,Via Augusto Torre 3,Ravenna,,48121,,,,,Yes,,44.4105928,12.1640422
194,10194,Centro Medicina Nucleare Italiano Villa Bianca,,Roma,Lazio,00185,,,,,,,41.9249363,12.5113289
195,10195,Centro Medico,,Triuggio,Lombardia,20844,,,,,,,45.6160419,9.2814604
196,10196,Centro Radiologico Polispecialistico dei Laghi,,Comabbio,Lombardia,21020,,,,,No,,45.7688964,8.6780428
197,10197,Centro Regionale del Lazio per i Trapianti e le patologie collegate,,Roma,Lazio,00133,,,,,,,41.8537269,12.6348934
198,10198,Centro Riabilitativo Polifunzionale T. Borsalino,Piazzale Ravazzoni 3,Alessandria,Piemonte,15121,,+39 0131 206111,,,,,44.9416714,8.6181536
199,10199,Centro Riabilitativo Polifunzionale T. Borsalino,Piazzale Ravazzano 3,Alessandria,Piemonte,15121,,+39 0131 206111,,,,,44.9388084,8.6155674
200,10200,Centro Sanitario Polifunzionale Maraschin-Zannini,,Sandrigo,Veneto,36066,,,,,,,45.6565592,11.6014482
201,10201,Centro Sant'Ambrogio - Fatebenefratelli,,Cernusco sul Naviglio,Lombardia,20063,,,,,No,,45.5221071,9.3445865
202,10202,Centro Servizi Socio Sanitari Guido de Rossignoli,Via Cao del Mondo 1,Camposampiero,Veneto,35012,,+39049 9822232,,,,,45.5631351,11.9286291
203,10203,Centro Socio Riabilitativo,Via Lampugnana nan,Rottofreno,,29010,,,,,,,45.0519172,9.5961118
204,10204,Centro Traumatologico Ortopedico,,,Sicilia,,,,,,,,38.1520733,13.3408733
205,10205,Centro di Assistenza Primaria (CAP),Via San Carlo nan,Arona,Piemonte,28041,,,,,,,45.761729,8.558587
206,10206,Centro di Medicina,Viale della Repubblica 10b,Villorba,Veneto,31020,,+39 042 26 98 111,,,No,,45.6987258,12.2556582
207,10207,Centro di Protonterapia,Via al Desert 14,Trento,Trentino-alto Adige,38122,,,,,,,46.0495937,11.115981
208,10208,"Centro di Riabilitazione Intensiva Ospedaliera ""Santa Rita da Cascia""",,Cascia,Umbria,06043,,,,,No,,42.7155228,13.0145382
209,10209,Centro di Riabilitazione Santo Stefano,Viale 30 giugno nan,Tolentino,Marche,62029,,,,,,,43.2136016,13.280722
210,10210,"Centro di Riabilitazione Santo Stefano ""Venerabile Marcucci""",,Ascoli Piceno,Marche,63100,,,,,,,42.8525401,13.6234189
211,10211,Centro di Riabilitazione Villa San Pietro,,Arco,Trentino-alto Adige,38062,,+39 0464 516839,,,No,,45.915737,10.8898856
212,10212,"Centro di riabilitazione ""La Nostra Famiglia""",,Binago,Lombardia,22070,,+39 0332 866080,,,,,45.7707221,8.8947739
213,10213,Centro polifunzionale di Valeggio sul Mincio - ULS22,Via Santa Maria Crocefissa nan,Valeggio sul Mincio,Veneto,37067,,,,,No,,45.357959,10.7422019
214,10214,Cittadella Socio Sanitaria,,Cavarzere,Veneto,30014,,,,,,,45.1380574,12.0916747
215,10215,Città della salute,,Gambettola,,47035,,,,,,,44.1207198,12.3401826
216,10216,Città di Alessandria Policlinico di Monza,Via Vittorio Moccagatta 30,Alessandria,Piemonte,15121,,+39 0131 314500,,,No,,44.9132701,8.6370874
217,10217,Clinic Center,,Napoli,Campania,80125,,,,,No,,40.8370608,14.1869893
218,10218,Clinic center Hera,,Giugliano in Campania,Campania,80014,,,,,,,40.9392146,14.2041288
219,10219,Clinica Castelli,,Bergamo,Lombardia,24121,,,,,,,45.6956478,9.6586078
220,10220,Clinica Città di Roma,Via Francesco Maidalchini 20,Roma,Lazio,00152,,+39 06 58471,,,,,41.8748667,12.456245
221,10221,Clinica Eporediese,Via Castiglia 27,Ivrea,Piemonte,10015,,,,,,,45.470776,7.8663051
222,10222,Clinica Giovanni Battista Morgagni,Via del Bosco 105,,Sicilia,,,+39 800 464332,,,No,,37.5335783,15.0799285
223,10223,Clinica LAY,,,Sardegna,,,,,,,,39.2197333,9.1103824
224,10224,Clinica La Quiete,,Varese,Lombardia,21100,,,,,No,,45.8212494,8.8143317
225,10225,Clinica Mater Dei,,Roma,Lazio,00197,,,,,,,41.9243311,12.4878259
226,10226,Clinica Mediterranea,Via Orazio 2,Napoli,Campania,80122,,+39 081 7259222,,,,,40.8274158,14.2188927
227,10227,Clinica Privata,,Roma,Lazio,00162,,,,,,,41.9153673,12.5172838
228,10228,Clinica S. Francesco,,Foggia,Puglia,71121,,,,,,,41.4436009,15.5447607
229,10229,Clinica Salus,Via Federico Confalonieri 4,Battipaglia,Campania,84091,,+39 082 8394111,,,,,40.605943,14.9922099
230,10230,Clinica San Carlo,,Paderno Dugnano,Lombardia,20037,,,,,,,45.5724163,9.157462
231,10231,Clinica San Clemente,,Mantova,Lombardia,46100,,,,,,,45.1476196,10.7707543
232,10232,Clinica San Felice,,Pomigliano d'Arco,Campania,80038,,,,,,,40.9141897,14.402393
233,10233,Clinica San Gaudenzio,Via Enrico Bottini 3,Novara,Piemonte,28100,,+39 0321 3831,,,,,45.4505753,8.6162213
234,10234,Clinica San Marco,,Latina,Lazio,04100,,,,,,,41.4623292,12.9025464
235,10235,Clinica San Michele,,Maddaloni,Campania,81024,,,,,Yes,,41.0395541,14.3741242
236,10236,Clinica Sanatrix,,Roma,Lazio,00198,,,,,,,41.9305036,12.5141645
237,10237,Clinica Sant'Anna,,Casale Monferrato,Piemonte,15033,,,,,No,,45.1321594,8.453035
238,10238,Clinica Santa Maria,,Bari,Puglia,70122,,,,,,,41.1087585,16.8629247
239,10239,Clinica Santa Rita,,Montecatini Terme,Toscana,51016,,,,,,,43.8822338,10.7670732
240,10240,Clinica Stella Maris,,San Benedetto del Tronto,Marche,63074,,,,,No,,42.9546343,13.8740824
241,10241,Clinica Villa Benedetta,,Roma,Lazio,00185,,,,,,,41.901164,12.4248856
242,10242,Clinica Villa S.Elena,,,Sardegna,,,,,,,,39.2263946,9.1257837
243,10243,Clinica Villa Stabia,,Castellammare di Stabia,Campania,80053,,,,,No,,40.7035803,14.490256
244,10244,Clinica Villa del Sole,Via Nazionale Appia 35,Casagiove,Campania,81022,,+39 0823 251111,,,,,41.0726565,14.3162504
245,10245,Clinica di Riabilitazione Villa Adria,,Ancona,Marche,60122,,,,,,,43.6140595,13.4396433
246,10246,Clinica privata Villalba,Via di Roncrio nan,Bologna,,40136,,,,,,,44.4694903,11.3368055
247,10247,Co.Me.Te. Cooperativa Medici del Territorio - Societa' Cooperativa a R. L.,Via Don Paolo Antonini nan,Casalmaggiore,Lombardia,26041,,,,,,,44.9891836,10.4239116
248,10248,Complesso Integrato Columbus,,Roma,Lazio,00136,,,,,,,41.927874,12.4301188
249,10249,Complesso Ospedaliero di Noventa Vicentina,Via Capo di Sopra 1,Noventa Vicentina,Veneto,36025,,,,,Yes,,45.2922038,11.5355714
250,10250,"Complesso Socio-Sanitario ""Ai Colli""",,Padova,Veneto,35139,,,,,,,45.4014393,11.8446518
251,10251,Conference Hall,,Castellana Grotte,Puglia,70013,,,,,,,40.8836442,17.1568182
252,10252,Corberi,,Limbiate,Lombardia,20812,,,,,,,45.6104641,9.124474
253,10253,Corpo Nazionale Soccorso Alpino Speleologico,,Fornovo di Taro,,43045,,,,,,,44.6929827,10.1034569
254,10254,Cottolengo,,Pinerolo,Piemonte,10064,,,,,No,,44.8859266,7.3201834
255,10255,Country Hospital - Guardia Medica,,Modigliana,,47015,,,,,,,44.1562157,11.7947439
256,10256,Croce Bianca,,Fossano,Piemonte,12045,,,,,,,44.5426752,7.7214913
257,10257,Croce Bianca Albenga,Piazza Francesco Petrarca 17,Albenga,Liguria,17031,,,,,,,44.0470177,8.2147739
258,10258,Croce Bianca Laigueglia,Piazza San Matteo 1,Laigueglia,Liguria,17053,,,,,ambulance_station,,43.9798135,8.1579384
259,10259,Croce Bianca Savona,Corso Giuseppe Mazzini 58 RS,Savona,Liguria,17100,,,,,,,44.3048814,8.4800943
260,10260,Croce Rossa,,Firenze,Toscana,50142,,,,,,,43.7645194,11.1814255
261,10261,Croce Rossa Italiana,,Busca,Piemonte,12022,,,,,,,44.5182441,7.4781571
262,10262,Croce Rossa Italiana - Delegazione di Paesana,Via Erasca 14,Paesana,Piemonte,12034,,,,,Yes,,44.6784671,7.2739134
263,10263,Croce Rossa Italiana - L'Aquila,Viale della Croce Rossa 14,L'Aquila,,67100,,+39 0862 26061,,,,,42.3570974,13.404754
264,10264,Croce Rossa Italiana - Medicina,,Medicina,,40059,,,,,Yes,,44.4742197,11.635156
265,10265,Croce Rossa Italiana - Palestrina,,Palestrina,Lazio,00036,,,,,,,41.8390222,12.8877681
266,10266,Croce Rossa Italiana Comitato di Bardolino Baldo Garda,Via Gardesana dell'Acqua 10,Bardolino,Veneto,37011,,+39 045 6212133,,,Yes,,45.5534274,10.7196873
267,10267,Croce verde,Via Malfatti 50,Adria,Veneto,45011,,,,,,,45.0585521,12.0485907
268,10268,Dalla Rosa Prati - Poliambulatorio,,Parma,,43121,,,,,,,44.8063452,10.2996632
269,10269,Dipartimento di Salute Mentale A.S.S. 4,,Udine,Friuli-venezia Giulia,33100,,,,,,,46.0378972,13.2210773
270,10270,Distretto Sanitario,,Francavilla al Mare,,66023,,+39 0854910350,,,,,42.4246358,14.2746006
271,10271,Distretto Sanitario,,Meta,Campania,80062,,,,,No,,40.6440355,14.4142722
272,10272,Distretto Sanitario 3 di Cerea,Via Monte Carega 23,Cerea,Veneto,37053,,+39044230500,,,,,45.1907072,11.2231994
273,10273,Distretto Sanitario 59,,Sant'Agnello,Campania,80065,,,,,,,40.6325971,14.3986348
274,10274,Distretto Sanitario ASL n.5 Bassa Friulana,,Palmanova,Friuli-venezia Giulia,33057,,,,,,,45.9084137,13.3103099
275,10275,Distretto Sanitario Codroipo,,Codroipo,Friuli-venezia Giulia,33033,,,,,No,,45.9633343,12.9963537
276,10276,Distretto Sanitario di Udine,,Udine,Friuli-venezia Giulia,33100,,,,,,,46.0670278,13.2434365
277,10277,Distretto Socio Sanitario,,Ozzano dell'Emilia,,40064,,,,,No,,44.4438478,11.4737536
278,10278,Distretto Socio Sanitario ASL2 San Vito,,Lucca,Toscana,55100,,,,,No,,43.8550051,10.5332063
279,10279,Distretto Socio Sanitario Conegliano,,Conegliano,Veneto,31015,,,,,,,45.8754372,12.2954728
280,10280,Distretto sanitario,Piazzale Vittoria nan,Piovene Rocchette,Veneto,36013,,,,,No,,45.7622211,11.4316356
281,10281,Don Gnocchi,Viale Regina Margherita 134,Tricarico,Basilicata,75019,,,,,,,40.6183178,16.1487297
282,10282,Don Gnocchi - Santa Maria alla Pineta,,Massa,Toscana,54100,,,,,,,44.0181718,10.0841345
283,10283,Don Orione,,Bergamo,Lombardia,24121,,,,,,,45.7159318,9.6929398
284,10284,Dono Svizzero,,Formia,Lazio,04023,,,,,Yes,,41.2616779,13.6182661
285,10285,Ecomedica,,Empoli,Toscana,50053,,,,,,,43.7180723,10.9608991
286,10286,Eliporto di Emergenza,Via Valle Pupina nan,Padula,Campania,84034,,,,,Yes,,40.3453804,15.6552511
287,10287,"Elisuperficie ""Ospedale Chiello""",,,Sicilia,,,,,,,,37.397868,14.3797148
288,10288,"Ente Ecclesiastico Ospedale Generale regionale ""F. Miulli""",,Acquaviva delle Fonti,Puglia,70021,,,,,Yes,,40.863651,16.8025682
289,10289,Eremo di Lanzo,,Lanzo Torinese,Piemonte,10074,,,,,,,45.2786997,7.4963556
290,10290,European Hospital,,Roma,Lazio,00185,,,,,,,41.8543882,12.4371628
291,10291,Evangelico Internazionale,,Genova,Liguria,16125,,,,,,,44.4142921,8.942673
292,10292,Ex Ospedale Militare,Via Raimondo Palmerio nan,Piacenza,,29121,,,,,No,,45.0482408,9.6844711
293,10293,Ex Ospedale Umberto Primo,,Frosinone,Lazio,03100,,,,,,,41.6383179,13.3476944
294,10294,Ex Ospedale di Toritto,,Toritto,Puglia,70020,,,,,,,41.0004432,16.6789321
295,10295,Ex Silos,,Portogruaro,Veneto,30026,,,,,,,45.7700433,12.839257
296,10296,Felettino,,La Spezia,Liguria,19121,,,,,,,44.1328124,9.8446324
297,10297,Fondazione Elisabetta Germani,,Cingia de' Botti,Lombardia,26042,,,,,,,45.0851551,10.2600689
298,10298,Fondazione Gaetano e Piera Borghi,,Brebbia,Lombardia,21020,,,,,,,45.8326816,8.6595844
299,10299,Fondazione Istituto Giuseppe Giglio,,,Sicilia,,,,,,,,38.0276187,14.0124339
300,10300,Fondazione Raimondi Francesco,,Gorla Minore,Lombardia,21055,,+39 0331 601133,,,,,45.6360325,8.8990176
301,10301,Fondazione Salvatore Maugeri,,Lumezzane,Lombardia,25065,,,,,,,45.6520157,10.2515127
302,10302,Fondazione Santa Lucia,,Roma,Lazio,00147,,,,,,,41.8392296,12.5152706
303,10303,Fondazione Seràgnoli - Hospice Bentivoglio,,Bentivoglio,,40010,,,,,,,44.6373694,11.4112599
304,10304,Francesco Lastaria,,Lucera,Puglia,71036,,,,,,,41.513959,15.332513
305,10305,Franz-Tappeiner-Krankenhaus - Ospedale Franz Tappeiner,,Merano,Trentino-alto Adige,39012,,+39 0473 263333,,,Yes,,46.6763855,11.1503578
306,10306,Fratellanza popolare,,San Vito dei Normanni,Puglia,72019,,,,,,,40.6578769,17.7132936
307,10307,Fraternità di Misericordia Sinnai,Via Giambattista Tiepolo 20,,Sardegna,,,,,,,,39.3037279,9.1978952
308,10308,Gaetano Rummo,,Benevento,Campania,82100,,,,,Yes,,41.1200476,14.7934953
309,10309,Guardia Medica,,Castelnuovo Cilento,Campania,84040,,,,,,,40.2323733,15.2704624
310,10310,Guardia Medica,Via Sannita nan,Airola,Campania,82011,,,,,No,,41.0626929,14.5600547
311,10311,Guardia Medica,,Casacalenda,Molise,86043,,,,,,,41.7400048,14.8514876
312,10312,Guardia Medica,,,Sicilia,,,,,,,,37.0889143,14.5523747
313,10313,Guardia Medica,,San Donaci,Puglia,72025,,,,,No,,40.4483964,17.9223583
314,10314,Guardia Medica,,Platania,Calabria,88040,,,,,,,39.0044346,16.3188145
315,10315,Guardia Medica,,,Sardegna,,,,,,No,,40.3962852,8.6576813
316,10316,Guardia Medica,,,Sicilia,,,,,,Yes,,37.0374983,14.6806071
317,10317,Guardia Medica,,,Sicilia,,,,,,,,37.6355288,14.9430954
318,10318,Guardia Medica,,,Sicilia,,,,,,,,38.1638691,15.3160287
319,10319,Guardia Medica - VV. UU.,,Padula,Campania,84034,,,,,,,40.3450295,15.6566575
320,10320,Guardia medica,Via Roma nan,,Sicilia,,,,,,,,38.0346921,14.0215952
321,10321,Guardia medica,Via G. G. D'Amore nan,Piedimonte Matese,Campania,81016,,+39 0823 911196,,,,,41.3550998,14.3756372
322,10322,Guglielmo Da Saliceto,,Piacenza,,29121,,,,,,,45.0542255,9.6816219
323,10323,Guglielmo da Saliceto,,Piacenza,,29121,,,,,Yes,,45.0554897,9.6792249
324,10324,Habilita,,,Lombardia,,,,,,,,45.5904558,9.6050186
325,10325,Habilita San Marco s.p.a. - sede,,Bergamo,Lombardia,24121,,,,,,,45.6986115,9.6673668
326,10326,Habilita San Marco s.p.a. - sezione,,Bergamo,Lombardia,24121,,,,,,,45.6995106,9.6688559
327,10327,Hospice,,Como,Lombardia,22100,,,,,,,45.8020094,9.1023034
328,10328,Hospice Villa Speranza,,Roma,Lazio,00168,,,,,,,41.9314352,12.4266147
329,10329,Humanitas Mater Domini,Via Gerenzano 2,Castellanza,Lombardia,21053,,+39 0331 476111,,,Yes,,45.6102548,8.9072244
330,10330,Hôpital régional d'Aosta Umberto Parini,,Aosta,Valle D'aosta,11100,,,,,,,45.7412289,7.3124688
331,10331,I.C.O.T.,Via Franco Faggiana 1668,Latina,Lazio,04100,,,,,,,41.4431978,12.900914
332,10332,I.N.I. Istituto Traumatologico Italiano,Via di Sant'Anna nan,Grottaferrata,Lazio,00046,,+39 06 942851,,,,,41.7782619,12.6627296
333,10333,I.R.S.T.,,Meldola,,47014,,,,,,,44.1251359,12.0645184
334,10334,ICC - Istituto Clinico Casalpalocco,Viale Alessandro Magno 382,Roma,Lazio,00124,,+39 06 50173411,,,No,,41.7466538,12.3496842
335,10335,IDI (Istituto Dermopatico dell'Immacolata),,Roma,Lazio,00165,,,,,,,41.90155,12.4293134
336,10336,IRCCS Fondazione Pascale - Day Hospital,Via Antonio Cardarelli 9,Napoli,Campania,80131,,,,,,,40.8618591,14.2219151
337,10337,IRCCS Fondazione Pascale - Degenze,Via Antonio Cardarelli 9,Napoli,Campania,80131,,,,,,,40.862188,14.2231753
338,10338,IRCCS Fondazione Pascale - Palazzina scientifica,Via Antonio Cardarelli 9,Napoli,Campania,80131,,,,,,,40.8628586,14.2214372
339,10339,IRCCS Saverio De Bellis,,Castellana Grotte,Puglia,70013,,,,,,,40.8843447,17.1558338
340,10340,IRCCS Stella Maris,,Pisa,Toscana,56128,,,,,No,,43.6084126,10.2919622
341,10341,IRCSS Centro Neurolesi Bonino - Pulejo,,,Sicilia,,,,,,,,38.2064704,15.5185022
342,10342,IRCSS Neuromed,,Pozzilli,Molise,86077,,,,,,,41.5145274,14.0604839
343,10343,Infermeria Presidiaria di Augusta,,,Sicilia,,,,,,,,37.2204895,15.2229864
344,10344,International Medical Center,,Livigno,Lombardia,23030,,,,,,,46.5526516,10.132437
345,10345,Ipab - Centro Residenziale per Anziani A. Danielato,,Cavarzere,Veneto,30014,,,,,No,,45.1360717,12.0902153
346,10346,Istituti Clinici Scientifici Maugeri,Via Crotto Roncaccio nan,Tradate,Lombardia,21049,,,,,,,45.7197308,8.9110508
347,10347,Istituti Clinici Scientifici Maugeri,Via Crotto Roncaccio nan,Tradate,Lombardia,21049,,,,,,,45.7200646,8.9112962
348,10348,Istituti Clinici Zucchi,Via Bartolomeo Zucchi 24,Monza,Lombardia,20900,,+39 039 83831,,,,,45.5859191,9.2721905
349,10349,Istituti Ospedalieri Carlo Poma,,Mantova,Lombardia,46100,,,,,Yes,,45.1491169,10.7727399
350,10350,Istituto Auxologico Piancavallo,,Oggebbio,Piemonte,28824,,,,,,,46.0092136,8.6288705
351,10351,Istituto Clinico Beato Matteo,Corso Pavia 84,Vigevano,Lombardia,27029,,,,,,,45.3070928,8.8702096
352,10352,Istituto Clinico Città Studi,,Milano,Lombardia,20133,,,,,Yes,,45.4854733,9.2247518
353,10353,Istituto Clinico Città Studi,,Milano,Lombardia,20133,,,,,Yes,,45.4849189,9.2256971
354,10354,Istituto Clinico Città di Brescia,,Brescia,Lombardia,25123,,,,,,,45.5533956,10.2265245
355,10355,Istituto Clinico Humanitas,,Trezzano sul Naviglio,Lombardia,20090,,,,,,,45.37137,9.1673424
356,10356,Istituto Clinico Porta Sole,Via del Giochetto 49,Perugia,Umbria,06123,,+39 075 575999,,,No,,43.1143417,12.4030495
357,10357,Istituto Clinico Sant'Ambrogio,,Milano,Lombardia,20149,,,,,,,45.4845039,9.1529274
358,10358,Istituto Clinico Sant'Anna,,Brescia,Lombardia,25123,,,,,,,45.5544435,10.1804604
359,10359,Istituto Clinico Valle d'Aosta,,Saint-Pierre,Valle D'aosta,11010,,,,,,,45.7176776,7.2410701
360,10360,Istituto Don Gnocchi,,Firenze,Toscana,50142,,,,,,,43.7583373,11.2067426
361,10361,Istituto Europeo di Oncologia,Via Giuseppe Ripamonti 435,Trezzano sul Naviglio,Lombardia,20090,,+39 02 574891,,,,,45.4153449,9.2086346
362,10362,Istituto Fisioterapico di Riabilitazione Clara Franceschini,,San Felice Circeo,Lazio,04017,,,,,,,41.2516619,13.0503933
363,10363,Istituto Nazionale dei Tumori,,Milano,Lombardia,20133,,,,,,,45.4743844,9.2305318
364,10364,Istituto Neurologico Carlo Besta,,Milano,Lombardia,20133,,,,,,,45.4771307,9.2302239
365,10365,Istituto Oncologico Veneto,,Padova,Veneto,35139,,,,,,,45.4033973,11.893687
366,10366,Istituto Ortopedico Galeazzi,,Milano,Lombardia,20161,,,,,,,45.5226256,9.1738263
367,10367,Istituto Ortopedico Rizzoli - Ospedale,,Bologna,,40136,,,,,,,44.4814033,11.343263
368,10368,Istituto Ortopedico Rizzoli - Poliambulatorio - Centro di Ricerca,,Bologna,,40136,,,,,,,44.4763167,11.3414161
369,10369,Istituto Ortopedico del Mezzogiorno d'Italia,,Reggio di Calabria,Calabria,89125,,,,,No,,38.1144558,15.6691779
370,10370,Istituto Ospedaliero di Sospiro,,Sospiro,Lombardia,26048,,,,,,,45.1078392,10.1600465
371,10371,Istituto Ospedaliero di Sospiro,,Sospiro,Lombardia,26048,,,,,,,45.1078413,10.1601436
372,10372,Istituto Policlinico San Donato,,San Donato Milanese,Lombardia,20097,,,,,,,45.4111776,9.2765858
373,10373,Istituto Privato di Riabilitazione Madre della Divina Provvidenza,,Arezzo,Toscana,52100,,,,,No,,43.4474156,11.8273876
374,10374,Istituto S.Giovanni Di Dio Fate Bene Fratelli,,Genzano di Roma,Lazio,00045,,,,,,,41.6996373,12.6753999
375,10375,Istituto Sant'Anna,,Bologna,,40138,,,,,,,44.49097,11.368517
376,10376,Istituto Santo Stefano,Via Aprutina nan,Potenza Picena,Marche,62018,,,,,,,43.3684659,13.6937164
377,10377,Istituto Scientifico Romagnolo per lo Studio e la Cura dei Tumori (I.R.S.T.) S.r.l.,,Meldola,,47014,,,,,,,44.1250142,12.0647205
378,10378,Istituto Scientifico di Nervi,,Genova,Liguria,16167,,,,,,,44.3849084,9.0296596
379,10379,Istituto Scientifico di Riabilitazione di Veruno - Fondazione Salvatore Maugeri,Via per Revislate 13,Gattico-Veruno,Piemonte,28013,,,,,No,,45.6957583,8.533192
380,10380,Istituto Villa Marelli,,Milano,Lombardia,20159,,,,,,,45.4965018,9.1932791
381,10381,Istituto delle Figlie di San Camillo - Ospedale M. G. Vannini,Via di Acqua Bullicante nan,Roma,Lazio,00176,,,,,,,41.8815579,12.5433497
382,10382,Istituto di Cura Città di Pavia,Via Parco Vecchio 27,Pavia,Lombardia,27100,,,,,No,,45.1923105,9.1667091
383,10383,"Istituto di riabilitazione ""Salvatore Maugeri""",,Tradate,Lombardia,21049,,+39 0331 829111,,,,,45.719533,8.9110053
384,10384,Istituto di riabilitazione e di cura Santa Margherita,,Pavia,Lombardia,27100,,,,,No,,45.1963962,9.1718411
385,10385,Istituto di ricovero e cura a carattere scientifico - Centro regionale oncologico Basilicata,,Rionero in Vulture,Basilicata,85028,,,,,,,40.9319235,15.6740095
386,10386,"Istituto nazionale per le malattie infettive ""Lazzaro Spallanzani""",Via Portuense 292,Roma,Lazio,00185,,,,,,,41.8679126,12.460659
387,10387,"Istituto oncologico ""Giovanni Paolo II""",,Bari,Puglia,70122,,,,,,,41.1055241,16.8589929
388,10388,Istituto per la Ricerca e la Cura del Cancro Candiolo (IRCCS),,Nichelino,Piemonte,10042,,,,,,,44.9687723,7.5661154
389,10389,Italian Red Cross volunteers,,,Sardegna,,,,,,No,,40.2893174,8.4836069
390,10390,Krankenhaus Brixen - Ospedale Bressanone,,Varna,Trentino-alto Adige,39040,,,,,Yes,,46.7256776,11.6464246
391,10391,Krankenhaus Bruneck - Ospedale Brunico,Via Ospedale 11,Brunico,Trentino-alto Adige,39031,,,,,Yes,,46.7995291,11.9343996
392,10392,Krankenhaus Sterzing - Ospedale Vipiteno,Via Santa Margherita 24,Vipiteno,Trentino-alto Adige,39049,,,,,Yes,,46.8978983,11.4252648
393,10393,La Colletta,,Arenzano,Liguria,16011,,+39 010 84981,,,No,,44.4007791,8.6631088
394,10394,Madonnina,,Treviso,Veneto,31100,,,,,,,45.6696145,12.2217907
395,10395,Madre Teresa di Calcutta,Via Altura 9/7,Bologna,,40141,,,,,,,44.4643888,11.3969348
396,10396,Marrelli Hospital,,Crotone,Calabria,88900,,,,,No,,39.0772325,17.1096078
397,10397,Mater Dei,,Bari,Puglia,70122,,,,,,,41.1120987,16.8515161
398,10398,Mater Dei,,Bari,Puglia,70122,,,,,No,,41.0984138,16.8857253
399,10399,Matteo Pagliari,,Massafra,Puglia,74016,,+39 099 8801512,,,Yes,,40.5830095,17.121786
400,10400,Medicina Universitaria,,Foggia,Puglia,71121,,,,,,,41.4539794,15.5234642
401,10401,Mellino Mellini - Richiedei,,Palazzolo sull'Oglio,Lombardia,25036,,,,,,,45.599987,9.8863646
402,10402,Misericordia del Galluzzo,,Firenze,Toscana,50125,,,,,,,43.7366712,11.2239065
403,10403,Misericordia di Impruneta,,Impruneta,Toscana,50023,,,,,,,43.6843276,11.2558485
404,10404,Misericordia di Pisa,,Pisa,Toscana,56125,,,,,Yes,,43.7098095,10.3728364
405,10405,Montalcino,,Montalcino,Toscana,53024,,,,,,,43.0593819,11.4927062
406,10406,Montecatone Rehabilitation Institute,Via Montecatone 37,Imola,,40026,,+39 0542 632811,,,,,44.3481985,11.6324119
407,10407,Multimedica,Via Milanese 300,Sesto San Giovanni,Lombardia,20099,,02242091,,,,,45.5362331,9.2181783
408,10408,Multimedica - Clinica Santa Maria,,Castellanza,Lombardia,21053,,,,,Yes,,45.600624,8.8708324
409,10409,Mutua,,Milano,Lombardia,20132,,,,,,,45.501336,9.2373234
410,10410,Neuropsichiatria infantile territoriale,,Mantova,Lombardia,46100,,,,,,,45.154267,10.780528
411,10411,Nostra Famiglia - Lungodegenza/Riabilitazione per Disabili Gravi,,Rogeno,Lombardia,23849,,,,,,,45.7861794,9.2888133
412,10412,Nostra Signora di Montallegro,,Rapallo,Liguria,16035,,,,,,,44.3593458,9.2138288
413,10413,Nuova Villa Claudia Casa di Cura convenzionata,Via Flaminia Nuova 280,Roma,Lazio,00185,,+39 06 36 79 71,,,,,41.9519383,12.4740636
414,10414,Nuovo Ospedale Apuano,,Massa,Toscana,54100,,,,,Yes,,44.0195208,10.0977017
415,10415,Nuovo Ospedale Civile,,Sassuolo,,41049,,,,,,,44.5298792,10.7922341
416,10416,Nuovo Ospedale San Giovanni di Dio,,Firenze,Toscana,50143,,,,,Yes,,43.7587494,11.2027401
417,10417,Nuovo Ospedale degli Infermi,,Ponderano,Piemonte,13875,,,,,,,45.5435541,8.0609286
418,10418,Nuovo Policlinico,,Caserta,Campania,81100,,,,,,,41.0623462,14.3544873
419,10419,Nuovo Robbiani,Via Inzani 4,Soresina,Lombardia,26015,,+39 0374 415411,,,,,45.2820157,9.8702732
420,10420,O.O. R.R. S. Giovanni di Dio e Ruggi D'Aragona,,Salerno,Campania,84123,,,,,,,40.6823214,14.7654551
421,10421,OO.RR. San Giovanni di Dio Ruggi d'Aragona - Scuola Medica Salernitana,,Salerno,Campania,84131,,,,,,,40.6499669,14.8270165
422,10422,Obitorio,,Corato,Puglia,70033,,,,,,,41.1475874,16.4238916
423,10423,Obitorio Comunale,Viale Risorgimento nan,Massa,Toscana,54100,,,,,,,44.0290268,10.1440385
424,10424,Opera Pia Lupis,,,Sicilia,,,,,,No,,36.9183135,14.7190109
425,10425,Ospedale,,Gravina in Puglia,Puglia,70024,,,,,,,40.8170045,16.4202766
426,10426,Ospedale,,Savigliano,Piemonte,12038,,,,,,,44.644503,7.6603968
427,10427,Ospedale,,Paderno Dugnano,Lombardia,20037,,,,,,,45.5735468,9.1567445
428,10428,"Ospedale ""Ascoli-Tomaselli""",,,Sicilia,,,,,,,,37.5284747,15.0749483
429,10429,"Ospedale ""Binaghi""",,,Sardegna,,,,,,,,39.2103594,9.1383551
430,10430,"Ospedale ""Costanzo e Gaetano Mazzoni""",,Ascoli Piceno,Marche,63100,,,,,Yes,,42.8504386,13.6182388
431,10431,"Ospedale ""Domenico Lentini""",,Lauria,Basilicata,85044,,,,,Yes,,40.052278,15.8381783
432,10432,"Ospedale ""Felice Lotti""",,Pontedera,Toscana,56025,,,,,Yes,,43.6602955,10.6336788
433,10433,"Ospedale ""Francesca Fallacara""",,Triggiano,Puglia,70019,,,,,Yes,,41.0660004,16.9273858
434,10434,"Ospedale ""Francesca Fallacara"" Padiglione Nord",,Triggiano,Puglia,70019,,,,,,,41.0683954,16.9259521
435,10435,"Ospedale ""G. Jazzolino""",Piazza Fleming nan,Vibo Valentia,Calabria,89900,,+39 0963 962111,,,Yes,,38.680162,16.1035888
436,10436,"Ospedale ""Gaetano Bernabeo""",,Ortona,,66026,,,,,,,42.3516342,14.3890967
437,10437,"Ospedale ""Giuseppe Casati""",,Rho,Lombardia,20017,,,,,,,45.5485244,9.0440736
438,10438,"Ospedale ""Giuseppe Cutroni Zodda""",,,Sicilia,,,+39 090 9751714,,,,,38.1512653,15.2205149
439,10439,"Ospedale ""Immacolata Concezione""",Via Unità d'Italia 7,Maniago,Friuli-venezia Giulia,33085,,,,,Yes,,46.1733185,12.7128651
440,10440,"Ospedale ""Marcello Magalini""",Via Ospedale Marcello Magalini 5,Villafranca di Verona,Veneto,37069,,+39 045 6338111,,,Yes,,45.3489569,10.8392614
441,10441,"Ospedale ""Morelli""",,Reggio di Calabria,Calabria,89125,,,,,,,38.0950508,15.6467006
442,10442,"Ospedale ""Paolo Merlo""",,La Maddalena,Sardegna,07024,,,,,,,41.2177304,9.4068163
443,10443,"Ospedale ""Poveri Infermi""",,Ceva,Piemonte,12073,,,,,,,44.3775874,8.0379956
444,10444,"Ospedale ""Poveri Infermi""",,Ceva,Piemonte,12073,,,,,,,44.3777944,8.0378361
445,10445,"Ospedale ""San Giacomo Apostolo""",,Castelfranco Veneto,Veneto,31033,,,,,,,45.6774176,11.9277191
446,10446,"Ospedale ""San Giovanni dei Battuti""",Via Raffaello Sanzio nan,Spilimbergo,Friuli-venezia Giulia,33097,,,,,Yes,,46.1124706,12.8921267
447,10447,"Ospedale ""San Gregorio""",Via Ettoreo 4,Sacile,Friuli-venezia Giulia,33077,,,,,Yes,,45.9565258,12.5007166
448,10448,"Ospedale ""Santa Maria dei Battuti""",Via Savorgnano 2,San Vito al Tagliamento,Friuli-venezia Giulia,33078,,,,,Yes,,45.9122532,12.8569318
449,10449,"Ospedale ""Santa Scolastica""",,Cassino,Lazio,03043,,+39 0776 39291,,,Yes,,41.5033648,13.8438651
450,10450,"Ospedale ""Santo Spirito""",Viale Giovanni Giolitti 2,Casale Monferrato,Piemonte,15033,,,,,Yes,,45.1216468,8.4447545
451,10451,"Ospedale ""Tiberio Evoli""",,Melito di Porto Salvo,Calabria,89063,,,,,Yes,,37.9170986,15.7805634
452,10452,"Ospedale ""Vittorio Emanuele II""",,,Sicilia,,,,,,,,37.6746696,12.7958473
453,10453,"Ospedale ""Vittorio Emanuele III""",,,Sicilia,,,,,,,,37.82947,12.8025946
454,10454,Ospedale A. G. Mastino,,,Sardegna,,,,,,,,40.3012517,8.4951224
455,10455,Ospedale A. Galateo Di San Cesario,,San Cesario di Lecce,Puglia,73016,,,,,,,40.3057443,18.1577639
456,10456,Ospedale Alessandro Manzoni,Via dell'Eremo 9;11,Lecco,Lombardia,23900,,,,,Yes,,45.8512528,9.4156046
457,10457,Ospedale Alto Vicentino - ULSS 7 Pedemontana,Via Garziere 42,Santorso,Veneto,36014,,,,,,,45.7288895,11.4149154
458,10458,Ospedale Amedeo di Savoia,,Torino,Piemonte,10123,,,,,,,45.087886,7.6578164
459,10459,"Ospedale Amico ""Gaetano Fucito""",,Mercato San Severino,Campania,84085,,,,,Yes,,40.7749736,14.7455299
460,10460,Ospedale Andosilla di Civita Castellana,,Civita Castellana,Lazio,01033,,,,,Yes,,42.2899572,12.4210978
461,10461,Ospedale Andrea Gallino,Via Ospedale Andrea Gallino 5,Genova,Liguria,16164,,+39 010 849 11,,,Yes,,44.4997787,8.899776
462,10462,Ospedale Antonio Cardarelli,Via Antonio Cardarelli 9,Napoli,Campania,80131,,+39 081 7471111,,,Yes,,40.8685022,14.2267491
463,10463,Ospedale Antonio Cardarelli,,Campobasso,Molise,86100,,+39 0874 4091,,,,,41.5481117,14.6207445
464,10464,Ospedale Antonio Segni,,,Sardegna,,,,,,Yes,,40.5812974,9.0018276
465,10465,Ospedale Antonio e Carlo Cartoni,,Rocca Priora,Lazio,00079,,,,,,,41.7944365,12.7568003
466,10466,Ospedale Arnaboldi,,Broni,Lombardia,27043,,,,,,,45.0675936,9.2643052
467,10467,Ospedale Asilo Vittoria,,Mortara,Lombardia,27036,,,,,,,45.2518789,8.7541579
468,10468,Ospedale Bambin Gesù,Lungomare Guglielmo Marconi 39,Santa Marinella,Lazio,00058,,,,,No,,42.0329527,11.8502907
469,10469,Ospedale Bambin Gesù,Lungomare Guglielmo Marconi 39,Santa Marinella,Lazio,00058,,,,,,,42.0320871,11.8507842
470,10470,Ospedale Bambino Gesù,,Roma,Lazio,00153,,,,,Yes,,41.8961081,12.4602073
471,10471,Ospedale Barone Lombardo,,,Sicilia,,,,,,,,37.3525208,13.8320941
472,10472,Ospedale Barone Romeo,Via Giuseppe Mazzini nan,,Sicilia,,,,,,Yes,,38.1418455,14.9686285
473,10473,Ospedale Bassini,Via Gorki 50,Cinisello Balsamo,Lombardia,20092,,+39 02 57991,,,Yes,,45.5477766,9.2152374
474,10474,Ospedale Beauregard,Via Vaccari nan,Aosta,Valle D'aosta,11100,,,,,,,45.7429536,7.3404748
475,10475,Ospedale Belcolle,Strada Sammartinese nan,Viterbo,Lazio,01100,,+39 0761 3391,,,Yes,,42.3952429,12.1222508
476,10476,Ospedale Bellaria,,Bologna,,40141,,,,,,,44.4637839,11.3887955
477,10477,Ospedale Bernardo Nagar,,Pantelleria,Sicilia,91017,,,,,,,36.8351409,11.945003
478,10478,Ospedale Biancavilla,,,Sicilia,,,,,,,,37.6458551,14.870639
479,10479,Ospedale Buccheri La Ferla Fatebenefratelli,,,Sicilia,,,,,,,,38.1056051,13.3835917
480,10480,Ospedale Busacca,,,Sicilia,,,,,,Yes,,36.7932845,14.6994521
481,10481,Ospedale C. Borella,,Giussano,Lombardia,20833,,,,,,,45.6922691,9.2068937
482,10482,Ospedale C.T.O.,,,Sardegna,,,,,,Yes,,39.3095331,8.5241275
483,10483,Ospedale CTO,,Torino,Piemonte,10126,,,,,Yes,,45.0340302,7.67562
484,10484,Ospedale CTO Andrea Alesini,,Roma,Lazio,00145,,,,,Yes,,41.8573448,12.4852176
485,10485,Ospedale Ca' Foncello,,Treviso,Veneto,31100,,,,,No,,45.6593237,12.2551481
486,10486,Ospedale Caimi,Via Caimi 21,Vailate,Lombardia,26019,,,,,No,,45.4622915,9.6030147
487,10487,Ospedale Camerino - San Maria della Pietà,,Camerino,Marche,62032,,,,,Yes,,43.1275593,13.0492011
488,10488,Ospedale Capilupi,,,Campania,,,,,,,,40.5498049,14.2370555
489,10489,Ospedale Cardinal Massaia,,Asti,Piemonte,14100,,,,,Yes,,44.9123218,8.1936234
490,10490,Ospedale Carle,Via Antonio Carle 5,Cuneo,Piemonte,12100,,,,,No,,44.3901757,7.5188226
491,10491,Ospedale Carlo Ondoli,Via Bordini 9,Angera,Lombardia,21021,,,,,Yes,,45.7761629,8.5797009
492,10492,Ospedale Casa della Salute Regina Margherita,,Castelfranco Emilia,,41013,,,,,,,44.5976105,11.0476493
493,10493,Ospedale Ceccarini,,Riccione,,47838,,,,,Yes,,43.9961846,12.6504616
494,10494,Ospedale Cesare Magati,Viale Martiri della Libertà 8,Scandiano,,42019,,,,,Yes,,44.5985057,10.6904139
495,10495,Ospedale Cesare Zonchello,,,Sardegna,,,+39 0784 240237,,,No,,40.3203087,9.3162943
496,10496,Ospedale Chiarenzi,,Zevio,Veneto,37059,,,,,,,45.3761888,11.1312592
497,10497,Ospedale Cingoli,,Cingoli,Marche,62011,,,,,Yes,,43.3717869,13.2175378
498,10498,"Ospedale Civico ""Abele Ajello""",,,Sicilia,,,,,,Yes,,37.657222,12.5995813
499,10499,"Ospedale Civico ""Conugi Bernardini""",,Palestrina,Lazio,00036,,+39 06 95321,,,Yes,,41.8363007,12.8856271
500,10500,Ospedale Civico Renzetti Lanciano,Via del Mare 1,Lanciano,,66034,,,,,,,42.2298017,14.3960241
501,10501,Ospedale Civico Rossi,,Casalpusterlengo,Lombardia,26841,,,,,,,45.1697897,9.6533261
502,10502,Ospedale Civico di Codogno,Viale Guglielmo Marconi 1,Codogno,Lombardia,26845,,,,,Yes,,45.1593775,9.7104961
503,10503,Ospedale Civico di Settimo Torinese,Via Santa Cristina 3,Settimo Torinese,Piemonte,10036,,,,,,,45.1261434,7.7555722
504,10504,"Ospedale Civico e Benefratelli ""G. Di Cristina"" e ""M. Ascoli""",,,Sicilia,,,,,,Yes,,38.1020768,13.3561785
505,10505,"Ospedale Civico e Benefratelli ""G. Di Cristina"" e ""M. Ascoli""",,,Sicilia,,,,,,No,,38.1029498,13.354879
506,10506,Ospedale Civile,,,Sardegna,,,,,,Yes,,40.5789363,8.3190454
507,10507,Ospedale Civile,Via dei Capitelli 48,Arco,Trentino-alto Adige,38062,,,,,Yes,,45.9192364,10.8738984
508,10508,Ospedale Civile,,Soverato,Calabria,88068,,,,,,,38.6903551,16.5413257
509,10509,Ospedale Civile,,,Sicilia,,,,,,Yes,,36.9189378,14.7282405
510,10510,Ospedale Civile,,Ovada,Piemonte,15076,,,,,Yes,,44.6386253,8.6397299
511,10511,"Ospedale Civile ""Ave Gratia Plena""",,Piedimonte Matese,Campania,81016,,,,,,,41.353097,14.3571112
512,10512,"Ospedale Civile ""Caracciolo""",,Agnone,Molise,86081,,,,,,,41.8107811,14.3760505
513,10513,"Ospedale Civile ""Ferrari""",,Frascineto,Calabria,87010,,,,,Yes,,39.8187654,16.2112391
514,10514,"Ospedale Civile ""Madonna del Soccorso""",,San Benedetto del Tronto,Marche,63074,,,,,Yes,,42.9486534,13.8765191
515,10515,"Ospedale Civile ""Monte Iacoviello""",,Santeramo in Colle,Puglia,70029,,,,,,,40.7958031,16.7578416
516,10516,"Ospedale Civile ""SS. Rosario""",,Venafro,Molise,86079,,,,,Yes,,41.4803003,14.0393043
517,10517,"Ospedale Civile ""San Timoteo""",,Termoli,Molise,86039,,,,,,,41.9893819,14.9914669
518,10518,"Ospedale Civile ""Santa Maria della Misericordia""",Piazzale Santa Maria della Misericordia 15,Udine,Friuli-venezia Giulia,33100,,,,,Yes,,46.0760682,13.2245309
519,10519,Ospedale Civile - ULSS 7 Pedemontana,,Asiago,Veneto,36012,,,,,,,45.8624291,11.5229272
520,10520,Ospedale Civile FR5,,Ceccano,Lazio,03023,,,,,,,41.5704786,13.3401802
521,10521,Ospedale Civile Giuseppe Mazzini,,Teramo,,64100,,,,,Yes,,42.667225,13.7124845
522,10522,Ospedale Civile Giuseppe Sambiasi,,Nardò,Puglia,73048,,,,,,,40.1715988,18.0342748
523,10523,Ospedale Civile Ivrea,,Ivrea,Piemonte,10015,,,,,Yes,,45.467212,7.8724633
524,10524,Ospedale Civile Maggiore,Piazzale Aristide Stefani 1,Verona,Veneto,37124,,,,,Yes,,45.4527652,10.9867159
525,10525,Ospedale Civile Nicola Giannettasio,,Corigliano-Rossano,Calabria,87064,,,,,,,39.597231,16.6373982
526,10526,Ospedale Civile Pasquale Del Prete Pontecorvo,,Pontecorvo,Lazio,03037,,,,,,,41.4603108,13.6668558
527,10527,Ospedale Civile San Giovanni di Dio,,Crotone,Calabria,88900,,,,,Yes,,39.0788935,17.1187685
528,10528,Ospedale Civile Sanremo,,Sanremo,Liguria,18038,,,,,Yes,,43.8225528,7.7794866
529,10529,Ospedale Civile Santa Maria,Viale Tristano di Joannuccio nan,Terni,Umbria,05100,,+39 0744 2051,,,Yes,,42.5555382,12.6577011
530,10530,Ospedale Civile Santa Maria,Viale Tristano di Joannuccio nan,Terni,Umbria,05100,,+39 0744 2051,,,Yes,,42.5555382,12.6577011
531,10531,Ospedale Civile Santa Maria Regina degli Angeli,,Adria,Veneto,45011,,,,,Yes,,45.0481121,12.0550668
532,10532,Ospedale Civile Santi Antonio e Biagio e Cesare Arrigo,,Alessandria,Piemonte,15121,,,,,Yes,,44.9162583,8.6234215
533,10533,Ospedale Civile Santo Spirito,Via Fonte Romana 8,Pescara,,65121,,,,,Yes,,42.4650366,14.1989789
534,10534,Ospedale Civile Ss. Annunziata,,,Sardegna,,,,,,Yes,,40.7174814,8.5545699
535,10535,Ospedale Civile Umberto I,,Fasano,Puglia,72015,,,,,Yes,,40.8332568,17.3566489
536,10536,Ospedale Civile Vittorio Emanuele,Via Palazzi 173,,Sicilia,,,,,,Yes,,37.0727375,14.230401
537,10537,Ospedale Civile di Boscotrecase,Via Lenze nan,Trecase,Campania,80040,,+39 081 535 21 11,,,Yes,,40.7660293,14.4510336
538,10538,Ospedale Civile di Busca,,Busca,Piemonte,12022,,,,,,,44.5146381,7.4712794
539,10539,Ospedale Civile di Canosa di Puglia,,Canosa di Puglia,Puglia,76012,,,,,Yes,,41.2266277,16.0708278
540,10540,Ospedale Civile di Castellamonte,,Castellamonte,Piemonte,10081,,,,,No,,45.3800807,7.7085031
541,10541,Ospedale Civile di Ciriè,,Ciriè,Piemonte,10073,,,,,Yes,,45.2362951,7.5991647
542,10542,Ospedale Civile di Giaveno,,Giaveno,Piemonte,10094,,,,,,,45.0427541,7.3557488
543,10543,Ospedale Civile di Latisana,Via Sabbionera 45,Latisana,Friuli-venezia Giulia,33053,,,,,Yes,,45.7697208,13.0018003
544,10544,Ospedale Civile di Lipari,,Lipari,Sicilia,98050,,+39 090 9885929,,,Yes,,38.4622996,14.9546271
545,10545,Ospedale Civile di Mirano,,Mirano,Veneto,30035,,,,,,,45.4993052,12.1099699
546,10546,Ospedale Civile di Montebelluna,Via Palmiro Togliatti 1,Montebelluna,Veneto,31044,,,,,Yes,,45.7778956,12.0369567
547,10547,Ospedale Civile di Montefiascone,Via Donatori di Sangue nan,Montefiascone,Lazio,01027,,+39 0761 8331,,,,,42.5366564,12.0311869
548,10548,Ospedale Civile di Norcia,Via dell'Ospedale s.n.c.,Norcia,Umbria,06046,,,,,Yes,,42.7898798,13.0956053
549,10549,Ospedale Civile di Norcia,,Norcia,Umbria,06046,,,,,,,42.7898798,13.0956053
550,10550,Ospedale Civile di Saluzzo,,Saluzzo,Piemonte,12037,,,,,Yes,,44.6429135,7.4941584
551,10551,Ospedale Civile di Tagliacozzo Umberto I,,Tagliacozzo,,67069,,,,,,,42.0718443,13.2555772
552,10552,Ospedale Civile di Teano,,Teano,Campania,81057,,,,,,,41.2499785,14.0665815
553,10553,Ospedale Civile di Thiesi,,,Sardegna,,,,,,,,40.5236861,8.7148292
554,10554,"Ospedale Civile di Vicenza ""San Bortolo""",Viale Ferdinando Rodolfi 37,Vicenza,Veneto,36100,,,,,,,45.5562291,11.5485397
555,10555,"Ospedale Civile di Vicenza ""San Bortolo""",,Vicenza,Veneto,36100,,,,,,,45.5571335,11.543188
556,10556,Ospedale Civile di Voghera,,Voghera,Lombardia,27058,,,,,Yes,,44.9947981,9.0176063
557,10557,Ospedale Civile di Volta Mantovana s.r.l.,,Volta Mantovana,Lombardia,46049,,,,,No,,45.3234166,10.6556796
558,10558,Ospedale Civitanova Marche,Via Pietro Ginevri 1,Civitanova Marche,Marche,62012,,,,,Yes,,43.3079118,13.6946143
559,10559,Ospedale Clinicizzato Santissima Annunziata,Via dei Vestini nan,Chieti,,66100,,+3908713571,,,Yes,,42.365552,14.1501279
560,10560,Ospedale Codivilla-Putti,,Cortina d'Ampezzo,Veneto,32043,,,,,,,46.5581507,12.1341943
561,10561,Ospedale Codivilla-Putti,,Cortina d'Ampezzo,Veneto,32043,,,,,Yes,,46.5544362,12.1322097
562,10562,Ospedale Costantino Cantu`,,Abbiategrasso,Lombardia,20081,,,,,Yes,,45.3942397,8.911316
563,10563,Ospedale Cristo Re,,Roma,Lazio,00168,,,,,,,41.918589,12.4214675
564,10564,Ospedale Dario Camberlingo,,Francavilla Fontana,Puglia,72021,,,,,,,40.5387601,17.5785883
565,10565,Ospedale De Luca e Rossano,,Vico Equense,Campania,80069,,,,,,,40.6608913,14.4258029
566,10566,Ospedale De Santis,,Genzano di Roma,Lazio,00045,,,,,,,41.7045815,12.6796758
567,10567,Ospedale Delmati,,Sant'Angelo Lodigiano,Lombardia,26866,,,,,No,,45.2301781,9.4137128
568,10568,Ospedale Di Caprino Veronese,,Caprino Veronese,Veneto,37013,,,,,Yes,,45.6088781,10.7961688
569,10569,Ospedale Di Gugliemo,,Bisaccia,Campania,83044,,,,,,,41.0075551,15.3559319
570,10570,Ospedale Di Summa,Via Consolazione 12,Brindisi,Puglia,72100,,,,,,,40.635017,17.9321988
571,10571,Ospedale Di Venere,Via Ospedale di Venere 150,Bari,Puglia,70131,,,,,Yes,,41.0746514,16.8641982
572,10572,Ospedale Don Tonino Bello,,Molfetta,Puglia,70056,,,,,,,41.1908002,16.5914303
573,10573,Ospedale Emanuele Muscatello,,,Sicilia,,,+39 0931 989111,,,Yes,,37.2457212,15.2325766
574,10574,Ospedale Engles Profili,,Fabriano,Marche,60044,,,,,,,43.3415969,12.9065838
575,10575,Ospedale Enrico Albanese,,,Sicilia,,,,,,,,38.1510611,13.3713236
576,10576,Ospedale Enrico Mattei,,Matelica,Marche,62024,,,,,,,43.2454554,13.0086946
577,10577,Ospedale Ercole Franchini,,Montecchio Emilia,,42027,,,,,,,44.7078636,10.4485804
578,10578,Ospedale Eugenio Morelli,Via Ausonio Zubiani 33,Sondalo,Lombardia,23035,,+39 0342 808 111,,,Yes,,46.3327478,10.3333023
579,10579,Ospedale Evangelico Valdese,,Torino,Piemonte,10125,,,,,,,45.0578146,7.684539
580,10580,Ospedale Fatebenefratelli,,Napoli,Campania,80123,,,,,,,40.8164889,14.1992551
581,10581,Ospedale Ferdinando Veneziale,Via Sant'Ippolito 1,Isernia,Molise,86170,,+39 0965 4421,,,Yes,,41.5827258,14.2207894
582,10582,Ospedale Ferro Capra Branciforti,,,Sicilia,,,,,,,,37.6536666,14.4111522
583,10583,Ospedale Figlie di San Camillo,,Cremona,Lombardia,26100,,,,,,,45.1457123,10.0101658
584,10584,Ospedale Filippo Del Ponte,,Varese,Lombardia,21100,,,,,Yes,,45.8159977,8.8336275
585,10585,Ospedale Fratelli Crobu,,,Sardegna,,,,,,No,,39.327696,8.5318117
586,10586,Ospedale G. Criscuoli,,Sant'Angelo dei Lombardi,Campania,83054,,,,,,,40.9315616,15.1615644
587,10587,Ospedale G. F. Ingrassia,,,Sicilia,,,,,,,,38.0909158,13.3092867
588,10588,Ospedale G. Salvini,,Cesate,Lombardia,20020,,,,,,,45.5834928,9.0930794
589,10589,Ospedale G.A. Alivesi,,,Sardegna,,,,,,,,40.6009599,8.5656587
590,10590,Ospedale G.B. Hodierna,,,Sicilia,,,,,,,,36.9198791,14.7304669
591,10591,Ospedale G.P. Delogu,Corso Umberto I 176,,Sardegna,,,,,,,,40.121006,8.8344472
592,10592,Ospedale Gaetano Pini,,Milano,Lombardia,20122,,,,,,,45.454192,9.1944261
593,10593,Ospedale Galliera,,Genova,Liguria,16128,,,,,,,44.401476,8.9404009
594,10594,Ospedale Garibaldi Presidio San Luigi - Santi Currò,,,Sicilia,,,,,,,,37.5228788,15.0740482
595,10595,Ospedale Ginecologico-Ostetrico Sant'Anna,,Torino,Piemonte,10126,,,,,,,45.0363063,7.6735958
596,10596,Ospedale Giovanni Battista Grassi,Via Giancarlo Passeroni 28,Roma,Lazio,00122,,+39 06 56481,,,Yes,,41.7293501,12.2993427
597,10597,Ospedale Giovanni Da Procida,,Salerno,Campania,84123,,,,,,,40.689953,14.7691256
598,10598,Ospedale Giovanni Paolo II,,,Sicilia,,,,,,,,36.9060396,14.6807018
599,10599,Ospedale Giovanni Paolo II,,,Sardegna,,,,,,Yes,,40.9141093,9.4718396
600,10600,Ospedale Giovanni Paolo II,,,Sicilia,,,,,,Yes,,37.5261517,13.0713057
601,10601,Ospedale Girolamo Frà Castoro,Via delle Fontane 5,San Bonifacio,Veneto,37047,,,,,Yes,,45.390466,11.2792801
602,10602,Ospedale Giuseppe Fornaroli,Via al donatore di sangue 50,Magenta,Lombardia,20013,,+39 02 979631,,,Yes,,45.4717693,8.8916496
603,10603,Ospedale Giustinian,,,Veneto,,,,,,,,45.4315424,12.3220103
604,10604,Ospedale Gravina,,,Sicilia,,,,,,,,37.2233823,14.5159919
605,10605,Ospedale Guadagna,,,Sicilia,,,,,,,,38.0955658,13.3643298
606,10606,Ospedale Infantile Burlo Garofolo,Via dell'Istria 65,Trieste,Friuli-venezia Giulia,34144,,,,,,,45.6351847,13.7862306
607,10607,Ospedale Infantile Burlo Garofolo,Via dell'Istria 65,Trieste,Friuli-venezia Giulia,34144,,,,,,,45.6362071,13.7842609
608,10608,Ospedale Infantile Cesare Arrigo,Spalto Marengo 46,Alessandria,Piemonte,15121,,,,,Yes,,44.9158899,8.6249342
609,10609,Ospedale Infantile Regina Margherita,,Torino,Piemonte,10126,,,,,,,45.0340302,7.67562
610,10610,Ospedale Infermi Rimini,,Rimini,,47923,,,,,Yes,,44.0453819,12.5850808
611,10611,Ospedale Israelitico,Via Fulda 14,Roma,Lazio,00185,,+3906602911,,,No,,41.8357737,12.4281808
612,10612,Ospedale Israelitico Roma,,,Lazio,,,,,,,,41.8907365,12.4780693
613,10613,Ospedale L. Curto,Via Luigi Curto 84035,Polla,Campania,84035,,+39 0975 373111,,,Yes,,40.5170316,15.5004357
614,10614,Ospedale La Schiana,,Pozzuoli,Campania,80078,,,,,,,40.8488875,14.0735467
615,10615,Ospedale La Schiana,,Pozzuoli,Campania,80078,,,,,,,40.8493307,14.072141
616,10616,Ospedale Leopoldo Parodi Delfino,,Colleferro,Lazio,00034,,,,,Yes,,41.7268717,13.0054276
617,10617,Ospedale Lorenzo Bonomo,,Andria,Puglia,76123,,,,,Yes,,41.2301452,16.303574
618,10618,Ospedale Loreto,,Loreto,Marche,60025,,,,,Yes,,43.436333,13.6081499
619,10619,Ospedale Luigi Sacco,Via Giovanni Battista Grassi 74,Milano,Lombardia,20157,,,,,,,45.5172691,9.1204663
620,10620,Ospedale M. Montessori,Via Fratelli Rosselli 176,Chiaravalle,Marche,60033,,,,,,,43.5982418,13.3147833
621,10621,Ospedale Macedonio Melloni,,Milano,Lombardia,20133,,,,,Yes,,45.4666078,9.2184885
622,10622,Ospedale Macerata,,Macerata,Marche,62100,,,,,Yes,,43.2936425,13.4596346
623,10623,Ospedale Madonna delle Grazie,,Matera,Basilicata,75100,,,,,,,40.6538442,16.610814
624,10624,Ospedale Maggiore,Piazza dell'Ospitale 1,Trieste,Friuli-venezia Giulia,34129,,,,,Yes,,45.6501755,13.7805859
625,10625,Ospedale Maggiore,,Lodi,Lombardia,26900,,,,,,,45.3141112,9.5103651
626,10626,Ospedale Maggiore,,,Sicilia,,,,,,Yes,,36.8391826,14.7645148
627,10627,Ospedale Maggiore Carlo Alberto Pizzardi,Largo Bartolo Nigrisoli 2,Bologna,,40133,,,,,,,44.507528,11.3118679
628,10628,Ospedale Maggiore Parma,,Parma,,43126,,,,,,,44.7979118,10.308288
629,10629,Ospedale Maria Adelaide,,Torino,Piemonte,10152,,,,,,,45.0759016,7.6938735
630,10630,Ospedale Maria Immacolata Longo,,,Sicilia,,,,,,,,37.585189,13.7473628
631,10631,Ospedale Maria Paternò Arezzo,,,Sicilia,,,,,,,,36.9214417,14.7424131
632,10632,Ospedale Maria SS. dello Splendore,,Giulianova,,64021,,,,,,,42.7459549,13.9606012
633,10633,Ospedale Maria Vittoria,Via Luigi Cibrario 72,Torino,Piemonte,10144,,,,,Yes,,45.0812192,7.6568838
634,10634,Ospedale Marino,,,Sardegna,,,,,,,,39.2137915,9.1749659
635,10635,Ospedale Marino Regina Margherita,Viale I Maggio 2,,Sardegna,,,,,,Yes,,40.5793613,8.3106654
636,10636,Ospedale Martini,,Torino,Piemonte,10141,,,,,Yes,,45.0668875,7.6283471
637,10637,Ospedale Martiri di Villa Malta,,Sarno,Campania,84087,,,,,,,40.8119895,14.6001105
638,10638,Ospedale Mater Salutis,Via Carlo Gianella 1,Legnago,Veneto,37045,,,,,Yes,,45.1870131,11.3150612
639,10639,Ospedale Mauriziano,Largo Filippo Turati 62,Torino,Piemonte,10128,,,,,Yes,,45.0531139,7.665499
640,10640,Ospedale Mauriziano,,Valenza,Piemonte,15048,,,,,,,45.0075907,8.6350198
641,10641,Ospedale Maurizio Bufalini,,Cesena,,47521,,,,,Yes,,44.1337319,12.2591287
642,10642,Ospedale Maurizio Bufalini,,Cesena,,47521,,,,,Yes,,44.1343616,12.2582666
643,10643,Ospedale Mauro Scarlato,,Scafati,Campania,84018,,,,,,,40.7553856,14.525519
644,10644,Ospedale Michele Sarcone,,Terlizzi,Puglia,70038,,,,,,,41.1306188,16.5358279
645,10645,Ospedale Microcitemico,,,Sardegna,,,,,,,,39.2465761,9.1127285
646,10646,Ospedale Militare,,Chieti,,66100,,,,,,,42.3435676,14.1657313
647,10647,Ospedale Militare Amerigo Demurtas,,,Sardegna,,,,,,,,39.2188202,9.1115193
648,10648,Ospedale Militare Celio,,Roma,Lazio,00185,,,,,,,41.8874514,12.4962176
649,10649,Ospedale Militare di Padova,,Padova,Veneto,35139,,,,,,,45.415361,11.8706698
650,10650,Ospedale Misericordia di Grosseto,,Grosseto,Toscana,58100,,,,,Yes,,42.7786714,11.1243015
651,10651,Ospedale Molinette,Corso Bramante 88,Torino,Piemonte,10126,,,,,Yes,,45.0421421,7.6726823
652,10652,Ospedale Monaldi,,Napoli,Campania,80133,,,,,,,40.870062,14.2110387
653,10653,Ospedale Monsignor Dimiccoli,,Barletta,Puglia,76121,,,,,Yes,,41.3140565,16.2526873
654,10654,Ospedale Monsignor Giovanni Galliano,Via Fatebenefratelli 1,Acqui Terme,Piemonte,15011,,,,,,,44.6790785,8.450041
655,10655,Ospedale Morgagni-Pierantoni,,Forlì,,47122,,,,,,,44.2038366,12.0201053
656,10656,Ospedale N. Melli,Via Lecce 246,San Pietro Vernotico,Puglia,72027,,,,,Yes,,40.4793441,18.0036413
657,10657,Ospedale Niguarda Cà Granda,,Milano,Lombardia,20162,,,,,Yes,,45.5067906,9.188435
658,10658,Ospedale Nostra Signora della Mercede,,,Sardegna,,,,,,,,39.877543,9.5488929
659,10659,Ospedale Nostra Signora di Bonaria,,,Sardegna,,,,,,,,39.5571502,8.7941739
660,10660,Ospedale Nuovo Regina Margherita,,Roma,Lazio,00153,,,,,,,41.8859361,12.4709915
661,10661,Ospedale Oftalmico,,Roma,Lazio,00136,,,,,,,41.9081631,12.447999
662,10662,Ospedale Oftalmico,,Torino,Piemonte,10123,,,,,Yes,,45.074282,7.6712457
663,10663,Ospedale Oncologico Armando Businco,,,Sardegna,,,,,,,,39.2448743,9.1140083
664,10664,Ospedale Orlandi,Via Ospedale nan,Bussolengo,Veneto,37012,,+39 045 6712111,,,,,45.4763468,10.8478073
665,10665,Ospedale Padre Antero Micone,,Genova,Liguria,16154,,,,,,,44.4319579,8.8505245
666,10666,Ospedale Padre Pio,Via Santa Lucia nan,Bracciano,Lazio,00062,,+39 06 998901,,,,,42.0965442,12.1704662
667,10667,Ospedale Paolo Borsellino,,,Sicilia,,,,,,,,37.795984,12.5002305
668,10668,Ospedale Paolo Dettori,,,Sardegna,,,,,,,,40.8966054,9.102715
669,10669,Ospedale Pediatrico Bambino Gesù,,Roma,Lazio,00145,,,,,,,41.8574447,12.4764858
670,10670,Ospedale Pediatrico Bambino Gesù,,Roma,Lazio,00145,,,,,,,41.8569515,12.474083
671,10671,Ospedale Pediatrico Giannina Gaslini,,Genova,Liguria,16148,,,,,,,44.3929046,8.9862676
672,10672,Ospedale Pediatrico Giovanni XXIII,,Bari,Puglia,70122,,,,,,,41.0992151,16.8860317
673,10673,Ospedale Piero Palagi,,Firenze,Toscana,50125,,,,,,,43.7561995,11.2707494
674,10674,Ospedale Ponte Nuovo,,Firenze,Toscana,50127,,,,,,,43.8121066,11.2494341
675,10675,Ospedale Ramazzini,,Carpi,,41012,,,,,,,44.7872682,10.87986
676,10676,Ospedale Recanati Santa Lucia,,Recanati,Marche,62019,,,,,Yes,,43.3969132,13.5507037
677,10677,Ospedale Regina Margherita,,,Sicilia,,,,,,,,36.9592457,14.6075598
678,10678,Ospedale Regina Montis Regalis,,Mondovì,Piemonte,12084,,,,,Yes,,44.3919466,7.8010468
679,10679,"Ospedale Regionale ""Ca'Foncello""",,Treviso,Veneto,31100,,,,,Yes,,45.6575199,12.2639538
680,10680,Ospedale Riabilitativo di Motta di Livenza,,Motta di Livenza,Veneto,31045,,,,,,,45.7738405,12.5988219
681,10681,Ospedale Riccardo Guzzardi,,,Sicilia,,,,,,Yes,,36.9542955,14.5443996
682,10682,Ospedale Ruffini,,Finale Ligure,Liguria,17024,,,,,,,44.1726977,8.3404052
683,10683,Ospedale S. M. Angeli,,Putignano,Puglia,70017,,,,,Yes,,40.8516429,17.1171278
684,10684,Ospedale Sacra Famiglia Fatebenefratelli,,Erba,Lombardia,22036,,,,,Yes,,45.8173948,9.2259215
685,10685,Ospedale Sacro Cuore di Gesù Fatebenefratelli,Viale Principe di Napoli 14A,Benevento,Campania,82100,,,,,No,,41.1363934,14.7731123
686,10686,Ospedale San Antonio,Via Trento Trieste 2,San Daniele del Friuli,Friuli-venezia Giulia,33038,,,,,Yes,,46.1553059,13.0077603
687,10687,Ospedale San Biagio,,Domodossola,Piemonte,28845,,,,,Yes,,46.116512,8.2857289
688,10688,Ospedale San Bruno,,Serra San Bruno,Calabria,89822,,,,,,,38.5763877,16.3213064
689,10689,Ospedale San Camillo,,Trento,Trentino-alto Adige,38122,,,,,,,46.0648716,11.1315591
690,10690,Ospedale San Camillo,,,Sardegna,,,,,,,,40.0217482,9.1002003
691,10691,Ospedale San Camillo De Lellis,,Manfredonia,Puglia,71043,,,,,Yes,,41.6335799,15.9173762
692,10692,Ospedale San Candido - Krankenhaus Innichen,Via Freising 2,San Candido,Trentino-alto Adige,39038,,+39 0474 917111,,,Yes,,46.7338168,12.2843508
693,10693,Ospedale San Carlo,,Genova,Liguria,16158,,,,,Yes,,44.4299288,8.7460374
694,10694,Ospedale San Carlo Borromeo,,Milano,Lombardia,20153,,,,,,,45.4661074,9.1129607
695,10695,Ospedale San Filippo Neri,,Roma,Lazio,00135,,,,,,,41.9493389,12.4131273
696,10696,Ospedale San Francesco,Via Salvatore Mannironi nan,,Sardegna,,,+39 0784 240237,,,Yes,,40.3260708,9.3172357
697,10697,Ospedale San Francesco,,Barga,Toscana,55051,,,,,,,44.0709383,10.480687
698,10698,Ospedale San Gerardo,Via Giovanni Battista Pergolesi 33,Monza,Lombardia,20900,,+39 039 2331,,,Yes,,45.6004665,9.2599226
699,10699,Ospedale San Giacomo,,Novi Ligure,Piemonte,15067,,,,,Yes,,44.7591613,8.7925758
700,10700,Ospedale San Giacomo,,Monopoli,Puglia,70043,,,,,,,40.9493754,17.2975406
701,10701,Ospedale San Giacomo,,,Sicilia,,,,,,,,37.1067274,13.9262976
702,10702,Ospedale San Giovanni Battista,,Zagarolo,Lazio,00039,,,,,,,41.8409143,12.8291147
703,10703,Ospedale San Giovanni Battista,,Lonigo,Veneto,36045,,,,,,,45.3841225,11.3948055
704,10704,Ospedale San Giovanni Bosco,Via Filippo Maria Briganti 255,Napoli,Campania,80144,,,,,Yes,,40.8722932,14.2753401
705,10705,Ospedale San Giovanni Bosco,,Torino,Piemonte,10154,,,,,Yes,,45.0982643,7.7004757
706,10706,Ospedale San Giovanni Evangelista,Via Antonio Parrozzani 3,Tivoli,Lazio,00019,,+39 07743164332,,,Yes,,41.9599035,12.8017974
707,10707,Ospedale San Giovanni di Dio,,,Sardegna,,,,,,Yes,,40.9315662,9.5020553
708,10708,Ospedale San Giovanni di Dio,,,Sicilia,,,,,,Yes,,37.3514962,13.6093503
709,10709,Ospedale San Giovanni di Dio,,,Sardegna,,,,,,Yes,,39.2227203,9.1124673
710,10710,Ospedale San Giovanni di Dio,,Orbetello,Toscana,58015,,,,,,,42.4472111,11.2355769
711,10711,Ospedale San Giuliano,Viale Piazza d'Armi 1,Novara,Piemonte,28100,,,,,,,45.435501,8.62852
712,10712,Ospedale San Giuseppe,,,Sardegna,,,,,,,,39.7429103,9.1105304
713,10713,Ospedale San Giuseppe,,Cairo Montenotte,Liguria,17014,,,,,Yes,,44.4019667,8.2698295
714,10714,Ospedale San Giuseppe,Via San Vittore 12,Milano,Lombardia,20123,,+32 02 85991,,,Yes,,45.4641287,9.1715329
715,10715,Ospedale San Giuseppe,,Empoli,Toscana,50053,,,,,Yes,,43.7224871,10.9312052
716,10716,Ospedale San Giuseppe,,Albano Laziale,Lazio,00041,,,,,Yes,,41.7285921,12.6438361
717,10717,Ospedale San Giuseppe Moscati,Via per Martina Franca nan,Taranto,Puglia,74123,,+39 099 4585111,,,Yes,,40.5387228,17.2759404
718,10718,Ospedale San Giuseppe Moscati,Via Antonio Gramsci 1,Aversa,Campania,81031,,+39 081 5001111,,,,,40.9585092,14.2087699
719,10719,Ospedale San Giuseppe da Copertino,,Copertino,Puglia,73043,,,,,Yes,,40.2794043,18.0459077
720,10720,Ospedale San Giuseppe e Melorio,,Santa Maria Capua Vetere,Campania,81055,,,,,Yes,,41.0768513,14.2622708
721,10721,Ospedale San Jacopo,,Pistoia,Toscana,51100,,,,,Yes,,43.9192108,10.9051725
722,10722,Ospedale San Lazzaro,Via Pietrino Belli 26,Alba,Piemonte,12051,,,,,Yes,,44.699127,8.0303866
723,10723,Ospedale San Leonardo,,Castellammare di Stabia,Campania,80053,,,,,Yes,,40.7028239,14.4893306
724,10724,Ospedale San Leopoldo Mandic,Largo Beato Leopoldo Mandic 1,Merate,Lombardia,23807,,,,,Yes,,45.6974223,9.4255933
725,10725,Ospedale San Liberatore,,Atri,,64032,,,,,Yes,,42.5779199,13.9853971
726,10726,Ospedale San Lorenzo,Via Galileo Galilei 1,Valdagno,Veneto,36078,,,,,,,45.6465751,11.3089649
727,10727,Ospedale San Lorenzo,Via Galileo Galilei 1,Valdagno,Veneto,36078,,,,,Yes,,45.6468517,11.3074528
728,10728,Ospedale San Luca,Viale Professor Ugo Grisetti 265,Trecenta,Veneto,45027,,,,,,,45.0289557,11.4644446
729,10729,Ospedale San Luca,,Lucca,Toscana,55100,,,,,,,43.8437602,10.53024
730,10730,Ospedale San Luca,Via Francesco Cammarota 1,Castelnuovo Cilento,Campania,84040,,+39 0974 7111111,,,Yes,,40.2258861,15.261867
731,10731,Ospedale San Luigi,,Orbassano,Piemonte,10043,,,,,,,45.0266228,7.5526371
732,10732,Ospedale San Marcellino,,,Sardegna,,,,,,Yes,,39.4203783,9.5695659
733,10733,Ospedale San Martino,,Genova,Liguria,16132,,,,,Yes,,44.4102832,8.9769798
734,10734,Ospedale San Martino,Viale Europa 22,Belluno,Veneto,32100,,,,,,,46.1401469,12.2037589
735,10735,Ospedale San Massimo,,Penne,,65017,,,,,,,42.4597988,13.9218644
736,10736,Ospedale San Matteo degli Infermi,Via Loreto nan,Spoleto,Umbria,06049,,+39 0743 2101,,,Yes,,42.7327569,12.7250134
737,10737,Ospedale San Matteo degli Infermi,Via Loreto 3,Spoleto,Umbria,06049,,+39 0743 2101,,,Yes,,42.7327569,12.7250134
738,10738,Ospedale San Michele,Piazzale Alessandro Ricchi 1,,Sardegna,,,,,,,,39.2507898,9.1090346
739,10739,Ospedale San Nicolò,Via Nostra Signora della Guardia nan,Levanto,Liguria,19015,,,,,,,44.1763756,9.6195371
740,10740,Ospedale San Pancrazio,,Arco,Trentino-alto Adige,38062,,,,,,,45.9159427,10.8797388
741,10741,Ospedale San Paolo,Largo Donatori del Sangue nan,Civitavecchia,Lazio,00053,,,,,,,42.0990318,11.8102914
742,10742,Ospedale San Paolo,Strada Capo Scardicchio 92,Bari,Puglia,70132,,,,,,,41.1176031,16.7807934
743,10743,Ospedale San Paolo,,Bari,Puglia,70122,,,,,Yes,,41.1187957,16.7804087
744,10744,Ospedale San Paolo,,Savona,Liguria,17100,,+39 019 84041,,,,,44.3193645,8.4898561
745,10745,Ospedale San Paolo,,Milano,Lombardia,20142,,+39 02 81 841,,,Yes,,45.4342311,9.1588582
746,10746,Ospedale San Pellegrino di Castiglione,Via Napoleone III 81,Castiglione delle Stiviere,Lombardia,46043,,,,,,,45.3900186,10.4939333
747,10747,Ospedale San Pietro Fatebenefratelli,Via Cassia 600,Roma,Lazio,00185,,+39 06 33581,,,,,41.9641582,12.4501977
748,10748,Ospedale San Pietro Igneo,,Fucecchio,Toscana,50054,,,,,,,43.730436,10.8076158
749,10749,Ospedale San Pio da Pietrelcina,,Vasto,,66054,,,,,Yes,,42.1186368,14.7098562
750,10750,Ospedale San Raffaele,,Velletri,Lazio,00049,,,,,,,41.7022054,12.7567813
751,10751,Ospedale San Raffaele,Via Olgettina 60,Milano,Lombardia,20132,,,,,Yes,,45.5036287,9.2633957
752,10752,Ospedale San Rocco,,Galliate,Piemonte,28066,,,,,,,45.4824945,8.703967
753,10753,Ospedale San Salvatore di Pesaro sede Muraglia,Via Cesare Lombroso nan,Pesaro,Marche,61121,,,,,No,,43.8907221,12.9250876
754,10754,Ospedale San Salvatore di Pesaro sede centrale,Piazzale Carlo Cinelli 4,Pesaro,Marche,61121,,,,,Yes,,43.9083008,12.9059964
755,10755,Ospedale San Sebastiano,Via Mandriolo Superiore 11,Correggio,,42015,,,,,,,44.7767569,10.7834403
756,10756,Ospedale San Sebastiano di Frascati,Via Tuscolana 2,Frascati,Lazio,00044,,,,,Yes,,41.8089591,12.6745499
757,10757,Ospedale San Sebastiano di Frascati,,Frascati,Lazio,00044,,,,,,,41.8121869,12.6737371
758,10758,Ospedale San Severino Bartolomeo Eustachio,,San Severino Marche,Marche,62027,,+39 0733 6421,,,Yes,,43.2357904,13.1870214
759,10759,Ospedale San Vincenzo,Contrada Sirina nan,,Sicilia,,,,,,Yes,,37.8461811,15.2782482
760,10760,Ospedale Sandro Pertini,via dei Monti Tiburtini 385,Roma,Lazio,00157,,+39 06 41431,,,Yes,,41.9189166,12.5382256
761,10761,Ospedale Sant'Alfonso Maria de' Liguori,,Sant'Agata de' Goti,Campania,82019,,,,,,,41.1058469,14.5085826
762,10762,Ospedale Sant'Andrea,Corso Mario Abbiate 21,Vercelli,Piemonte,13100,,,,,,,45.3179737,8.4147363
763,10763,Ospedale Sant'Andrea,Viale del Risorgimento 43,Massa Marittima,Toscana,58024,,,,,Yes,,43.0436207,10.8903008
764,10764,Ospedale Sant'Andrea,,La Spezia,Liguria,19121,,,,,Yes,,44.1122916,9.829715
765,10765,Ospedale Sant'Andrea,,Roma,Lazio,00185,,,,,,,41.9814604,12.4721865
766,10766,Ospedale Sant'Anna,Via dell'Ospedale Consorziale 17,Ronciglione,Lazio,01037,,+39 0761 651 254; 800 692 911,,,Yes,,42.2926392,12.2111995
767,10767,Ospedale Sant'Anna di Como,,Montano Lucino,Lombardia,22070,,,,,Yes,,45.7918837,9.0466002
768,10768,Ospedale Sant'Antonio,,Sassello,Liguria,17046,,,,,,,44.4778801,8.4876273
769,10769,Ospedale Sant'Antonio,Via Jacopo Facciolati 71,Padova,Veneto,35127,,,,,designated,,45.392348,11.8920099
770,10770,Ospedale Sant'Antonio Abate,,Cantù,Lombardia,22063,,,,,Yes,,45.7395677,9.1391303
771,10771,Ospedale Sant'Eugenio,Piazzale dell'Umanesimo 10,Roma,Lazio,00144,,,,,Yes,,41.8220985,12.4710852
772,10772,Ospedale Sant'Orsola,,Brescia,Lombardia,25123,,,,,Yes,,45.5357776,10.2161973
773,10773,Ospedale Sant'Ottone Frangipane,,Ariano Irpino,Campania,83031,,,,,,,41.1488603,15.0837151
774,10774,Ospedale Santa Barbara,,,Sardegna,,,,,,Yes,,39.31614,8.5383659
775,10775,Ospedale Santa Caterina Novella,,Galatina,Puglia,73013,,,,,Yes,,40.1771568,18.157346
776,10776,Ospedale Santa Croce,,Moncalieri,Piemonte,10024,,,,,Yes,,45.0013483,7.6895952
777,10777,Ospedale Santa Croce,,Castelnuovo di Garfagnana,Toscana,55032,,,,,Yes,,44.1130106,10.4144593
778,10778,Ospedale Santa Croce,Via Michele Coppino 26,Cuneo,Piemonte,12100,,+39 0171 641111,,,Yes,,44.3864323,7.5366094
779,10779,Ospedale Santa Croce,Via Vittorio Veneto 2,Fano,Marche,61032,,,,,Yes,,43.8381485,13.0207095
780,10780,Ospedale Santa Maria Annunziata,,Bagno a Ripoli,Toscana,50012,,,,,Yes,,43.7323934,11.3044942
781,10781,Ospedale Santa Maria Bianca,,Mirandola,,41037,,,,,,,44.8840365,11.0659495
782,10782,Ospedale Santa Maria Goretti,,Latina,Lazio,04100,,,,,,,41.4600454,12.9079238
783,10783,Ospedale Santa Maria degli Angeli,Via Montereale 24,Pordenone,Friuli-venezia Giulia,33170,,,,,Yes,,45.9707185,12.6509689
784,10784,Ospedale Santa Maria dei Laici,Via dell'Ospedale 18,Amelia,Umbria,05022,,+39 0744 9011,,,Yes,,42.5593007,12.4115973
785,10785,Ospedale Santa Maria dei Laici,Via dell'Ospedale 18,Amelia,Umbria,05022,,+39 0744 9011,,,Yes,,42.5593007,12.4115973
786,10786,Ospedale Santa Maria del Carmine,,Rovereto,Trentino-alto Adige,38068,,,,,landing_site,,45.88245,11.0417728
787,10787,Ospedale Santa Maria della Pace,,Monte San Savino,Toscana,52048,,,,,,,43.3323582,11.7228906
788,10788,Ospedale Santa Maria di Loreto Mare,Via Luigi Einaudi 10,Napoli,Campania,80142,,,,,Yes,,40.8467754,14.2723975
789,10789,Ospedale Santa Marta e Santa Venera,,,Sicilia,,,,,,,,37.6166917,15.1427085
790,10790,Ospedale Santa Verdiana,,Castelfiorentino,Toscana,50051,,,,,,,43.6101044,10.9699918
791,10791,Ospedale Santi Benvenuto e Rocco,Via Leopardi 15,Osimo,Marche,60027,,+39 071 71301,,,Yes,,43.4850904,13.4869006
792,10792,Ospedale Santi Giovanni e Paolo,,,Veneto,,,,,,Yes,,45.439165,12.3453802
793,10793,Ospedale Santi Nicola e Filippo Avezzano,,Avezzano,,67051,,,,,Yes,,42.0537588,13.4270008
794,10794,Ospedale Santissima Trinità,,Romano di Lombardia,Lombardia,24058,,,,,Yes,,45.5197902,9.7490002
795,10795,Ospedale Santissima Trinità,,Sora,Lazio,03039,,,,,Yes,,41.7292992,13.6310374
796,10796,Ospedale Santissima Trinità,,,Sardegna,,,,,,,,39.2369401,9.1058218
797,10797,Ospedale Santissimo Salvatore,,,Sicilia,,,,,,,,37.9286626,14.3582214
798,10798,Ospedale Santissimo Salvatore,,San Giovanni in Persiceto,,40017,,,,,Yes,,44.6340885,11.1929356
799,10799,Ospedale Santo Spirito,Via Vittorio Emanuele II 3,Bra,Piemonte,12042,,,,,Yes,,44.7032682,7.8490935
800,10800,Ospedale Santo Stefano,Via Suor Niccolina 20,Prato,Toscana,59100,,,,,Yes,,43.8894055,11.062073
801,10801,Ospedale Sant’Agostino–Estense,,Modena,,41121,,,,,,,44.6066856,10.8685818
802,10802,Ospedale Serbelloni - Gorgonzola,Via Vincenzo Bellini 1,Gorgonzola,Lombardia,20064,,,,,,,45.5348573,9.4111096
803,10803,Ospedale Serristori,,Figline e Incisa Valdarno,Toscana,50063,,,,,Yes,,43.6122957,11.4750577
804,10804,Ospedale Simiani di Loiano,,Loiano,,40050,,,,,Yes,,44.2671917,11.3248644
805,10805,Ospedale Sirai,,,Sardegna,,,,,,,,39.1861886,8.5093766
806,10806,Ospedale Spaziani,,Frosinone,Lazio,03100,,,,,,,41.6367077,13.3221516
807,10807,"Ospedale Specializzato ""Luigi Spolverini""",Via delle Cerquette 2,Ariccia,Lazio,00072,,+39 06 932 71,,,,,41.7226125,12.6756973
808,10808,Ospedale Teresa Masselli Mascia,Via Teresa Masselli 28,San Severo,Puglia,71016,,,,,,,41.689833,15.3828093
809,10809,Ospedale Tortona,,Tortona,Piemonte,15057,,,,,,,44.8938272,8.863072
810,10810,Ospedale Trabattoni e Ronzoni,Via Giuseppe Verdi 2,Seregno,Lombardia,20831,,,,,,,45.6537665,9.2048282
811,10811,Ospedale Uboldo,Via Ambrogio Uboldo nan,Cernusco sul Naviglio,Lombardia,20063,,,,,Yes,,45.5234411,9.3301356
812,10812,Ospedale Umberto I,,Nocera Inferiore,Campania,84014,,,,,,,40.744381,14.6500483
813,10813,Ospedale Umberto I,,,Sicilia,,,,,,Yes,,37.0731162,15.2830326
814,10814,Ospedale Umberto I,,Corato,Puglia,70033,,,,,,,41.1465951,16.4235836
815,10815,Ospedale Umberto I,Viale Dante Alighieri 10,Lugo,,48022,,,,,Yes,,44.4165464,11.9214213
816,10816,Ospedale Umberto I,,Altamura,Puglia,70022,,,,,Yes,,40.832304,16.5512362
817,10817,Ospedale Umberto I,,,Sicilia,,,,,,,,37.5652728,14.2725735
818,10818,Ospedale Umberto I,,Mottola,Puglia,74017,,,,,,,40.6351361,17.0281331
819,10819,Ospedale Umberto I (presidio Alessandro Rizza),,,Sicilia,,,,,,No,,37.0817318,15.2706592
820,10820,Ospedale Unico Avola-Noto (Presidio G. Trigona),,,Sicilia,,,,,,Yes,,36.903519,15.0684946
821,10821,Ospedale Unico Avola-Noto (Presidio Giuseppe Di Maria),,,Sicilia,,,,,,Yes,,36.9251838,15.158802
822,10822,Ospedale V. Emanuele II,,Bisceglie,Puglia,76011,,,,,,,41.2431082,16.4892435
823,10823,Ospedale Val Vibrata Sant'Omero,,Sant'Omero,,64027,,,,,,,42.7934822,13.7997184
824,10824,Ospedale Valdese,Via Matteo Gay 34,Torre Pellice,Piemonte,10066,,,,,No,,44.8191226,7.2051375
825,10825,Ospedale Valduce,,Como,Lombardia,22100,,,,,Yes,,45.8112778,9.0867972
826,10826,Ospedale Valli del Noce,Via Alcide Degasperi 31,Cles,Trentino-alto Adige,38023,,,,,,,46.3607011,11.0321228
827,10827,Ospedale Vecchio,,Lodi,Lombardia,26900,,,,,,,45.3135578,9.5094009
828,10828,Ospedale Vecchio di Montebelluna,Via Sant'Andrea nan,Montebelluna,Veneto,31044,,,,,No,,45.7706717,12.0338095
829,10829,Ospedale Versilia,Strada Statale Aurelia 335,Camaiore,Toscana,55041,,+39 0584 6051,,,,,43.9155843,10.2223826
830,10830,Ospedale Villa Beretta,,Costa Masnaga,Lombardia,23845,,,,,,,45.7707879,9.2696418
831,10831,Ospedale Villa Scassi,Corso Onofrio Scassi 1,Genova,Liguria,16149,,,,,Yes,,44.4127058,8.8962747
832,10832,Ospedale Villamarina,,Piombino,Toscana,57025,,,,,Yes,,42.9407593,10.5103926
833,10833,Ospedale Vincenzo Cervello,,,Sicilia,,,,,,Yes,,38.1534417,13.3150601
834,10834,Ospedale Vittorio Emanuele II,,Amandola,Marche,63857,,,,,,,42.9825985,13.3636295
835,10835,Ospedale Vittorio Emanuele III,Viale Mosè Bianchi 9,Carate Brianza,Lombardia,20841,,+39 0362 9841,,,Yes,,45.6693945,9.2463307
836,10836,Ospedale città di Sesto San Giovanni,Viale Giacomo Matteotti 83,Sesto San Giovanni,Lombardia,20099,,,,,,,45.5367615,9.2253385
837,10837,Ospedale civico di Partinico,,,Sicilia,,,+39 091 8911111,,,Yes,,38.0376359,13.1165285
838,10838,"Ospedale civile ""Francesco Pentimalli""",,Palmi,Calabria,89015,,,,,,,38.3622272,15.8550428
839,10839,Ospedale civile San Martino,,,Sardegna,,,,,,,,39.8980035,8.5866733
840,10840,Ospedale civile di Isola della Scala,Via Roma 60,Isola della Scala,Veneto,37063,,,,,,,45.2678423,11.00746
841,10841,Ospedale de Carità Onlus,,Taggia,Liguria,18018,,,,,,,43.844746,7.8499737
842,10842,Ospedale degli Infermi,,San Miniato,Toscana,56028,,,,,,,43.6810976,10.8616325
843,10843,Ospedale degli Infermi,,Faenza,,48018,,,,,Yes,,44.2883908,11.8736171
844,10844,"Ospedale dei Bambini ""Vittore Buzzi""",Via Lodovico Castelvetro 28,Milano,Lombardia,20154,,+39 02 57995359,,,,,45.4849727,9.1665402
845,10845,Ospedale dei Castelli,,Ariccia,Lazio,00072,,,,,Yes,,41.6794146,12.6476023
846,10846,Ospedale dei Pellegrini,Via Portamedina alla Pignasecca 41,Napoli,Campania,80134,,+39 081 2543410,,,,,40.8475534,14.2471647
847,10847,Ospedale del Cadore Giovanni Paolo II,,Pieve di Cadore,Veneto,32044,,,,,Yes,,46.4318031,12.3770542
848,10848,Ospedale del Cuore,,Montignoso,Toscana,54038,,,,,,,44.0186438,10.155251
849,10849,Ospedale dell'Alta Val d'Elsa,,Poggibonsi,Toscana,53036,,,,,,,43.4498688,11.1467315
850,10850,Ospedale dell'Angelo,,Venezia,Veneto,30174,,,,,,,45.5129422,12.2207781
851,10851,Ospedale della Gruccia,,San Giovanni Valdarno,Toscana,52027,,,,,,,43.54616,11.5513066
852,10852,"Ospedale della Murgia ""Fabio Perinei""","Strada Statale 96 Altamura – Gravina in Puglia Km. 73,800Altamura – Gravina in Puglia Km 73,800",Altamura,Puglia,70022,,,,,Yes,,40.8199799,16.4680764
853,10853,"Ospedale della Murgia ""Fabio Perinei""","Strada Statale 96 Altamura – Gravina in Puglia Km. 73,800Altamura – Gravina in Puglia Km 73,800",Altamura,Puglia,70022,,,,,Yes,,40.8201694,16.4684957
854,10854,"Ospedale della Valdichiana ""Santa Margherita""",,Cortona,Toscana,52044,,,,,,,43.2789419,11.923265
855,10855,Ospedale della Valdinievole,,Pescia,Toscana,51017,,,,,Yes,,43.9025404,10.6900701
856,10856,Ospedale di Arzignano,,Arzignano,Veneto,36071,,,,,Yes,,45.5266763,11.3317125
857,10857,Ospedale di Asolo - ULSS 2 Marca Trevigiana,,Asolo,Veneto,31011,,,,,,,45.796247,11.9128312
858,10858,Ospedale di Assisi,Via Valentin Muller 1,Assisi,Umbria,06081,,+39 075 81391,,,Yes,,43.0641493,12.6217709
859,10859,Ospedale di Auronzo di Cadore,,Auronzo di Cadore,Veneto,32041,,,,,,,46.5538056,12.4389512
860,10860,Ospedale di Avigliana,Via Sant'Agostino 5,Avigliana,Piemonte,10051,,,,,No,,45.0756438,7.4032865
861,10861,Ospedale di Bentivoglio,Via Guglielmo Marconi 35,Bentivoglio,,40010,,,,,,,44.6343938,11.4173907
862,10862,Ospedale di Bentivoglio,,Bentivoglio,,40010,,,,,Yes,,44.633895,11.416275
863,10863,Ospedale di Bollate,,Bollate,Lombardia,20021,,,,,Yes,,45.5396843,9.1181856
864,10864,Ospedale di Bolzano - Krankenhaus Bozen,,Bolzano,Trentino-alto Adige,39100,,+39 0471 908111,,,Yes,,46.4987671,11.3067086
865,10865,Ospedale di Borgosesia,,Borgosesia,Piemonte,13011,,,,,,,45.7127279,8.2604677
866,10866,Ospedale di Borgosesia,,Borgosesia,Piemonte,13011,,,,,,,45.71265,8.2604868
867,10867,Ospedale di Budrio,,Budrio,,40054,,,,,Yes,,44.5354044,11.5345868
868,10868,"Ospedale di Calcinate ""F.M. Passi""",Piazza Ospedale 3,Calcinate,Lombardia,24050,,,,,Yes,,45.6197584,9.7983646
869,10869,Ospedale di Campizzi,,Mesoraca,Calabria,88838,,,,,,,39.0931846,16.7906912
870,10870,Ospedale di Camposampiero,,Camposampiero,Veneto,35012,,,,,,,45.5636433,11.9293587
871,10871,Ospedale di Caprino Veronese,,Caprino Veronese,Veneto,37013,,,,,,,45.609226,10.7963034
872,10872,Ospedale di Carrara,,Carrara,Toscana,54033,,,,,,,44.0797546,10.1038859
873,10873,Ospedale di Castel San Pietro Terme,,Castel San Pietro Terme,,40024,,,,,Yes,,44.3990529,11.5917662
874,10874,Ospedale di Circolo - Fondazione Macchi,Viale Luigi Borri nan,Varese,Lombardia,21100,,,,,,,45.807425,8.8406071
875,10875,Ospedale di Circolo - Rho,Corso Europa 250,Rho,Lombardia,20017,,,,,Yes,,45.5337104,9.0332586
876,10876,Ospedale di Conselve,,Conselve,Veneto,35026,,,,,,,45.2335257,11.8706308
877,10877,Ospedale di Cosenza,,Cosenza,Calabria,87100,,,,,,,39.2930884,16.2492029
878,10878,Ospedale di Cuasso al Monte,,Cuasso al Monte,Lombardia,21050,,,,,No,,45.9138803,8.8591316
879,10879,Ospedale di Cuggiono,,Cuggiono,Lombardia,20012,,,,,,,45.5101403,8.8213706
880,10880,Ospedale di Desio,Via Mazzini 1,Desio,Lombardia,20832,,+39 0362 385 610,,,Yes,,45.6276736,9.1942649
881,10881,Ospedale di Dolo,,Dolo,Veneto,30031,,,,,,,45.4242416,12.0722869
882,10882,Ospedale di Edolo,Piazza Donatori di Sangue 1,Edolo,Lombardia,25048,,+39 0364 7721,,,,,46.1783502,10.3305323
883,10883,Ospedale di Fiemme,Via dei Dossi 17,Cavalese,Trentino-alto Adige,38033,,,,,,,46.288582,11.4545996
884,10884,Ospedale di Gardone Val Trompia,Via Papa Giovanni Ventitreesimo 4,Sarezzo,Lombardia,25068,,+39 030 8933273,,,,,45.6752766,10.1838538
885,10885,Ospedale di Gavardo,,Gavardo,Lombardia,25085,,,,,,,45.5886632,10.4400492
886,10886,"Ospedale di Imola ""Santa Maria della Scaletta""",,Imola,,40026,,,,,Yes,,44.36018,11.6907239
887,10887,Ospedale di Imperia,,Imperia,Liguria,18100,,,,,Yes,,43.8910617,8.0310908
888,10888,Ospedale di Leno,Piazzetta Donatori di sangue 1,Leno,Lombardia,25024,,+39 030 90541,,,,,45.3656737,10.2164538
889,10889,Ospedale di Lentini,,,Sicilia,,,,,,Yes,,37.2844324,14.9842109
890,10890,Ospedale di Lissone,Via Monsignore Ennio Bernasconi 16,Lissone,Lombardia,20851,,+39 039 2333931,,,,,45.6214393,9.2372028
891,10891,Ospedale di Maratea,,Maratea,Basilicata,85046,,,,,,,39.9983296,15.7191061
892,10892,Ospedale di Marzana,,Verona,Veneto,37142,,,,,,,45.4992943,11.0166191
893,10893,Ospedale di Montecchio Maggiore,Via Ca' Rotte 9,Montecchio Maggiore,Veneto,36075,,,,,Yes,,45.5092147,11.4008691
894,10894,Ospedale di Naso,,,Sicilia,,,,,,No,,38.1273553,14.7881292
895,10895,Ospedale di Noale,,Noale,Veneto,30033,,,,,Yes,,45.5526184,12.0747669
896,10896,Ospedale di Oderzo,,Oderzo,Veneto,31046,,,,,Yes,,45.7805574,12.4891082
897,10897,Ospedale di Oppido Mamertina,,Oppido Mamertina,Calabria,89014,,,,,,,38.290725,15.9862372
898,10898,Ospedale di Pavullo,,Pavullo nel Frignano,,41026,,,,,Yes,,44.3340651,10.836611
899,10899,Ospedale di Pederobba,,Pederobba,Veneto,31040,,,,,,,45.8779196,11.9493453
900,10900,Ospedale di Pietrasanta,,Pietrasanta,Toscana,55045,,,,,,,43.9604995,10.2299718
901,10901,Ospedale di Portogruaro,,Portogruaro,Veneto,30026,,,,,Yes,,45.7712444,12.8405579
902,10902,Ospedale di Rivoli,Via Rivalta 29,Rivoli,Piemonte,10098,,,,,Yes,,45.0602643,7.5191884
903,10903,Ospedale di Salò,Piazza Sergio Bresciani 5,Salò,Lombardia,25087,,+39 036 53781,,,,,45.605209,10.5222784
904,10904,Ospedale di San Donà di Piave,,San Donà di Piave,Veneto,30027,,,,,,,45.6356946,12.5723315
905,10905,Ospedale di San Giovanni Bianco,,San Giovanni Bianco,Lombardia,24015,,,,,No,,45.8718253,9.6539155
906,10906,Ospedale di Sant'Agostino,Piazza Antonio Gramsci 1,Castiglione del Lago,Umbria,06061,,+39 075 95261,,,Yes,,43.1274644,12.0550528
907,10907,Ospedale di Santa Maria Nuova,,Firenze,Toscana,50122,,,,,Yes,,43.7744039,11.2600648
908,10908,Ospedale di Sant’Anna,,Castelnovo Ne' Monti,,42035,,,,,Yes,,44.4345299,10.4083278
909,10909,Ospedale di Saronno,Piazza don Giuseppe Borella 1,Saronno,Lombardia,21047,,,,,Yes,,45.6315075,9.039601
910,10910,Ospedale di Senigallia,,Senigallia,Marche,60019,,,,,Yes,,43.7153421,13.2092949
911,10911,Ospedale di Soveria Mannelli,,Soveria Mannelli,Calabria,88049,,,,,,,39.0783172,16.3804435
912,10912,Ospedale di Susa,Corso Inghilterra 66,Susa,Piemonte,10059,,+39 0122 621212,,,Yes,,45.1382144,7.0507872
913,10913,Ospedale di Suzzara,Via Generale Cantore 14/B,Suzzara,Lombardia,46029,,+39 03 76 51 74 17,,,Yes,,44.9866296,10.7527079
914,10914,Ospedale di Taurianova,,Taurianova,Calabria,89029,,,,,,,38.3532322,16.0057632
915,10915,"Ospedale di Tradate ""Luigi Galmarini""",,Tradate,Lombardia,21049,,,,,,,45.7189205,8.9008932
916,10916,Ospedale di Tropea,,Tropea,Calabria,89861,,,,,,,38.6678239,15.8788292
917,10917,Ospedale di Vaio,,Fidenza,,43036,,,,,Yes,,44.847493,10.0397918
918,10918,Ospedale di Vallecamonica,,Esine,Lombardia,25040,,,,,,,45.9271024,10.2443638
919,10919,Ospedale di Vaprio d'Adda,,Vaprio d'Adda,Lombardia,20069,,,,,,,45.5742631,9.5274406
920,10920,Ospedale di Villa d'Agri,Viale S. Pio da Pietrelcina nan,Marsicovetere,Basilicata,85050,,+39 0975 312111,,,Yes,,40.3616592,15.8268645
921,10921,Ospedale di Vimercate,Via Santi Cosma e Damiano 10,Vimercate,Lombardia,20871,,,,,Yes,,45.6085456,9.3591507
922,10922,Ospedale e Casa di Riposo Nobile Paolo Richiedei,Via Paolo Richiedei 16,Gussago,Lombardia,25064,,+39 030 25281,,,,,45.5905943,10.151866
923,10923,Ospedale ex Mauriziano di Lanzo,Via Marchese della Rocca nan,Lanzo Torinese,Piemonte,10074,,,,,Yes,,45.2763814,7.4870118
924,10924,Ospedale generale di zona San Camillo,,Treviso,Veneto,31100,,,,,,,45.6746686,12.2507423
925,10925,Ospedale nuovo di Legnano,Via Giovanni Paolo II 3,Legnano,Lombardia,20025,,+39 0331 449111,,,Yes,,45.5828241,8.8877114
926,10926,Ospedale pediatrico Meyer,,Firenze,Toscana,50127,,,,,,,43.8095428,11.254233
927,10927,Ospedale provinciale Camillo de Lellis,Kennedy nan,Rieti,Lazio,02100,,+39 0746 2781,,,Yes,,42.4236829,12.9059537
928,10928,Ospedale unificato Broni-stradella,,Stradella,Lombardia,27049,,,,,Yes,,45.0769274,9.2846591
929,10929,Ospedale vecchio - Polo Sanitario territoriale,Viale Giovanni Amendola 8,Imola,,40026,,+39 0542 604111,,,No,,44.3538766,11.7055499
930,10930,Ospedale vecchio di Legnano,Via Cesare Candiani 2,Legnano,Lombardia,20025,,,,,No,,45.5939685,8.9318076
931,10931,Ospedale «Maria SS. Immacolata» - Guardiagrele,,Guardiagrele,,66016,,,,,Yes,,42.2006038,14.2180114
932,10932,Ospedale “Sant'Antonio Abate”,Via Ospedale 1,Fivizzano,Toscana,54013,,,,,,,44.2397162,10.1317684
933,10933,Ospedaletto,,,Sardegna,,,,,,,,40.5692013,9.6847245
934,10934,"Ospedali Riuniti ""Bianchi Melacrino Morelli""",,Reggio di Calabria,Calabria,89124,,,,,Yes,,38.1134609,15.6572473
935,10935,"Ospedali Riuniti Padova Sud ""Madre Teresa di Calcutta""",Via Albere nan,Este,Veneto,35042,,,,,Yes,,45.2059761,11.7206234
936,10936,Ospedali Riuniti Valdichiana Senese,,Montepulciano,Toscana,53045,,,,,,,43.1201979,11.8245699
937,10937,Ospedali Riuniti di Foggia,Viale Luigi Pinto nan,Foggia,Puglia,71121,,,,,Yes,,41.4563209,15.5214729
938,10938,Ospedali Riuniti di Foggia,,Foggia,Puglia,71121,,,,,,,41.4578975,15.5218918
939,10939,Ospedali Villa Sofia Cervello,,,Sicilia,,,,,,,,38.1546195,13.3380931
940,10940,P.O. Maresca,,Somma Vesuviana,Campania,80049,,,,,Yes,,40.8021304,14.3832747
941,10941,P.O. Maria Santissima Addolorata,Piazza Scuola medica Salernitana nan,Eboli,Campania,84025,,+39 0828 362111,,,,,40.6187637,15.0497676
942,10942,PAD.25 Rasori,,Parma,,43126,,,,,,,44.7985321,10.3096043
943,10943,Padiglione 17 - C.R.T.,,Varese,Lombardia,21100,,,,,,,45.7988646,8.8485579
944,10944,Padiglione Allende,Via Carlo Forlanini 34,Forlì,,47121,,,,,,,44.2065345,12.0176261
945,10945,Palazzetto prelievi,Via Marcantonio Ducco nan,Brescia,Lombardia,25123,,,,,,,45.5546441,10.2305256
946,10946,Pediatra Panin,Viale della Scienza 26,Rovigo,Veneto,45100,,,,,,,45.0520492,11.7782803
947,10947,Piccole Figlie Hospital,,Parma,,43124,,,,,,,44.7895618,10.3192155
948,10948,Pio X,,Milano,Lombardia,20159,,,,,,,45.4953053,9.1888969
949,10949,Poli ambulatorio,,San Benedetto Po,Lombardia,46027,,,,,,,45.040413,10.9280022
950,10950,Poliambulatori - Asst Mantova,,Mantova,Lombardia,46100,,,,,,,45.1638259,10.7895818
951,10951,Poliambulatorio,,Pontebba,Friuli-venezia Giulia,33016,,,,,,,46.506934,13.3024948
952,10952,Poliambulatorio,Via Vittorio Veneto 74,Tarvisio,Friuli-venezia Giulia,33018,,,,,,,46.5029351,13.5759034
953,10953,Poliambulatorio,,,Sardegna,,,,,,,,39.8988813,8.5889864
954,10954,Poliambulatorio - Sede ASL,,Certosa di Pavia,Lombardia,27012,,,,,,,45.2544799,9.1289036
955,10955,Poliambulatorio ASL,,Crotone,Calabria,88900,,,,,No,,39.078504,17.1318512
956,10956,Poliambulatorio ASL,Via IV Novembre 21,Pianezza,Piemonte,10044,,,,,,,45.1000691,7.5468308
957,10957,Poliambulatorio Giovanni Paolo II,,San Giovanni Rotondo,Puglia,71013,,,,,,,41.7084175,15.7015104
958,10958,Poliambulatorio Le Forna,,Ponza,Lazio,04027,,,,,,,40.9097912,12.9568144
959,10959,Poliambulatorio Librino,,,Sicilia,,,,,,,,37.4918528,15.0438644
960,10960,Poliambulatorio Morgagni (CUP),Viale Giovan Battista Morgagni 33,Firenze,Toscana,50127,,,,,No,,43.798522,11.2424177
961,10961,Poliambulatorio Orosei,,,Sardegna,,,+39 0784 999117,,,,,40.3775291,9.6922874
962,10962,Poliambulatorio Villa Iris,Via Cesare Pavese 12,Pianezza,Piemonte,10044,,+39 0119682282,,,,,45.1049554,7.5512279
963,10963,Poliambulatorio di Muro Lucano,Via San Biagio 116,Muro Lucano,Basilicata,85054,,,,,Yes,,40.7558918,15.4962892
964,10964,Poliambulatorio e Ospedale civile,Via Ospedale nan,Racconigi,Piemonte,12035,,,,,,,44.7663136,7.678212
965,10965,"Policlinico ""Giambattista Rossi""",Piazzale Ludovico Antonio Scuro 10,Verona,Veneto,37134,,,,,Yes,,45.4014269,10.9911928
966,10966,Policlinico (Nuove aule),,,Sicilia,,,,,,,,38.1030474,13.3608199
967,10967,Policlinico Casilino,Via Casilina 1049,Roma,Lazio,00169,,06 231881,,,Yes,,41.8679375,12.5904366
968,10968,Policlinico Città di Udine Polo 1,,Udine,Friuli-venezia Giulia,33100,,,,,No,,46.0523989,13.2107345
969,10969,Policlinico Italia,,Roma,Lazio,00162,,,,,,,41.9161999,12.5231498
970,10970,Policlinico Madonna della consolazione,,Reggio di Calabria,Calabria,89125,,,,,,,38.114557,15.6621495
971,10971,Policlinico San Marco,,Venezia,Veneto,30171,,,,,,,45.4933209,12.2489336
972,10972,Policlinico San Pietro,,Ponte San Pietro,Lombardia,24036,,,,,,,45.6986843,9.5746017
973,10973,Policlinico Santa Maria alle Scotte,Viale Mario Bracci 16,Siena,Toscana,53100,,+39 0577 585111,,,Yes,,43.3430877,11.3274357
974,10974,Policlinico Sassarese,,,Sardegna,,,,,,Yes,,40.7211478,8.557756
975,10975,Policlinico Tor Vergata,,Roma,Lazio,00133,,,,,,,41.8587168,12.6318335
976,10976,Policlinico Universitario,,,Sardegna,,,,,,No,,39.2709721,9.1271068
977,10977,Policlinico Universitario Agostino Gemelli,,Roma,Lazio,00136,,,,,Yes,,41.9286315,12.4305345
978,10978,Policlinico Universitario Campus Bio-Medico,,Roma,Lazio,00128,,,,,,,41.7700581,12.4728924
979,10979,Policlinico Universitario Gaetano Martino,,,Sicilia,,,,,,Yes,,38.1636295,15.5380459
980,10980,Policlinico Universitario Umberto I,,Roma,Lazio,00161,,,,,Yes,,41.9042571,12.5111179
981,10981,Policlinico di Bari,Piazza Giulio Cesare 11,Bari,Puglia,70122,,,,,Yes,,41.1147406,16.8599782
982,10982,Policlinico di Modena,,Modena,,41121,,,,,Yes,,44.6323094,10.941391
983,10983,Policlinico di Monza,Via Carlo Amati 111,Monza,Lombardia,20900,,+39 039 28101,,,,,45.5826342,9.2932616
984,10984,Polo Emergenze Finale Emilia,Via per Modena 48b,Finale Emilia,,41034,,,,,ambulance_station,,44.8385585,11.2755539
985,10985,Polo Logistico di Protezione Civile,Via Cascina del Gallo 5,Bussoleno,Piemonte,10053,,,,,,,45.1408949,7.1340589
986,10986,Polo Sanitario di Medicina,,Medicina,,40059,,,,,No,,44.4743304,11.6354801
987,10987,Polo riabilitativo Istituto Gaetano Pini,,Milano,Lombardia,20127,,,,,,,45.507581,9.220464
988,10988,Posto di Primo Soccorso,,Ladispoli,Lazio,00055,,,,,,,41.9695459,12.0806217
989,10989,Presentazione,,Loano,Liguria,17025,,,,,,,44.1238168,8.2503191
990,10990,Presidio Integrato Ospedale Territorio San Marcello Pistoiese,,San Marcello Piteglio,Toscana,51028,,,,,,,44.0562808,10.7880441
991,10991,Presidio Marzio Marini,,Magliano Sabina,Lazio,02046,,,,,,,42.3712827,12.4917659
992,10992,Presidio Medico,,Castelnuovo del Garda,Veneto,37014,,,,,Yes,,45.4583825,10.7132353
993,10993,"Presidio Ospedaliero ""A. Perrino""",,Brindisi,Puglia,72100,,,,,,,40.6232651,17.9131863
994,10994,"Presidio Ospedaliero ""De Gironcoli""",,Conegliano,Veneto,31015,,,,,,,45.8789576,12.2935481
995,10995,"Presidio Ospedaliero ""S.S. Salvatore"" Azienda U.S.L. n.3 Catania",,,Sicilia,,,,,,Yes,,37.5721967,14.8975916
996,10996,Presidio Ospedaliero Amiata Grossetana,,Castel del Piano,Toscana,58033,,,,,Yes,,42.8904947,11.5339417
997,10997,Presidio Ospedaliero Amiata Val d'Orcia,,Abbadia San Salvatore,Toscana,53021,,,,,Yes,,42.8833644,11.6744378
998,10998,Presidio Ospedaliero Angelo Bellini,Via Ospedale 3,Somma Lombardo,Lombardia,21019,,,,,,,45.6834215,8.7138414
999,10999,Presidio Ospedaliero Giovanni Paolo II,Via Senatore Arturo Perugini nan,Lamezia Terme,Calabria,88046,,+39 0968 2081,,,Yes,,38.9591661,16.3039505
1000,11000,"Presidio Ospedaliero IRCCS San Matteo ""Ugo Dozzio""",,Belgioioso,Lombardia,27011,,,,,,,45.1567946,9.312936
1001,11001,Presidio Ospedaliero Pausillipon,,Napoli,Campania,80123,,,,,,,40.8128557,14.2050691
1002,11002,Presidio Ospedaliero San Bartolomeo,,Sarzana,Liguria,19038,,,,,,,44.1217676,9.9507958
1003,11003,Presidio Ospedaliero San Giuseppe Albano,,Albano Laziale,Lazio,00041,,,,,,,41.7286474,12.645505
1004,11004,Presidio Ospedaliero Sant'Antonio Abate,,,Sicilia,,,,,,,,38.0283957,12.548845
1005,11005,Presidio Ospedaliero Santa Maria dell'Olmo,,Cava de' Tirreni,Campania,84013,,,,,Yes,,40.6948689,14.7104304
1006,11006,Presidio Ospedaliero Territoriale di Morbegno,Via Morelli 1,Morbegno,Lombardia,23017,,,,,ambulance_station,,46.132982,9.5728908
1007,11007,Presidio Ospedaliero Valle d'Itria,Piazza San Francesco da Paola 1,Martina Franca,Puglia,74015,,,,,Yes,,40.7058883,17.3429
1008,11008,Presidio Ospedaliero dell'Immacolata,,Sapri,Campania,84073,,,,,Yes,,40.0698372,15.6172822
1009,11009,Presidio Ospedaliero di Conegliano,Via Brigata Bisagno 4,Conegliano,Veneto,31015,,+39 0438 663111,,,,,45.8823072,12.2910819
1010,11010,Presidio Ospedaliero di Trebisacce,,Trebisacce,Calabria,87075,,,,,,,39.8739444,16.5352638
1011,11011,Presidio Ospedaliero di Vittorio Veneto,,Vittorio Veneto,Veneto,31029,,,,,Yes,,45.9880067,12.3234597
1012,11012,Presidio Ospedaliero di Vizzolo Predabissi,,Dresano,Lombardia,20070,,,,,Yes,,45.3596521,9.3389365
1013,11013,Presidio San Giovanni Antica Sede,,Torino,Piemonte,10123,,,,,No,,45.0634687,7.688674
1014,11014,Presidio Sanitario Gradenigo,,Torino,Piemonte,10153,,+39 011 8151211,,,Yes,,45.0700057,7.7066787
