,USPS,ST,NAME,ZCTA5,LAT,LON
0,Banskobystrický Kraj,BC,Jakub,974 01,48.7681,19.1363
1,Banskobystrický Kraj,BC,Horná Mičiná,974 01,48.6989,19.2144
2,Banskobystrický Kraj,BC,Šalková,974 01,48.7378,19.2174
3,Banskobystrický Kraj,BC,Prostredná Môlča,974 01,48.7157,19.2283
4,Banskobystrický Kraj,BC,Horná Môlča,974 01,48.7075,19.2371
5,Banskobystrický Kraj,BC,Majer,974 01,48.7351,19.1793
6,Banskobystrický Kraj,BC,Kostiviarska,974 01,48.7572,19.1425
7,Banskobystrický Kraj,BC,Uľanka,974 01,48.7844,19.1124
8,Banskobystrický Kraj,BC,Bečov,974 01,48.6511,19.2414
9,Banskobystrický Kraj,BC,Sebedín,974 01,48.6338,19.2407
10,Banskobystrický Kraj,BC,Čačín,974 01,48.6668,19.255
11,Banskobystrický Kraj,BC,Špania Dolina,974 01,48.8075,19.1341
12,Banskobystrický Kraj,BC,Čerín,974 01,48.6607,19.2454
13,Banskobystrický Kraj,BC,Podlavice,974 01,48.742,19.1058
14,Banskobystrický Kraj,BC,Dolná Môlča,974 01,48.721,19.2229
15,Banskobystrický Kraj,BC,Riečka,974 01,48.7562,19.0768
16,Banskobystrický Kraj,BC,"Polkanová (č.d.1,2,3",974 01,48.7247,19.1846
17,Banskobystrický Kraj,BC,Kynceľová,974 01,48.7499,19.1857
18,Banskobystrický Kraj,BC,Skubín,974 01,48.7376,19.1045
19,Banskobystrický Kraj,BC,Senica,974 01,48.7498,19.1895
20,Banskobystrický Kraj,BC,Nemce,974 01,48.7622,19.1853
21,Banskobystrický Kraj,BC,Môlča,974 01,48.7247,19.1846
22,Banskobystrický Kraj,BC,Dolná Mičiná,974 01,48.6754,19.2223
23,Banskobystrický Kraj,BC,Sebedín - Bečov,974 01,48.7247,19.1846
24,Banskobystrický Kraj,BC,Horné Pršany,974 05,48.6996,19.0833
25,Banskobystrický Kraj,BC,Radvaň,974 05,48.7224,19.1344
26,Banskobystrický Kraj,BC,Kremnička,974 05,48.6967,19.1276
27,Banskobystrický Kraj,BC,Malachov,974 05,48.7103,19.0897
28,Banskobystrický Kraj,BC,Kráľová,974 05,48.7178,19.1336
29,Banskobystrický Kraj,BC,Iliaš,974 05,48.7005,19.1435
30,Banskobystrický Kraj,BC,Rakytovce,974 05,48.7079,19.1187
31,Banskobystrický Kraj,BC,Rudlová,974 11,48.7536,19.162
32,Banskobystrický Kraj,BC,Sásová,974 11,48.7546,19.157
33,Banskobystrický Kraj,BC,Staré Hory,976 02,48.8391,19.1148
34,Banskobystrický Kraj,BC,Jergaly,976 02,48.8391,19.1148
35,Banskobystrický Kraj,BC,Dolný Jelenec,976 02,48.8391,19.1148
36,Banskobystrický Kraj,BC,Horný Jelenec,976 02,48.8391,19.1148
37,Banskobystrický Kraj,BC,Valentová,976 02,48.8391,19.1148
38,Banskobystrický Kraj,BC,Turecká,976 02,48.8391,19.1148
39,Banskobystrický Kraj,BC,Motyčky,976 02,48.8391,19.1148
40,Banskobystrický Kraj,BC,Štubne,976 02,48.8391,19.1148
41,Banskobystrický Kraj,BC,Polkanová (ostat.č.),976 02,48.8391,19.1148
42,Banskobystrický Kraj,BC,Harmanec,976 03,48.8218,19.0333
43,Banskobystrický Kraj,BC,Dolný Harmanec,976 03,48.8218,19.0333
44,Banskobystrický Kraj,BC,Baláže,976 11,48.814,19.1957
45,Banskobystrický Kraj,BC,Selce,976 11,48.7626,19.203
46,Banskobystrický Kraj,BC,Priechod,976 11,48.7831,19.2354
47,Banskobystrický Kraj,BC,Podkonice,976 13,48.7999,19.2575
48,Banskobystrický Kraj,BC,Slovenská Ľupča,976 13,48.7653,19.2755
49,Banskobystrický Kraj,BC,Moštenica,976 13,48.8084,19.2905
50,Banskobystrický Kraj,BC,Hronsek,976 31,48.6525,19.1568
51,Banskobystrický Kraj,BC,Vlkanová,976 31,48.6713,19.1461
52,Banskobystrický Kraj,BC,Badín,976 32,48.6638,19.1232
53,Banskobystrický Kraj,BC,Dúbravica,976 33,48.6796,19.2729
54,Banskobystrický Kraj,BC,Poniky,976 33,48.7124,19.2927
55,Banskobystrický Kraj,BC,Ponická Huta,976 33,48.6911,19.3034
56,Banskobystrický Kraj,BC,Ponická Lehôtka,976 33,48.6919,19.2829
57,Banskobystrický Kraj,BC,Oravce,976 33,48.6846,19.2627
58,Banskobystrický Kraj,BC,Tajov,976 34,48.7457,19.0703
59,Banskobystrický Kraj,BC,Králiky,976 34,48.7348,19.0371
60,Banskobystrický Kraj,BC,Kordíky,976 34,48.7718,19.022
61,Banskobystrický Kraj,BC,Jabriková,976 34,48.7457,19.0653
62,Banskobystrický Kraj,BC,"Riečka, ulica Nevoľné",976 34,48.7495,19.0487
63,Banskobystrický Kraj,BC,Hrochoť,976 37,48.6557,19.3128
64,Banskobystrický Kraj,BC,Donovaly,976 39,48.7007,19.1721
65,Banskobystrický Kraj,BC,Strelníky,976 55,48.7229,19.3922
66,Banskobystrický Kraj,BC,Ľubietová,976 55,48.7453,19.361
67,Banskobystrický Kraj,BC,Povrazník,976 55,48.7161,19.3644
68,Banskobystrický Kraj,BC,Lučatín,976 61,48.7828,19.32
69,Banskobystrický Kraj,BC,Hiadeľ,976 61,48.8105,19.3156
70,Banskobystrický Kraj,BC,Brusno,976 62,48.7924,19.3822
71,Banskobystrický Kraj,BC,Brusno - kúpele,976 62,48.796,19.3841
72,Banskobystrický Kraj,BC,Ondrej nad Hronom,976 62,48.7996,19.3861
73,Banskobystrický Kraj,BC,Pohronský Bukovec,976 62,48.796,19.3841
74,Banskobystrický Kraj,BC,Štiavnička,976 81,48.8042,19.5511
75,Banskobystrický Kraj,BC,Medzibrod,976 96,48.7943,19.3537
76,Banskobystrický Kraj,BC,Banská Belá,966 15,48.4747,18.9337
77,Banskobystrický Kraj,BC,Kozelník,966 15,48.5119,18.9974
78,Banskobystrický Kraj,BC,Počúvadlo,969 01,48.366,18.8328
79,Banskobystrický Kraj,BC,Klastava,969 01,48.3252,18.8701
80,Banskobystrický Kraj,BC,Sitnianska,969 01,48.4362,18.8974
81,Banskobystrický Kraj,BC,Dekýš,969 01,48.4,18.7667
82,Banskobystrický Kraj,BC,Banky,969 01,48.4814,18.858
83,Banskobystrický Kraj,BC,Banský Studenec,969 01,48.4489,18.9669
84,Banskobystrický Kraj,BC,Ilija,969 01,48.4192,18.899
85,Banskobystrický Kraj,BC,Beluj,969 01,48.3501,18.8962
86,Banskobystrický Kraj,BC,Štefultov,969 01,48.4391,18.8965
87,Banskobystrický Kraj,BC,Baďan,969 01,48.4078,18.8673
88,Banskobystrický Kraj,BC,Vysoká,969 01,48.412,18.7895
89,Banskobystrický Kraj,BC,Rychňava,969 01,48.4078,18.8673
90,Banskobystrický Kraj,BC,Kysihýbel,969 01,48.4078,18.8673
91,Banskobystrický Kraj,BC,Počúvadl.Jazero,969 01,48.4078,18.8673
92,Banskobystrický Kraj,BC,Svätý Anton,969 72,48.4192,18.9401
93,Banskobystrický Kraj,BC,Prenčov,969 73,48.3582,18.9247
94,Banskobystrický Kraj,BC,Štiavnické Bane,969 81,48.4394,18.8555
95,Banskobystrický Kraj,BC,Močiar,969 82,48.5419,18.9464
96,Banskobystrický Kraj,BC,Podhorie,969 82,48.5202,18.9327
97,Banskobystrický Kraj,BC,Teplá,969 82,48.4986,18.9191
98,Banskobystrický Kraj,BC,Žakýl,969 82,48.5202,18.9327
99,Banskobystrický Kraj,BC,Mýto pod Ďumbierom,976 44,48.7871,19.5587
100,Banskobystrický Kraj,BC,Osrblie,976 45,48.7561,19.5247
101,Banskobystrický Kraj,BC,Hronec,976 45,48.7976,19.5805
102,Banskobystrický Kraj,BC,Valaská,976 46,48.8076,19.571
103,Banskobystrický Kraj,BC,Bruchačka,976 51,48.7186,19.625
104,Banskobystrický Kraj,BC,Vydrovo,976 52,48.741,19.6546
105,Banskobystrický Kraj,BC,Komov,976 52,48.7419,19.6796
106,Banskobystrický Kraj,BC,Jánošovka,976 52,48.7429,19.6712
107,Banskobystrický Kraj,BC,Krám,976 52,48.7505,19.6291
108,Banskobystrický Kraj,BC,Pusté,976 52,48.7347,19.6868
109,Banskobystrický Kraj,BC,Fajtov,976 52,48.7444,19.6768
110,Banskobystrický Kraj,BC,Čierny Balog,976 52,48.7472,19.6513
111,Banskobystrický Kraj,BC,Dobroč,976 52,48.733,19.7007
112,Banskobystrický Kraj,BC,Medveďovo,976 52,48.7419,19.6687
113,Banskobystrický Kraj,BC,Biele Vody,976 53,48.6228,19.6313
114,Banskobystrický Kraj,BC,Sihla,976 53,48.6572,19.6466
115,Banskobystrický Kraj,BC,Lom nad Rimavicou,976 53,48.6415,19.6495
116,Banskobystrický Kraj,BC,Drábsko,976 53,48.6493,19.6554
117,Banskobystrický Kraj,BC,Javorina,976 53,48.6427,19.6457
118,Banskobystrický Kraj,BC,Vrchslatina,976 53,48.6427,19.6457
119,Banskobystrický Kraj,BC,Kysuca,976 53,48.6427,19.6457
120,Banskobystrický Kraj,BC,Pohronská Polhora,976 56,48.7572,19.7932
121,Banskobystrický Kraj,BC,Michalová,976 57,48.7679,19.7809
122,Banskobystrický Kraj,BC,Predajná,976 63,48.8169,19.4609
123,Banskobystrický Kraj,BC,Gašparovo,976 64,48.8259,19.7408
124,Banskobystrický Kraj,BC,Bacúch,976 64,48.8591,19.8058
125,Banskobystrický Kraj,BC,Podholie,976 64,48.8414,19.7508
126,Banskobystrický Kraj,BC,Braväcovo,976 64,48.8354,19.7584
127,Banskobystrický Kraj,BC,Filipovo,976 64,48.8216,19.7328
128,Banskobystrický Kraj,BC,Beňuš,976 64,48.8288,19.7616
129,Banskobystrický Kraj,BC,Pôbišovo,976 64,48.8354,19.7584
130,Banskobystrický Kraj,BC,Polomka,976 66,48.8523,19.8525
131,Banskobystrický Kraj,BC,Hámor,976 66,48.55,19.85
132,Banskobystrický Kraj,BC,Závadka nad Hronom,976 67,48.8505,19.9115
133,Banskobystrický Kraj,BC,Heľpa,976 68,48.861,19.9692
134,Banskobystrický Kraj,BC,Pohorelská Maša,976 69,48.8459,20.0336
135,Banskobystrický Kraj,BC,Nová Maša,976 69,48.8347,20.0506
136,Banskobystrický Kraj,BC,Švábolka,976 69,48.7791,19.9976
137,Banskobystrický Kraj,BC,Zlatno,976 69,48.5185,19.8191
138,Banskobystrický Kraj,BC,Vaľkovňa,976 69,48.8346,20.0684
139,Banskobystrický Kraj,BC,Pohorelá,976 69,48.8618,20.0162
140,Banskobystrický Kraj,BC,Červená Skala,976 71,48.8206,20.1365
141,Banskobystrický Kraj,BC,Šumiac,976 71,48.8401,20.1297
142,Banskobystrický Kraj,BC,Telgárt,976 73,48.8516,20.1885
143,Banskobystrický Kraj,BC,Jasenie,976 75,48.8388,19.4597
144,Banskobystrický Kraj,BC,Piesok,976 81,48.8,19.5667
145,Banskobystrický Kraj,BC,Podbrezová,976 81,48.8093,19.526
146,Banskobystrický Kraj,BC,Horná Lehota,976 81,48.8333,19.55
147,Banskobystrický Kraj,BC,Skalica,976 81,48.8117,19.5484
148,Banskobystrický Kraj,BC,Chvatimech,976 81,48.8117,19.5484
149,Banskobystrický Kraj,BC,Ráztoka,976 97,48.8203,19.4014
150,Banskobystrický Kraj,BC,Dubová,976 97,48.8156,19.4282
151,Banskobystrický Kraj,BC,Zámostie,976 97,48.8149,19.4406
152,Banskobystrický Kraj,BC,Nemecká,976 97,48.8125,19.4148
153,Banskobystrický Kraj,BC,Lopej,976 98,48.8176,19.4953
154,Banskobystrický Kraj,BC,Dolná Lehota,976 98,48.8335,19.5052
155,Banskobystrický Kraj,BC,Vajsková,976 98,48.8246,19.5033
156,Banskobystrický Kraj,BC,Bujakovo,977 01,48.8206,19.6822
157,Banskobystrický Kraj,BC,Bystrá,977 01,48.85,19.6
158,Banskobystrický Kraj,BC,Jarabá,977 01,48.8892,19.689
159,Banskobystrický Kraj,BC,Predné Halny,977 01,48.8533,19.6571
160,Banskobystrický Kraj,BC,Zadné Halny,977 01,48.8533,19.6571
161,Banskobystrický Kraj,BC,Mazorníkovo,977 03,48.8533,19.6571
162,Banskobystrický Kraj,BC,Vígľaš,962 02,48.5632,19.3029
163,Banskobystrický Kraj,BC,Korytárky,962 04,48.5282,19.4483
164,Banskobystrický Kraj,BC,Kriváň,962 04,48.5282,19.4483
165,Banskobystrický Kraj,BC,Žabica,962 05,48.5833,19.6167
166,Banskobystrický Kraj,BC,Bratkovica,962 05,48.5933,19.6154
167,Banskobystrický Kraj,BC,Slanec,962 05,48.5669,19.5177
168,Banskobystrický Kraj,BC,Snohy,962 05,48.6294,19.549
169,Banskobystrický Kraj,BC,Detvianska Huta,962 05,48.5695,19.5916
170,Banskobystrický Kraj,BC,Komárno,962 05,48.5784,19.5963
171,Banskobystrický Kraj,BC,Štoliansko,962 05,48.5695,19.5667
172,Banskobystrický Kraj,BC,Hriňová,962 05,48.5779,19.5257
173,Banskobystrický Kraj,BC,Vrchdobroč,962 05,48.5835,19.5724
174,Banskobystrický Kraj,BC,Horná Hriňová,962 05,48.5835,19.5724
175,Banskobystrický Kraj,BC,Krivec I,962 05,48.5835,19.5724
176,Banskobystrický Kraj,BC,Krivec II,962 05,48.5835,19.5724
177,Banskobystrický Kraj,BC,Mangútovo,962 05,48.5835,19.5724
178,Banskobystrický Kraj,BC,Jasenovo,962 05,48.5835,19.5724
179,Banskobystrický Kraj,BC,Stožok,962 12,48.5292,19.358
180,Banskobystrický Kraj,BC,Iviny,962 12,48.6115,19.3986
181,Banskobystrický Kraj,BC,Pstruša,962 12,48.5454,19.3198
182,Banskobystrický Kraj,BC,Dúbravy,962 12,48.5868,19.3687
183,Banskobystrický Kraj,BC,Detva - sídlisko,962 12,48.5697,19.3864
184,Banskobystrický Kraj,BC,Detva,962 12,48.5608,19.4195
185,Banskobystrický Kraj,BC,Zapriechody,962 12,48.5697,19.3864
186,Banskobystrický Kraj,BC,Skliarovo,962 12,48.5843,19.454
187,Banskobystrický Kraj,BC,Želobudza,962 12,48.5697,19.3864
188,Banskobystrický Kraj,BC,Kostolná,962 12,48.5697,19.3864
189,Banskobystrický Kraj,BC,Krné,962 12,48.5697,19.3864
190,Banskobystrický Kraj,BC,Piešť II,962 12,48.5697,19.3864
191,Banskobystrický Kraj,BC,Piešť I (časť),962 12,48.5697,19.3864
192,Banskobystrický Kraj,BC,Kalinka,962 25,48.4916,19.2942
193,Banskobystrický Kraj,BC,Vígľašská Huta,962 25,48.4901,19.2757
194,Banskobystrický Kraj,BC,Stará Huta,962 25,48.4749,19.3485
195,Banskobystrický Kraj,BC,Klokoč,962 25,48.5021,19.339
196,Banskobystrický Kraj,BC,Sliačska Podpoľana,962 25,48.4915,19.3132
197,Banskobystrický Kraj,BC,Slatinské Lazy,962 25,48.499,19.3084
198,Banskobystrický Kraj,BC,Jašov Vrch,962 25,48.4915,19.3132
199,Banskobystrický Kraj,BC,Dolný Tisovník,962 75,48.3888,19.3775
200,Banskobystrický Kraj,BC,Horný Tisovník,962 75,48.4171,19.363
201,Banskobystrický Kraj,BC,Čechánky,985 45,48.5493,19.5916
202,Banskobystrický Kraj,BC,Polianky,985 45,48.6123,19.6903
203,Banskobystrický Kraj,BC,Nový Svet,985 45,48.5608,19.611
204,Banskobystrický Kraj,BC,Mláky,985 45,48.5969,19.6718
205,Banskobystrický Kraj,BC,Paseky,985 45,48.5836,19.6457
206,Banskobystrický Kraj,BC,Látky,985 45,48.5797,19.6356
207,Banskobystrický Kraj,BC,Podkriváň,985 51,48.5106,19.459
208,Banskobystrický Kraj,BC,Dolná Bzová,985 51,48.5228,19.5039
209,Banskobystrický Kraj,BC,Ivanišovo,985 51,48.5167,19.4814
210,Banskobystrický Kraj,BC,Bukovinka,985 51,48.5167,19.4814
211,Banskobystrický Kraj,BC,Zubria,985 51,48.5167,19.4814
212,Banskobystrický Kraj,BC,Čekovce,962 41,48.3528,19.1239
213,Banskobystrický Kraj,BC,Dolný Jalšovík,962 41,48.3109,19.1034
214,Banskobystrický Kraj,BC,Horný Jalšovík,962 41,48.3193,19.1069
215,Banskobystrický Kraj,BC,Uňatín,962 41,48.2962,19.065
216,Banskobystrický Kraj,BC,Zemiansky Vrbovok,962 41,48.3346,19.1461
217,Banskobystrický Kraj,BC,Bzovík,962 41,48.3215,19.0918
218,Banskobystrický Kraj,BC,Dolné Mladonice,962 41,48.339,19.1275
219,Banskobystrický Kraj,BC,Kozí Vrbovok,962 41,48.3013,19.1191
220,Banskobystrický Kraj,BC,Jalšovík,962 41,48.3219,19.1105
221,Banskobystrický Kraj,BC,Senohrad,962 43,48.3578,19.1982
222,Banskobystrický Kraj,BC,Horné Mladonice,962 43,48.3448,19.1512
223,Banskobystrický Kraj,BC,Lackov,962 44,48.3214,19.1869
224,Banskobystrický Kraj,BC,Trpín,962 44,48.2967,19.1403
225,Banskobystrický Kraj,BC,Litava,962 44,48.2988,19.1794
226,Banskobystrický Kraj,BC,Horný Badín,962 51,48.2789,19.0754
227,Banskobystrický Kraj,BC,Dolný Badín,962 51,48.2699,19.0673
228,Banskobystrický Kraj,BC,Selce,962 51,48.2559,19.0429
229,Banskobystrický Kraj,BC,Čabradský Vrbovok,962 51,48.2576,19.0785
230,Banskobystrický Kraj,BC,Drienovo,962 51,48.2303,19.0626
231,Banskobystrický Kraj,BC,Cerovo,962 52,48.2547,19.1567
232,Banskobystrický Kraj,BC,Duchenec,962 52,48.255,19.1955
233,Banskobystrický Kraj,BC,Horné Rykynčice,962 55,48.209,18.9722
234,Banskobystrický Kraj,BC,Dolné Rykynčice,962 55,48.1993,18.9709
235,Banskobystrický Kraj,BC,Rykynčice,962 55,48.2042,18.9715
236,Banskobystrický Kraj,BC,Rakovec,962 65,48.2895,19.0039
237,Banskobystrický Kraj,BC,Ladzany,962 65,48.2676,18.9049
238,Banskobystrický Kraj,BC,Hontianske Nemce,962 65,48.2863,18.9895
239,Banskobystrický Kraj,BC,Devičie,962 65,48.3084,19.0265
240,Banskobystrický Kraj,BC,Krnišov,962 65,48.353,18.9754
241,Banskobystrický Kraj,BC,Kráľovce - Krnišov,962 65,48.297,18.9808
242,Banskobystrický Kraj,BC,Sitnianska Lehôtka,962 65,48.3216,18.9554
243,Banskobystrický Kraj,BC,Medovarce,962 65,48.2347,19.0025
244,Banskobystrický Kraj,BC,Domaníky,962 65,48.2627,18.9877
245,Banskobystrický Kraj,BC,Kráľovce,962 65,48.3489,18.9811
246,Banskobystrický Kraj,BC,Sebechleby,962 66,48.2754,18.9524
247,Banskobystrický Kraj,BC,Dvorníky,962 68,48.1998,18.927
248,Banskobystrický Kraj,BC,Hontianske Tesáre,962 68,48.2041,18.9203
249,Banskobystrický Kraj,BC,Terany,962 68,48.1797,18.8931
250,Banskobystrický Kraj,BC,Šipice,962 68,48.2149,18.9126
251,Banskobystrický Kraj,BC,Drážovce,962 68,48.2532,18.9072
252,Banskobystrický Kraj,BC,Báčovce,962 68,48.2376,18.9155
253,Banskobystrický Kraj,BC,Merovce,962 71,48.1674,18.8981
254,Banskobystrický Kraj,BC,Dudince,962 71,48.1713,18.8878
255,Banskobystrický Kraj,BC,Opatové Moravce,962 71,48.1859,18.8448
256,Banskobystrický Kraj,BC,Lišov,962 71,48.2269,18.8663
257,Banskobystrický Kraj,BC,Sudince,962 71,48.2134,18.8726
258,Banskobystrický Kraj,BC,Kostolné Moravce,962 71,48.1893,18.8525
259,Banskobystrický Kraj,BC,Súdovce,962 71,48.2106,18.8348
260,Banskobystrický Kraj,BC,Hontianske Moravce,962 71,48.195,18.8653
261,Banskobystrický Kraj,BC,Žibritov,963 01,48.3905,18.9839
262,Banskobystrický Kraj,BC,Krupina,963 01,48.3554,19.0647
263,Banskobystrický Kraj,BC,Šurice,980 33,48.2336,19.914
264,Banskobystrický Kraj,BC,Opatová,984 01,48.3409,19.6772
265,Banskobystrický Kraj,BC,Pinciná,984 01,48.3595,19.7628
266,Banskobystrický Kraj,BC,Boľkovce,984 01,48.3372,19.77
267,Banskobystrický Kraj,BC,Mikušovce,984 01,48.302,19.6846
268,Banskobystrický Kraj,BC,Malá Ves,984 01,48.3349,19.7237
269,Banskobystrický Kraj,BC,Ľuboreč,985 11,48.3112,19.5187
270,Banskobystrický Kraj,BC,Lupoč,985 11,48.3603,19.5408
271,Banskobystrický Kraj,BC,Mašková,985 11,48.3334,19.5642
272,Banskobystrický Kraj,BC,Praha,985 11,48.3625,19.5088
273,Banskobystrický Kraj,BC,Stará Halič,985 11,48.3435,19.5422
274,Banskobystrický Kraj,BC,Halič,985 11,48.3539,19.5763
275,Banskobystrický Kraj,BC,Lehôtka,985 11,48.3398,19.5445
276,Banskobystrický Kraj,BC,Budiná,985 12,48.4567,19.4785
277,Banskobystrický Kraj,BC,Tuhár,985 12,48.4293,19.5054
278,Banskobystrický Kraj,BC,Madačka,985 13,48.4121,19.4143
279,Banskobystrický Kraj,BC,Ábelová,985 13,48.4116,19.4328
280,Banskobystrický Kraj,BC,Nedelište,985 13,48.3907,19.4151
281,Banskobystrický Kraj,BC,Polichno,985 13,48.4048,19.4965
282,Banskobystrický Kraj,BC,Lentvora,985 13,48.3713,19.4523
283,Banskobystrický Kraj,BC,Točnica,985 22,48.4133,19.6423
284,Banskobystrický Kraj,BC,Trebeľovce,985 31,48.2836,19.7143
285,Banskobystrický Kraj,BC,Mučín,985 31,48.2442,19.7025
286,Banskobystrický Kraj,BC,Kalonda,985 31,48.2596,19.6562
287,Banskobystrický Kraj,BC,Lipovany,985 31,48.262,19.7007
288,Banskobystrický Kraj,BC,Pleš,985 31,48.2315,19.7494
289,Banskobystrický Kraj,BC,Rapovce,985 31,48.2739,19.6815
290,Banskobystrický Kraj,BC,Muľka,985 31,48.2791,19.7006
291,Banskobystrický Kraj,BC,Panické Dravce,985 32,48.2847,19.6531
292,Banskobystrický Kraj,BC,Šára,985 32,48.2173,19.4802
293,Banskobystrický Kraj,BC,Veľká nad Ipľom,985 32,48.0792,19.0877
294,Banskobystrický Kraj,BC,Veľké Dálovce,985 32,48.2173,19.4802
295,Banskobystrický Kraj,BC,Trenč,985 32,48.2238,19.5794
296,Banskobystrický Kraj,BC,Jelšovec,985 32,48.2816,19.6006
297,Banskobystrický Kraj,BC,Šávoľ,985 41,48.3046,19.8266
298,Banskobystrický Kraj,BC,Prša,985 41,48.3009,19.7913
299,Banskobystrický Kraj,BC,Krásna,985 41,48.4205,19.9655
300,Banskobystrický Kraj,BC,Nový Sad,985 41,48.3222,19.8132
301,Banskobystrický Kraj,BC,Ipeľka,985 41,48.3371,19.8492
302,Banskobystrický Kraj,BC,Buzitka,985 41,48.3371,19.8492
303,Banskobystrický Kraj,BC,Dora,985 41,48.3371,19.8492
304,Banskobystrický Kraj,BC,Veľké Dravce,985 42,48.3464,19.8393
305,Banskobystrický Kraj,BC,Nové Hony,985 42,48.3465,19.8751
306,Banskobystrický Kraj,BC,Divín,985 52,48.4499,19.5353
307,Banskobystrický Kraj,BC,Ružiná,985 52,48.4301,19.5519
308,Banskobystrický Kraj,BC,Divínske Lazy,985 52,48.44,19.5436
309,Banskobystrický Kraj,BC,Mýtna,985 53,48.4677,19.5525
310,Banskobystrický Kraj,BC,Herman,985 53,48.4999,19.5388
311,Banskobystrický Kraj,BC,Píla,985 53,48.4835,19.5036
312,Banskobystrický Kraj,BC,Dobroč,985 53,48.4748,19.5657
313,Banskobystrický Kraj,BC,Diel,985 53,48.5333,19.5667
314,Banskobystrický Kraj,BC,Kotmanová,985 53,48.4849,19.5804
315,Banskobystrický Kraj,BC,Malá Dolina,985 53,48.4907,19.5513
316,Banskobystrický Kraj,BC,Veľká Dolina,985 53,48.4907,19.5513
317,Banskobystrický Kraj,BC,Brestina,985 53,48.4907,19.5513
318,Banskobystrický Kraj,BC,Lovinobaňa,985 54,48.4374,19.5908
319,Banskobystrický Kraj,BC,Uderiná,985 54,48.4211,19.6083
320,Banskobystrický Kraj,BC,Podrečany,985 54,48.4042,19.5986
321,Banskobystrický Kraj,BC,Gregorova Vieska,985 56,48.385,19.5791
322,Banskobystrický Kraj,BC,Tomášovce,985 56,48.3706,19.6214
323,Banskobystrický Kraj,BC,Nitra nad Ipľom,985 57,48.3182,19.7737
324,Banskobystrický Kraj,BC,Holiša,985 57,48.3081,19.7517
325,Banskobystrický Kraj,BC,Obručná,985 58,48.2171,19.8218
326,Banskobystrický Kraj,BC,Čakanovce,985 58,48.2132,19.8146
327,Banskobystrický Kraj,BC,Šiatorská Bukovinka,985 58,48.2171,19.8218
328,Banskobystrický Kraj,BC,Radzovce,985 58,48.2211,19.8289
329,Banskobystrický Kraj,BC,Vidiná,985 59,48.3591,19.6543
330,Banskobystrický Kraj,BC,Belina,986 01,48.2425,19.8513
331,Banskobystrický Kraj,BC,Čamovce,986 01,48.2504,19.8831
332,Banskobystrický Kraj,BC,Ratka,986 01,48.2454,19.7854
333,Banskobystrický Kraj,BC,Šíd,986 01,48.2753,19.8794
334,Banskobystrický Kraj,BC,Bulhary,986 01,48.2935,19.8481
335,Banskobystrický Kraj,BC,Fiľakovo,986 01,48.2676,19.8247
336,Banskobystrický Kraj,BC,Fiľakovské Kováče,986 01,48.2921,19.7762
337,Banskobystrický Kraj,BC,Fiľakovské Kľačany,986 01,48.2903,19.753
338,Banskobystrický Kraj,BC,Kurtáň,986 01,48.2696,19.8251
339,Banskobystrický Kraj,BC,Biskupice,986 01,48.2696,19.8251
340,Banskobystrický Kraj,BC,Sušany,980 12,48.4129,19.8906
341,Banskobystrický Kraj,BC,Hrnčiarske Zalužany,980 12,48.4064,19.8715
342,Banskobystrický Kraj,BC,Veľká Suchá,980 13,48.4305,19.8661
343,Banskobystrický Kraj,BC,Pondelok,980 13,48.4312,19.8523
344,Banskobystrický Kraj,BC,Hrnčiarska Ves,980 13,48.4397,19.8648
345,Banskobystrický Kraj,BC,Selce,980 13,48.4575,19.8759
346,Banskobystrický Kraj,BC,Hrabovo,985 01,48.3899,19.718
347,Banskobystrický Kraj,BC,Kalinovo,985 01,48.3924,19.707
348,Banskobystrický Kraj,BC,Petrovec,985 01,48.3852,19.7533
349,Banskobystrický Kraj,BC,Veľká Ves,985 01,48.3819,19.6751
350,Banskobystrický Kraj,BC,Breznička,985 02,48.4223,19.7358
351,Banskobystrický Kraj,BC,Červeň,985 02,48.4302,19.7199
352,Banskobystrický Kraj,BC,Mládzovo,985 02,48.4382,19.704
353,Banskobystrický Kraj,BC,Zlatno,985 03,48.5185,19.8191
354,Banskobystrický Kraj,BC,Vaľkovo,985 03,48.4688,19.8242
355,Banskobystrický Kraj,BC,Salajka,985 03,48.5455,19.7534
356,Banskobystrický Kraj,BC,České Brezovo,985 03,48.482,19.8045
357,Banskobystrický Kraj,BC,Kokava nad Rimavicou,985 05,48.5689,19.8435
358,Banskobystrický Kraj,BC,Utekáč,985 06,48.605,19.8041
359,Banskobystrický Kraj,BC,Ľubienka,985 07,48.5813,19.747
360,Banskobystrický Kraj,BC,Šoltýska,985 07,48.5813,19.747
361,Banskobystrický Kraj,BC,Ďubákovo,985 07,48.5813,19.747
362,Banskobystrický Kraj,BC,Cinobaňa,985 22,48.4474,19.6527
363,Banskobystrický Kraj,BC,Katarínska Huta,985 22,48.4628,19.6336
364,Banskobystrický Kraj,BC,Turíčky,985 22,48.4518,19.6691
365,Banskobystrický Kraj,BC,Hrnčiarky,985 22,48.4438,19.6494
366,Banskobystrický Kraj,BC,Maša,985 22,48.4438,19.6494
367,Banskobystrický Kraj,BC,Bystrička,985 24,48.4673,19.6997
368,Banskobystrický Kraj,BC,Rovňany,985 24,48.4492,19.7403
369,Banskobystrický Kraj,BC,Ozdín,985 24,48.47,19.6843
370,Banskobystrický Kraj,BC,Uhorské,985 25,48.4718,19.749
371,Banskobystrický Kraj,BC,Hradište,985 25,48.4908,19.7239
372,Banskobystrický Kraj,BC,Krná,985 25,48.5102,19.7399
373,Banskobystrický Kraj,BC,Vlčovo,985 26,48.5779,19.7204
374,Banskobystrický Kraj,BC,Ipeľ,985 26,48.5671,19.7111
375,Banskobystrický Kraj,BC,Chladná Studňa,985 26,48.5563,19.7235
376,Banskobystrický Kraj,BC,Málinec,985 26,48.498,19.6818
377,Banskobystrický Kraj,BC,Dobrý Potok,985 26,48.5538,19.6907
378,Banskobystrický Kraj,BC,Ružová Osada,985 42,48.3465,19.8751
379,Banskobystrický Kraj,BC,Žihľava,985 45,48.2232,19.4262
380,Banskobystrický Kraj,BC,Slaná Lehota,987 01,48.4554,19.8026
381,Banskobystrický Kraj,BC,Zelené,987 01,48.4322,19.7769
382,Banskobystrický Kraj,BC,Prievrana,987 01,48.4395,19.7912
383,Banskobystrický Kraj,BC,Poltár,987 01,48.4309,19.7941
384,Banskobystrický Kraj,BC,Maštinec,987 01,48.4395,19.7912
385,Banskobystrický Kraj,BC,Hájiky - Maky,987 01,48.4395,19.7912
386,Banskobystrický Kraj,BC,Muránska Huta,049 01,48.7779,20.1127
387,Banskobystrický Kraj,BC,Muráň,049 01,48.741,20.0496
388,Banskobystrický Kraj,BC,Muránska Lehota,049 01,48.7277,20.0482
389,Banskobystrický Kraj,BC,Predná Hora,049 01,48.7488,20.0702
390,Banskobystrický Kraj,BC,Hucín,049 13,48.5642,20.2967
391,Banskobystrický Kraj,BC,Gemerský Sad,049 13,48.5767,20.3114
392,Banskobystrický Kraj,BC,Nováčany,049 13,48.5803,20.3247
393,Banskobystrický Kraj,BC,Mikolčany,049 13,48.5855,20.3128
394,Banskobystrický Kraj,BC,Licince,049 14,48.5394,20.2981
395,Banskobystrický Kraj,BC,Šivetice,049 14,48.5803,20.2756
396,Banskobystrický Kraj,BC,Prihradzany,049 14,48.5599,20.2868
397,Banskobystrický Kraj,BC,Jelšavská Teplica,049 16,48.602,20.2701
398,Banskobystrický Kraj,BC,Jelšava,049 16,48.6291,20.2414
399,Banskobystrický Kraj,BC,Mníšany,049 16,48.6682,20.226
400,Banskobystrický Kraj,BC,Magnezitovce,049 16,48.6331,20.2458
401,Banskobystrický Kraj,BC,Gemerské Teplice,049 16,48.6331,20.2458
402,Banskobystrický Kraj,BC,Kopráš,049 16,48.6331,20.2458
403,Banskobystrický Kraj,BC,Gemerský Milhosť,049 16,48.6331,20.2458
404,Banskobystrický Kraj,BC,Chyžné,049 18,48.6629,20.201
405,Banskobystrický Kraj,BC,Turčok,049 18,48.6404,20.1479
406,Banskobystrický Kraj,BC,Lubeník,049 18,48.6549,20.1961
407,Banskobystrický Kraj,BC,Revúcka Lehota,049 18,48.6712,20.181
408,Banskobystrický Kraj,BC,Rákoš,049 61,48.5999,20.1478
409,Banskobystrický Kraj,BC,Rákošská Baňa,049 61,48.6036,20.1292
410,Banskobystrický Kraj,BC,Nandraž,049 61,48.6077,20.1869
411,Banskobystrický Kraj,BC,Kameňany,049 62,48.5774,20.1916
412,Banskobystrický Kraj,BC,Železník,049 64,48.6333,20.1333
413,Banskobystrický Kraj,BC,Červeňany,049 64,48.6261,20.1162
414,Banskobystrický Kraj,BC,Sirk,049 64,48.6188,20.0991
415,Banskobystrický Kraj,BC,Muránska Zdychava,050 01,48.7376,20.1425
416,Banskobystrický Kraj,BC,Revúčka,050 01,48.7074,20.1319
417,Banskobystrický Kraj,BC,Mokrá Lúka,050 01,48.6734,20.1493
418,Banskobystrický Kraj,BC,Muránska Dlhá Lúka,050 01,48.7159,20.0802
419,Banskobystrický Kraj,BC,Revúca,050 01,48.6835,20.1173
420,Banskobystrický Kraj,BC,Gemer,982 01,48.4496,20.3158
421,Banskobystrický Kraj,BC,Tornaľa,982 01,48.4192,20.3257
422,Banskobystrický Kraj,BC,Starňa,982 01,48.4391,20.332
423,Banskobystrický Kraj,BC,Žiar,982 01,48.4385,20.273
424,Banskobystrický Kraj,BC,Králik,982 01,48.4091,20.3188
425,Banskobystrický Kraj,BC,Behynce,982 01,48.4221,20.294
426,Banskobystrický Kraj,BC,Gregorovce,982 52,48.4521,20.1877
427,Banskobystrický Kraj,BC,Gemerská Ves,982 62,48.4948,20.2382
428,Banskobystrický Kraj,BC,Skerešovo,982 62,48.5041,20.2017
429,Banskobystrický Kraj,BC,Polina,982 62,48.4936,20.2126
430,Banskobystrický Kraj,BC,Držkovce,982 62,48.5419,20.2362
431,Banskobystrický Kraj,BC,Višňové,982 62,48.5158,20.1879
432,Banskobystrický Kraj,BC,Rašice,982 62,48.4714,20.2391
433,Banskobystrický Kraj,BC,Leváre,982 62,48.5134,20.2552
434,Banskobystrický Kraj,BC,Levkuška,982 62,48.4576,20.2651
435,Banskobystrický Kraj,BC,Šankovce,982 62,48.4852,20.2778
436,Banskobystrický Kraj,BC,Chvalová,982 62,48.5129,20.177
437,Banskobystrický Kraj,BC,Otročok,982 62,48.45,20.277
438,Banskobystrický Kraj,BC,Ploské,982 65,48.6039,20.0861
439,Banskobystrický Kraj,BC,Brusník,982 65,48.5376,20.1529
440,Banskobystrický Kraj,BC,Ratková,982 65,48.5914,20.0957
441,Banskobystrický Kraj,BC,Repištia,982 65,48.5907,20.105
442,Banskobystrický Kraj,BC,Sása,982 65,48.5638,20.1089
443,Banskobystrický Kraj,BC,Rybník,982 65,48.5487,20.1245
444,Banskobystrický Kraj,BC,Hrlica,982 66,48.6282,20.051
445,Banskobystrický Kraj,BC,Ratkovské Bystré,982 66,48.6462,20.058
446,Banskobystrický Kraj,BC,Filier,982 66,48.6497,20.0586
447,Banskobystrický Kraj,BC,Rimavská Sobota,979 01,48.3828,20.0224
448,Banskobystrický Kraj,BC,Čerenčany,979 01,48.4066,19.9886
449,Banskobystrický Kraj,BC,Mojín,979 01,48.342,19.9724
450,Banskobystrický Kraj,BC,Sobôtka,979 01,48.3885,19.9921
451,Banskobystrický Kraj,BC,Nižná Pokoradz,979 01,48.408,20.0273
452,Banskobystrický Kraj,BC,Zacharovce,979 01,48.405,20.0545
453,Banskobystrický Kraj,BC,Vinice,979 01,48.3883,20.0176
454,Banskobystrický Kraj,BC,Bakta,979 01,48.392,20.0906
455,Banskobystrický Kraj,BC,Vyšná Pokoradz,979 01,48.4191,20.0194
456,Banskobystrický Kraj,BC,Dúžava,979 01,48.351,19.9906
457,Banskobystrický Kraj,BC,Kružno,979 01,48.3883,20.0176
458,Banskobystrický Kraj,BC,Kurinec,979 01,48.3883,20.0176
459,Banskobystrický Kraj,BC,Včelinec,979 01,48.3883,20.0176
460,Banskobystrický Kraj,BC,Sabová,979 01,48.3883,20.0176
461,Banskobystrický Kraj,BC,Pavlovce,980 01,48.3262,20.0823
462,Banskobystrický Kraj,BC,Belín,980 01,48.3416,20.1085
463,Banskobystrický Kraj,BC,Rimavské Janovce,980 01,48.3417,20.0628
464,Banskobystrický Kraj,BC,Sútor,980 01,48.3528,20.1219
465,Banskobystrický Kraj,BC,Hodejovec,980 02,48.282,20.0159
466,Banskobystrický Kraj,BC,Jesenské,980 02,48.3064,20.0708
467,Banskobystrický Kraj,BC,Gortva,980 02,48.2945,20.025
468,Banskobystrický Kraj,BC,Širkovce,980 02,48.29,20.0864
469,Banskobystrický Kraj,BC,Drňa,980 03,48.2627,20.1159
470,Banskobystrický Kraj,BC,Šimonovce,980 03,48.2737,20.1125
471,Banskobystrický Kraj,BC,Gemerské Dechtáre,980 04,48.2477,20.0369
472,Banskobystrický Kraj,BC,Jestice,980 04,48.219,20.0536
473,Banskobystrický Kraj,BC,Hostice,980 04,48.2344,20.0662
474,Banskobystrický Kraj,BC,Ožďany,980 11,48.3782,19.8916
475,Banskobystrický Kraj,BC,Bátka,980 21,48.3788,20.17
476,Banskobystrický Kraj,BC,Rakytník,980 21,48.3723,20.1833
477,Banskobystrický Kraj,BC,Tomášovce,980 21,48.393,20.153
478,Banskobystrický Kraj,BC,Žíp,980 21,48.3642,20.2033
479,Banskobystrický Kraj,BC,Dulovo,980 21,48.3741,20.1914
480,Banskobystrický Kraj,BC,Vieska nad Blhom,980 21,48.3511,20.1988
481,Banskobystrický Kraj,BC,Uzovská Panica,980 22,48.417,20.1439
482,Banskobystrický Kraj,BC,Veľký Blh,980 22,48.4453,20.1165
483,Banskobystrický Kraj,BC,Budikovany,980 23,48.4884,20.0882
484,Banskobystrický Kraj,BC,Padarovce,980 23,48.4572,20.0701
485,Banskobystrický Kraj,BC,Dražice,980 23,48.4372,20.0656
486,Banskobystrický Kraj,BC,Hostišovce,980 23,48.4976,20.1164
487,Banskobystrický Kraj,BC,Papča,980 23,48.4685,20.0648
488,Banskobystrický Kraj,BC,Drienčany,980 23,48.4813,20.0718
489,Banskobystrický Kraj,BC,Španie Pole,980 23,48.5202,20.1273
490,Banskobystrický Kraj,BC,Lipovec,980 23,48.5495,20.0658
491,Banskobystrický Kraj,BC,Slizké,980 23,48.5173,20.0881
492,Banskobystrický Kraj,BC,Teplý Vrch,980 23,48.4699,20.0999
493,Banskobystrický Kraj,BC,Striežovce,980 25,48.528,20.0296
494,Banskobystrický Kraj,BC,Hrušovo,980 25,48.5128,20.0491
495,Banskobystrický Kraj,BC,Horné Zahorany,980 26,48.4615,20.0085
496,Banskobystrický Kraj,BC,Babinec,980 26,48.5122,20.0049
497,Banskobystrický Kraj,BC,Ostrany,980 26,48.4949,20.0483
498,Banskobystrický Kraj,BC,Lukovištia,980 26,48.4918,20.0263
499,Banskobystrický Kraj,BC,Kraskovo,980 26,48.5012,19.99
500,Banskobystrický Kraj,BC,Hodejov,980 31,48.3012,19.9898
501,Banskobystrický Kraj,BC,Gemerček,980 31,48.3179,19.9914
502,Banskobystrický Kraj,BC,Čierny Potok,980 31,48.6167,19.85
503,Banskobystrický Kraj,BC,Konrádovce,980 32,48.2998,19.9038
504,Banskobystrický Kraj,BC,Blhovce,980 32,48.2751,19.9538
505,Banskobystrický Kraj,BC,Hajnáčka,980 33,48.2184,19.9578
506,Banskobystrický Kraj,BC,Večelkov,980 34,48.163,19.9346
507,Banskobystrický Kraj,BC,Stará Bašta,980 34,48.181,19.9446
508,Banskobystrický Kraj,BC,Nová Bašta,980 34,48.1709,19.9443
509,Banskobystrický Kraj,BC,Studená,980 34,48.1598,19.9596
510,Banskobystrický Kraj,BC,Tachty,980 34,48.1549,19.9408
511,Banskobystrický Kraj,BC,Gemerský Jablonec,980 35,48.1945,19.9761
512,Banskobystrický Kraj,BC,Petrovce,980 35,48.1854,20.0205
513,Banskobystrický Kraj,BC,Dubno,980 35,48.192,20.0017
514,Banskobystrický Kraj,BC,Bottovo,980 41,48.3127,20.1501
515,Banskobystrický Kraj,BC,Dubovec,980 41,48.293,20.1541
516,Banskobystrický Kraj,BC,Martinová,980 41,48.298,20.1729
517,Banskobystrický Kraj,BC,Janice,980 42,48.2802,20.2144
518,Banskobystrický Kraj,BC,Rimavská Seč,980 42,48.3051,20.2349
519,Banskobystrický Kraj,BC,Chrámec,980 42,48.2788,20.1854
520,Banskobystrický Kraj,BC,Ivanice,980 42,48.3292,20.2366
521,Banskobystrický Kraj,BC,Radnovce,980 42,48.3423,20.2056
522,Banskobystrický Kraj,BC,Cakov,980 42,48.339,20.2248
523,Banskobystrický Kraj,BC,Zádor,980 42,48.3212,20.2421
524,Banskobystrický Kraj,BC,Orávka,980 42,48.3137,20.2205
525,Banskobystrický Kraj,BC,Číž,980 43,48.3137,20.2804
526,Banskobystrický Kraj,BC,Číž - kúpele,980 43,48.3137,20.2804
527,Banskobystrický Kraj,BC,Abovce,980 44,48.3187,20.3365
528,Banskobystrický Kraj,BC,Vlkyňa,980 44,48.2821,20.301
529,Banskobystrický Kraj,BC,Chanava,980 44,48.3361,20.2993
530,Banskobystrický Kraj,BC,Lenartovce,980 44,48.2979,20.3101
531,Banskobystrický Kraj,BC,Neporadza,980 45,48.3622,20.3914
532,Banskobystrický Kraj,BC,Kesovce,980 45,48.3752,20.3529
533,Banskobystrický Kraj,BC,Riečka,980 45,48.3398,20.3306
534,Banskobystrický Kraj,BC,Štrkovec,980 45,48.3583,20.3249
535,Banskobystrický Kraj,BC,Kráľ,980 45,48.3589,20.35
536,Banskobystrický Kraj,BC,Lenka,980 50,48.3871,20.3484
537,Banskobystrický Kraj,BC,Rumince,980 50,48.3683,20.2871
538,Banskobystrický Kraj,BC,Včelince,980 50,48.3862,20.3062
539,Banskobystrický Kraj,BC,Hubovo,980 50,48.3998,20.3688
540,Banskobystrický Kraj,BC,Malé Teriakovce,980 51,48.4386,19.9749
541,Banskobystrický Kraj,BC,Krásna,980 51,48.4205,19.9655
542,Banskobystrický Kraj,BC,Veľké Teriakovce,980 51,48.4332,19.9663
543,Banskobystrický Kraj,BC,Svetlá,980 52,48.45,19.9
544,Banskobystrický Kraj,BC,Hrachovo,980 52,48.4654,19.9513
545,Banskobystrický Kraj,BC,Kociha,980 52,48.4795,19.9465
546,Banskobystrický Kraj,BC,Vrbovce nad Rimavou,980 52,48.4626,19.9465
547,Banskobystrický Kraj,BC,Vyšný Skálnik,980 52,48.4642,19.9642
548,Banskobystrický Kraj,BC,Nižný Skálnik,980 52,48.4537,19.9707
549,Banskobystrický Kraj,BC,Rimavská Baňa,980 53,48.5121,19.9413
550,Banskobystrický Kraj,BC,Rimavské Zalužany,980 53,48.501,19.9353
551,Banskobystrický Kraj,BC,Lehota nad Rimavicou,980 53,48.5065,19.9383
552,Banskobystrický Kraj,BC,Rimavské Brezovo,980 54,48.5381,19.9573
553,Banskobystrický Kraj,BC,Kyjatice,980 54,48.5299,20.0125
554,Banskobystrický Kraj,BC,Klenovec,980 55,48.5956,19.8907
555,Banskobystrický Kraj,BC,Rimavská Píla,980 61,48.6491,19.9437
556,Banskobystrický Kraj,BC,Tisovec,980 61,48.6774,19.9436
557,Banskobystrický Kraj,BC,Polom,981 01,48.6049,19.9914
558,Banskobystrický Kraj,BC,Hnúšťa,981 01,48.5726,19.954
559,Banskobystrický Kraj,BC,Hačava,981 01,48.6252,19.9511
560,Banskobystrický Kraj,BC,Likier,981 01,48.5599,19.9573
561,Banskobystrický Kraj,BC,Barca,982 51,48.3745,20.2303
562,Banskobystrický Kraj,BC,Stránska,982 51,48.4031,20.2796
563,Banskobystrický Kraj,BC,Figa,982 51,48.3991,20.253
564,Banskobystrický Kraj,BC,Gemerské Michalovce,982 52,48.4377,20.2119
565,Banskobystrický Kraj,BC,Nižné Valice,982 52,48.45,20.2
566,Banskobystrický Kraj,BC,Nižná Kaloša,982 52,48.4229,20.2252
567,Banskobystrický Kraj,BC,Vyšné Valice,982 52,48.4577,20.1882
568,Banskobystrický Kraj,BC,Vyšná Kaloša,982 52,48.4326,20.2247
569,Banskobystrický Kraj,BC,Valice,982 52,48.4577,20.1882
570,Banskobystrický Kraj,BC,Kaloša,982 52,48.4326,20.2247
571,Banskobystrický Kraj,BC,Strelnice,982 62,48.5134,20.2552
572,Banskobystrický Kraj,BC,Hrkáč,982 62,48.4783,20.2735
573,Banskobystrický Kraj,BC,Ratkovská Lehota,982 65,48.5624,20.0999
574,Banskobystrický Kraj,BC,Potok,982 67,48.5608,20.0502
575,Banskobystrický Kraj,BC,Krokava,982 67,48.6298,20.0265
576,Banskobystrický Kraj,BC,Rovné,982 67,48.5813,20.0522
577,Banskobystrický Kraj,BC,Ratkovská Zdychava,982 67,48.6036,20.0225
578,Banskobystrický Kraj,BC,Ratkovská Suchá,982 67,48.5795,20.0693
579,Banskobystrický Kraj,BC,Poproč,982 67,48.5834,20.0336
580,Banskobystrický Kraj,BC,Brádno,982 67,48.5682,20.0172
581,Banskobystrický Kraj,BC,Husiná,985 42,48.3425,19.882
582,Banskobystrický Kraj,BC,Dolné Zahorany,985 42,48.3506,19.904
583,Banskobystrický Kraj,BC,Veľký Krtíš,990 01,48.2106,19.3504
584,Banskobystrický Kraj,BC,Veľké Straciny,990 01,48.1969,19.3978
585,Banskobystrický Kraj,BC,Malé Straciny,990 01,48.2098,19.4151
586,Banskobystrický Kraj,BC,Malý Krtíš,990 01,48.19,19.3505
587,Banskobystrický Kraj,BC,Brusník,991 01,48.2993,19.4016
588,Banskobystrický Kraj,BC,Červeňany,991 01,48.3812,19.3884
589,Banskobystrický Kraj,BC,Príboj,991 01,48.3318,19.4137
590,Banskobystrický Kraj,BC,Senné,991 01,48.3098,19.3965
591,Banskobystrický Kraj,BC,Šuľa,991 01,48.3305,19.4
592,Banskobystrický Kraj,BC,Prieloh,991 02,48.2294,19.5403
593,Banskobystrický Kraj,BC,Slovenské Kľačany,991 02,48.2643,19.4492
594,Banskobystrický Kraj,BC,Bukovec,991 02,48.2333,19.4
595,Banskobystrický Kraj,BC,Ľuboriečka,991 02,48.2622,19.5267
596,Banskobystrický Kraj,BC,Drnava,991 02,48.2851,19.4335
597,Banskobystrický Kraj,BC,Dúbrava,991 02,48.5,19.1667
598,Banskobystrický Kraj,BC,Vieska,991 02,48.2613,19.4666
599,Banskobystrický Kraj,BC,Dolná Strehová,991 02,48.2508,19.4888
600,Banskobystrický Kraj,BC,Horná Strehová,991 02,48.2797,19.4297
601,Banskobystrický Kraj,BC,Osušie,991 02,48.2851,19.4335
602,Banskobystrický Kraj,BC,Dolné Strháre,991 03,48.2485,19.3937
603,Banskobystrický Kraj,BC,Veľký Lom,991 03,48.3381,19.3716
604,Banskobystrický Kraj,BC,Suché Brezovo,991 03,48.3088,19.3583
605,Banskobystrický Kraj,BC,Žihľava,991 03,48.2232,19.4262
606,Banskobystrický Kraj,BC,Horné Strháre,991 03,48.2702,19.3628
607,Banskobystrický Kraj,BC,Pôtor,991 03,48.2342,19.4213
608,Banskobystrický Kraj,BC,Nová Ves,991 05,48.1694,19.3662
609,Banskobystrický Kraj,BC,Obeckov,991 05,48.1699,19.3322
610,Banskobystrický Kraj,BC,Sklabiná,991 05,48.1584,19.358
611,Banskobystrický Kraj,BC,Želovce,991 06,48.1236,19.3559
612,Banskobystrický Kraj,BC,Vrbovka,991 06,48.0905,19.4087
613,Banskobystrický Kraj,BC,Záhorce,991 06,48.1116,19.3401
614,Banskobystrický Kraj,BC,Peťov,991 06,48.1086,19.5006
615,Banskobystrický Kraj,BC,Selešťany,991 06,48.1064,19.4118
616,Banskobystrický Kraj,BC,Kiarov,991 06,48.1101,19.4072
617,Banskobystrický Kraj,BC,Kováčovce,991 06,48.094,19.4579
618,Banskobystrický Kraj,BC,Opatovská Nová Ves,991 07,48.1135,19.2782
619,Banskobystrický Kraj,BC,Iliašov,991 07,48.1135,19.2782
620,Banskobystrický Kraj,BC,Slovenské Ďarmoty,991 07,48.1135,19.2782
621,Banskobystrický Kraj,BC,Malá Čalomija,991 08,48.0845,19.2322
622,Banskobystrický Kraj,BC,Chrastince,991 08,48.0903,19.2503
623,Banskobystrický Kraj,BC,Lesenice,991 08,48.1065,19.247
624,Banskobystrický Kraj,BC,Koláre,991 09,48.0692,19.2006
625,Banskobystrický Kraj,BC,Veľká Čalomija,991 09,48.0692,19.2006
626,Banskobystrický Kraj,BC,Ipeľské Predmostie,991 10,48.0625,19.0559
627,Banskobystrický Kraj,BC,Sečianky,991 10,48.0951,19.0796
628,Banskobystrický Kraj,BC,Veľká Ves nad Ipľom,991 10,48.0792,19.0877
629,Banskobystrický Kraj,BC,Kleňany,991 10,48.1174,19.0739
630,Banskobystrický Kraj,BC,Kosihy nad Ipľom,991 11,48.0769,19.1744
631,Banskobystrický Kraj,BC,Balog nad Ipľom,991 11,48.0778,19.1309
632,Banskobystrický Kraj,BC,Závada,991 21,48.2912,19.4879
633,Banskobystrický Kraj,BC,Pravica,991 21,48.317,19.4577
634,Banskobystrický Kraj,BC,Chrťany,991 21,48.2917,19.4605
635,Banskobystrický Kraj,BC,Imrov Kopec,991 21,48.3,19.4687
636,Banskobystrický Kraj,BC,Muľa,991 22,48.1922,19.5256
637,Banskobystrický Kraj,BC,Malé Zlievce,991 22,48.18,19.446
638,Banskobystrický Kraj,BC,Olováry,991 22,48.1529,19.41
639,Banskobystrický Kraj,BC,Čeláre,991 22,48.1653,19.4647
640,Banskobystrický Kraj,BC,Zombor,991 22,48.1366,19.4469
641,Banskobystrický Kraj,BC,Glabušovce,991 22,48.1554,19.4583
642,Banskobystrický Kraj,BC,Bušince,991 22,48.1746,19.5012
643,Banskobystrický Kraj,BC,Potočok,991 22,48.1653,19.4647
644,Banskobystrický Kraj,BC,Kírť,991 22,48.1653,19.4647
645,Banskobystrický Kraj,BC,Veľké Zlievce,991 23,48.1997,19.4558
646,Banskobystrický Kraj,BC,Dolné Plachtince,991 24,48.2,19.31
647,Banskobystrický Kraj,BC,Stredné Plachtince,991 24,48.2263,19.2919
648,Banskobystrický Kraj,BC,Horné Plachtince,991 24,48.2372,19.283
649,Banskobystrický Kraj,BC,Opava,991 25,48.1959,19.1772
650,Banskobystrický Kraj,BC,Kosihovce,991 25,48.1817,19.2011
651,Banskobystrický Kraj,BC,Škriavnik,991 25,48.1802,19.2896
652,Banskobystrický Kraj,BC,Dolné Príbelce,991 25,48.1954,19.2612
653,Banskobystrický Kraj,BC,Čebovce,991 25,48.1803,19.2293
654,Banskobystrický Kraj,BC,Príbelce,991 25,48.1956,19.253
655,Banskobystrický Kraj,BC,Horné Príbelce,991 25,48.1956,19.253
656,Banskobystrický Kraj,BC,Bátorová,991 26,48.1344,19.2714
657,Banskobystrický Kraj,BC,Nenince,991 26,48.1464,19.2596
658,Banskobystrický Kraj,BC,Širákov,991 27,48.1488,19.1856
659,Banskobystrický Kraj,BC,Kamenné Kosihy,991 27,48.1422,19.1935
660,Banskobystrický Kraj,BC,Trebušovce,991 27,48.1176,19.1954
661,Banskobystrický Kraj,BC,Seľany,991 27,48.1567,19.1897
662,Banskobystrický Kraj,BC,Ďurkovce,991 27,48.1413,19.191
663,Banskobystrický Kraj,BC,Vinica,991 28,48.1173,19.1186
664,Banskobystrický Kraj,BC,Dolinka,991 28,48.0891,19.1532
665,Banskobystrický Kraj,BC,Sucháň,991 35,48.3139,19.2222
666,Banskobystrický Kraj,BC,Dačov Lom,991 35,48.3225,19.2499
667,Banskobystrický Kraj,BC,Čelovce,991 41,48.1832,19.1433
668,Banskobystrický Kraj,BC,Hrušov,991 42,48.1539,19.091
669,Banskobystrický Kraj,BC,Modrý Kameň,992 01,48.2413,19.3349
670,Banskobystrický Kraj,BC,Kamenný Vrch,992 01,48.2413,19.3349
671,Banskobystrický Kraj,BC,Kráľová,960 01,48.4922,19.1823
672,Banskobystrický Kraj,BC,Neresnica,960 01,48.4349,19.1924
673,Banskobystrický Kraj,BC,Môťová,960 01,48.4636,19.1873
674,Banskobystrický Kraj,BC,Slatinka,962 01,48.5554,19.2103
675,Banskobystrický Kraj,BC,Zvolenská Slatina,962 01,48.5635,19.2599
676,Banskobystrický Kraj,BC,Lieskovec,962 21,48.5729,19.1925
677,Banskobystrický Kraj,BC,Zolná,962 21,48.6003,19.2246
678,Banskobystrický Kraj,BC,Lukové,962 21,48.6033,19.1938
679,Banskobystrický Kraj,BC,Očová,962 23,48.6004,19.2884
680,Banskobystrický Kraj,BC,Veľká Lúka,962 31,48.6299,19.1698
681,Banskobystrický Kraj,BC,Sielnica,962 31,48.633,19.1119
682,Banskobystrický Kraj,BC,Lukavica,962 31,48.6421,19.2091
683,Banskobystrický Kraj,BC,Hájniky,962 31,48.6142,19.13
684,Banskobystrický Kraj,BC,Sampor,962 31,48.6288,19.2006
685,Banskobystrický Kraj,BC,Sliač - kúpele,962 31,48.6167,19.1372
686,Banskobystrický Kraj,BC,Rybáre,962 31,48.6119,19.1522
687,Banskobystrický Kraj,BC,Sliač,962 31,48.6167,19.1372
688,Banskobystrický Kraj,BC,Budča,962 33,48.5738,19.0694
689,Banskobystrický Kraj,BC,Tŕnie,962 34,48.6054,19.0346
690,Banskobystrický Kraj,BC,Železná Breznica,962 34,48.6163,19.013
691,Banskobystrický Kraj,BC,Budička,962 34,48.6001,19.0212
692,Banskobystrický Kraj,BC,Turová,962 34,48.5985,19.0539
693,Banskobystrický Kraj,BC,Kašova Lehôtka,962 34,48.6176,19.0347
694,Banskobystrický Kraj,BC,Kováčová,962 37,48.6015,19.1025
695,Banskobystrický Kraj,BC,Podzámčok,962 61,48.5026,19.1129
696,Banskobystrický Kraj,BC,Dolné Breziny,962 61,48.5162,19.0827
697,Banskobystrický Kraj,BC,Dubové,962 61,48.5044,19.0461
698,Banskobystrický Kraj,BC,Breziny,962 61,48.5156,19.1027
699,Banskobystrický Kraj,BC,Bacúrov,962 61,48.5196,19.0598
700,Banskobystrický Kraj,BC,Ostrá Lúka,962 61,48.5454,19.0523
701,Banskobystrický Kraj,BC,Michalková,962 61,48.5092,19.1545
702,Banskobystrický Kraj,BC,Dobrá Niva,962 61,48.4708,19.1056
703,Banskobystrický Kraj,BC,Horné Breziny,962 61,48.5099,19.085
704,Banskobystrický Kraj,BC,Babiná,962 61,48.4352,19.0911
705,Banskobystrický Kraj,BC,Bzovská Lehôtka,962 62,48.4141,19.1328
706,Banskobystrický Kraj,BC,Sása,962 62,48.4355,19.1343
707,Banskobystrický Kraj,BC,Lonec,962 63,48.4193,19.2095
708,Banskobystrický Kraj,BC,Dolinky,962 63,48.4137,19.2234
709,Banskobystrický Kraj,BC,Lešť,962 63,48.35,19.3167
710,Banskobystrický Kraj,BC,Pliešovce,962 63,48.4263,19.1556
711,Banskobystrický Kraj,BC,Zaježová,962 63,48.4594,19.212
712,Banskobystrický Kraj,BC,Vidov Vrch,962 63,48.4137,19.2234
713,Banskobystrický Kraj,BC,Polomy,962 63,48.4137,19.2234
714,Banskobystrický Kraj,BC,Lažteky,962 63,48.4137,19.2234
715,Banskobystrický Kraj,BC,Podjavorie,962 63,48.4137,19.2234
716,Banskobystrický Kraj,BC,Hronská Breznica,966 11,48.5678,18.997
717,Banskobystrický Kraj,BC,Veľká Lehota,966 41,48.4608,18.5607
718,Banskobystrický Kraj,BC,Malá Lehota,966 42,48.4964,18.5673
719,Banskobystrický Kraj,BC,Rudno nad Hronom,966 51,48.4269,18.6857
720,Banskobystrický Kraj,BC,Tekovská Breznica,966 52,48.3865,18.6187
721,Banskobystrický Kraj,BC,Orovnica,966 52,48.3882,18.5945
722,Banskobystrický Kraj,BC,Psiare,966 53,48.3289,18.5544
723,Banskobystrický Kraj,BC,Hronský Beňadik,966 53,48.3289,18.5544
724,Banskobystrický Kraj,BC,Kopanice,966 61,48.4353,18.8023
725,Banskobystrický Kraj,BC,Hámre - Dolné Hámre,966 61,48.4616,18.7426
726,Banskobystrický Kraj,BC,Hodruša - Hámre,966 61,48.4529,18.7625
727,Banskobystrický Kraj,BC,Dolné Hámre,966 61,48.4616,18.7426
728,Banskobystrický Kraj,BC,Banská Hodruša,966 63,48.4667,18.8167
729,Banskobystrický Kraj,BC,Horné Hámre,966 71,48.498,18.6666
730,Banskobystrický Kraj,BC,Župkov,966 71,48.5254,18.6297
731,Banskobystrický Kraj,BC,Hámre - Horné Hámre,966 71,48.498,18.6666
732,Banskobystrický Kraj,BC,Veľké Pole,966 74,48.5407,18.5652
733,Banskobystrický Kraj,BC,Kľak,966 77,48.583,18.6434
734,Banskobystrický Kraj,BC,Ostrý Grúň,966 77,48.569,18.664
735,Banskobystrický Kraj,BC,Hrabičov,966 78,48.534,18.6661
736,Banskobystrický Kraj,BC,Záhorčie,966 81,48.4933,18.7403
737,Banskobystrický Kraj,BC,Píla,966 81,48.522,18.5918
738,Banskobystrický Kraj,BC,Žarnovická Huta,966 81,48.4932,18.6887
739,Banskobystrický Kraj,BC,Revištské Podzámčie,966 81,48.522,18.72
740,Banskobystrický Kraj,BC,Voznica,966 81,48.4605,18.6992
741,Banskobystrický Kraj,BC,Lukavica,966 81,48.4954,18.6926
742,Banskobystrický Kraj,BC,Žarnovica,966 81,48.4812,18.7156
743,Banskobystrický Kraj,BC,Nová Baňa,968 01,48.423,18.6404
744,Banskobystrický Kraj,BC,Záhrb,968 01,48.4188,18.6253
745,Banskobystrický Kraj,BC,Štále,968 01,48.418,18.6134
746,Banskobystrický Kraj,BC,Stará Huta,968 01,48.4249,18.5782
747,Banskobystrický Kraj,BC,Chotár,968 01,48.418,18.6134
748,Banskobystrický Kraj,BC,Bukovina,968 01,48.4162,18.5712
749,Banskobystrický Kraj,BC,Kostivrch,968 01,48.418,18.6134
750,Banskobystrický Kraj,BC,Brehy,968 01,48.407,18.6516
751,Banskobystrický Kraj,BC,Vieska,965 01,48.5833,18.8833
752,Banskobystrický Kraj,BC,Stará Kremnička,965 01,48.6053,18.8894
753,Banskobystrický Kraj,BC,Ladomerská Vieska,965 01,48.5892,18.8804
754,Banskobystrický Kraj,BC,Šášovské Podhradie,965 01,48.5763,18.8991
755,Banskobystrický Kraj,BC,Žiar nad Hronom,965 01,48.5918,18.8496
756,Banskobystrický Kraj,BC,Horná Trnávka,966 01,48.579,18.7587
757,Banskobystrický Kraj,BC,Dolná Ždaňa,966 01,48.5465,18.762
758,Banskobystrický Kraj,BC,Hliník nad Hronom,966 01,48.5354,18.7873
759,Banskobystrický Kraj,BC,Prestavlky,966 01,48.5871,18.7578
760,Banskobystrický Kraj,BC,Lehôtka pod Brehmi,966 01,48.5522,18.7567
761,Banskobystrický Kraj,BC,Bzenica,966 01,48.5295,18.7416
762,Banskobystrický Kraj,BC,Bukovina,966 01,48.536,18.7326
763,Banskobystrický Kraj,BC,Vyhne,966 02,48.5057,18.8014
764,Banskobystrický Kraj,BC,Sklené Teplice,966 03,48.5285,18.8622
765,Banskobystrický Kraj,BC,Repište,966 03,48.5156,18.8465
766,Banskobystrický Kraj,BC,Horná Ždaňa,966 04,48.5689,18.7501
767,Banskobystrický Kraj,BC,Prochot,966 04,48.6093,18.7078
768,Banskobystrický Kraj,BC,Trnavá Hora,966 11,48.5898,18.9543
769,Banskobystrický Kraj,BC,Kľačany,966 11,48.6077,18.9635
770,Banskobystrický Kraj,BC,Jalná,966 11,48.5834,18.9556
771,Banskobystrický Kraj,BC,Hronská Dúbrava,966 11,48.5902,19.0019
772,Banskobystrický Kraj,BC,Pitelová,966 11,48.603,18.9255
773,Banskobystrický Kraj,BC,Dolná Trnávka,966 21,48.5604,18.7883
774,Banskobystrický Kraj,BC,Lovča,966 21,48.5717,18.8158
775,Banskobystrický Kraj,BC,Lutila,966 22,48.6138,18.8449
776,Banskobystrický Kraj,BC,Slaská,966 22,48.6585,18.8371
777,Banskobystrický Kraj,BC,Lovčica,966 23,48.6184,18.7959
778,Banskobystrický Kraj,BC,Lovčica - Trubín,966 23,48.6175,18.7902
779,Banskobystrický Kraj,BC,Trubín,966 23,48.6165,18.7845
780,Banskobystrický Kraj,BC,Kosorín,966 24,48.6516,18.8094
781,Banskobystrický Kraj,BC,Janova Lehota,966 24,48.655,18.7837
782,Banskobystrický Kraj,BC,Kremnica,967 01,48.7052,18.9183
783,Banskobystrický Kraj,BC,Horná Ves,967 01,48.6767,18.9101
784,Banskobystrický Kraj,BC,Kunešov,967 01,48.7318,18.8694
785,Banskobystrický Kraj,BC,Lúčky,967 01,48.7002,18.8934
786,Banskobystrický Kraj,BC,Kopernica,967 01,48.6826,18.8726
787,Banskobystrický Kraj,BC,Nevoľné,967 01,48.6708,18.9439
788,Banskobystrický Kraj,BC,Ihráč,967 01,48.6546,18.9528
789,Banskobystrický Kraj,BC,Dolná Ves,967 01,48.6647,18.9129
790,Banskobystrický Kraj,BC,Jastrabá,967 01,48.6316,18.9363
791,Banskobystrický Kraj,BC,Bartošova Lehôtka,967 01,48.653,18.9179
792,Banskobystrický Kraj,BC,Kremnické Bane,967 01,48.6771,18.9128
793,Banskobystrický Kraj,BC,Krahule,967 01,48.6771,18.9128
794,Banskobystrický Kraj,BC,Banská Bystrica,974 04,48.7395,19.1535
795,Banskobystrický Kraj,BC,Banská Bystrica,974 05,48.7395,19.1535
796,Banskobystrický Kraj,BC,Banská Bystrica,974 09,48.7395,19.1535
797,Banskobystrický Kraj,BC,Lučenec,984 03,48.3325,19.6671
798,Bratislavský Kraj,BL,Podunajské Biskupice,821 06,48.1325,17.2096
799,Bratislavský Kraj,BL,Vrakuňa,821 07,48.1383,17.2087
800,Bratislavský Kraj,BL,Vajnory,831 07,48.2056,17.2076
801,Bratislavský Kraj,BL,Lamač,841 03,48.193,17.0508
802,Bratislavský Kraj,BL,Záhorská Bystrica,841 06,48.2411,17.0382
803,Bratislavský Kraj,BL,Devín,841 10,48.1744,16.9842
804,Bratislavský Kraj,BL,Čunovo,851 10,48.0305,17.1998
805,Bratislavský Kraj,BL,Rusovce,851 10,48.0549,17.1446
806,Bratislavský Kraj,BL,Jarovce,851 10,48.065,17.113
807,Bratislavský Kraj,BL,Stupava,900 31,48.2747,17.0317
808,Bratislavský Kraj,BL,Borinka,900 32,48.2621,17.0858
809,Bratislavský Kraj,BL,Marianka,900 33,48.249,17.064
810,Bratislavský Kraj,BL,Zohor,900 51,48.3167,16.9833
811,Bratislavský Kraj,BL,Kuchyňa,900 52,48.406,17.1573
812,Bratislavský Kraj,BL,Pernek,900 53,48.3669,17.1442
813,Bratislavský Kraj,BL,Jablonové,900 54,48.3475,17.0995
814,Bratislavský Kraj,BL,Lozorno,900 55,48.3336,17.0432
815,Bratislavský Kraj,BL,Gajary,900 61,48.4667,16.9333
816,Bratislavský Kraj,BL,Kostolište,900 62,48.45,16.9833
817,Bratislavský Kraj,BL,Jakubov,900 63,48.4167,16.9333
818,Bratislavský Kraj,BL,Suchohrad,900 64,48.4,16.8667
819,Bratislavský Kraj,BL,Záhorská Ves,900 65,48.3833,16.85
820,Bratislavský Kraj,BL,Vysoká pri Morave,900 66,48.3294,16.9119
821,Bratislavský Kraj,BL,Láb,900 67,48.3667,16.9833
822,Bratislavský Kraj,BL,Plavecký Štvrtok,900 68,48.3751,16.9986
823,Bratislavský Kraj,BL,Vinohrádok,901 01,48.4185,16.9961
824,Bratislavský Kraj,BL,Malacky,901 01,48.436,17.0219
825,Bratislavský Kraj,BL,Záhorie,901 01,48.4273,17.009
826,Bratislavský Kraj,BL,Plavecký Mikuláš,906 35,48.5089,17.3047
827,Bratislavský Kraj,BL,Plavecké Podhradie,906 36,48.486,17.2573
828,Bratislavský Kraj,BL,Sološnica,906 37,48.4652,17.2307
829,Bratislavský Kraj,BL,Rohožník,906 38,48.4568,17.1676
830,Bratislavský Kraj,BL,Závod,908 72,48.5449,17.0303
831,Bratislavský Kraj,BL,Veľké Leváre,908 73,48.504,17.0036
832,Bratislavský Kraj,BL,Malé Leváre,908 74,48.5,16.9833
833,Bratislavský Kraj,BL,Studienka,908 75,48.5265,17.1373
834,Bratislavský Kraj,BL,Piesok,900 01,48.3833,17.2754
835,Bratislavský Kraj,BL,Harmónia,900 01,48.3591,17.3043
836,Bratislavský Kraj,BL,Modra,900 01,48.334,17.3071
837,Bratislavský Kraj,BL,Svätý Jur,900 21,48.2522,17.2154
838,Bratislavský Kraj,BL,Viničné,900 23,48.2719,17.3023
839,Bratislavský Kraj,BL,Slovenský Grob,900 26,48.2576,17.2743
840,Bratislavský Kraj,BL,Šenkvice,900 81,48.2982,17.3496
841,Bratislavský Kraj,BL,Báhoň,900 84,48.3094,17.4452
842,Bratislavský Kraj,BL,Vištuk,900 85,48.3334,17.3994
843,Bratislavský Kraj,BL,Štefanová,900 86,48.3843,17.3972
844,Bratislavský Kraj,BL,Jablonec,900 86,48.332,17.4479
845,Bratislavský Kraj,BL,Budmerice,900 86,48.3576,17.4071
846,Bratislavský Kraj,BL,Doľany,900 88,48.4161,17.3757
847,Bratislavský Kraj,BL,Červený Kameň,900 89,48.395,17.3475
848,Bratislavský Kraj,BL,Píla,900 89,48.3909,17.3315
849,Bratislavský Kraj,BL,Častá,900 89,48.3992,17.3635
850,Bratislavský Kraj,BL,Dubová,900 90,48.3668,17.3397
851,Bratislavský Kraj,BL,Limbach,900 91,48.2897,17.2234
852,Bratislavský Kraj,BL,Vinosady,902 01,48.2736,17.2484
853,Bratislavský Kraj,BL,Myslenice,902 03,48.2736,17.2484
854,Bratislavský Kraj,BL,Veľký Biel,900 24,48.2133,17.3608
855,Bratislavský Kraj,BL,Malý Biel,900 24,48.2225,17.3641
856,Bratislavský Kraj,BL,Chorvátsky Grob,900 25,48.2279,17.2909
857,Bratislavský Kraj,BL,Bernolákovo,900 27,48.2007,17.3019
858,Bratislavský Kraj,BL,Ivanka pri Dunaji,900 28,48.1867,17.2554
859,Bratislavský Kraj,BL,Zálesie,900 28,48.1661,17.275
860,Bratislavský Kraj,BL,Dedinka pri Dunaji,900 29,48.1822,17.3521
861,Bratislavský Kraj,BL,Nová Ves pri Dunaji,900 29,48.1861,17.3563
862,Bratislavský Kraj,BL,Nová Dedinka,900 29,48.1841,17.3542
863,Bratislavský Kraj,BL,Rovinka,900 41,48.0978,17.2363
864,Bratislavský Kraj,BL,Miloslavov,900 42,48.1059,17.3
865,Bratislavský Kraj,BL,Nová Lipnica,900 42,48.0775,17.2821
866,Bratislavský Kraj,BL,Alžbetin Dvor,900 42,48.0867,17.2717
867,Bratislavský Kraj,BL,Dunajská Lužná,900 42,48.0835,17.2607
868,Bratislavský Kraj,BL,Nové Košariská,900 42,48.0887,17.2583
869,Bratislavský Kraj,BL,Jánošíková,900 42,48.0781,17.2572
870,Bratislavský Kraj,BL,Kalinkovo,900 43,48.0598,17.2535
871,Bratislavský Kraj,BL,Hamuliakovo,900 43,48.0598,17.2535
872,Bratislavský Kraj,BL,Malý Madaras,900 44,48.1423,17.3724
873,Bratislavský Kraj,BL,Doma,900 44,48.1424,17.354
874,Bratislavský Kraj,BL,Tomášov,900 44,48.1425,17.3357
875,Bratislavský Kraj,BL,Vlky,900 44,48.1424,17.354
876,Bratislavský Kraj,BL,Malinovo,900 45,48.1545,17.2968
877,Bratislavský Kraj,BL,Most pri Bratislave,900 46,48.142,17.2709
878,Bratislavský Kraj,BL,Studené,900 46,48.142,17.2709
879,Bratislavský Kraj,BL,Kráľová pri Senci,900 50,48.3541,17.0855
880,Bratislavský Kraj,BL,Blatné,900 82,48.2666,17.4192
881,Bratislavský Kraj,BL,Čataj,900 83,48.2705,17.4787
882,Bratislavský Kraj,BL,Igram,900 84,48.2854,17.4623
883,Bratislavský Kraj,BL,Kaplna,900 84,48.2925,17.4575
884,Bratislavský Kraj,BL,Hurbanova Ves,903 01,48.1529,17.4414
885,Bratislavský Kraj,BL,Senec,903 01,48.2195,17.4004
886,Bratislavský Kraj,BL,Tureň,903 01,48.1913,17.3894
887,Bratislavský Kraj,BL,Kostolná pri Dunaji,903 01,48.1854,17.4356
888,Bratislavský Kraj,BL,Nový Svet,903 01,48.1839,17.4175
889,Bratislavský Kraj,BL,Hrubý Šúr,903 01,48.1704,17.4209
890,Bratislavský Kraj,BL,Bodov,903 01,48.1839,17.4175
891,Bratislavský Kraj,BL,"Reca (č. 380,381,383",903 01,48.1839,17.4175
892,Bratislavský Kraj,BL,Svätý Martin,903 01,48.1839,17.4175
893,Bratislavský Kraj,BL,Hrubá Borša,925 23,48.1813,17.4827
894,Bratislavský Kraj,BL,Reca (ostatné čísla),925 26,48.197,17.5562
895,Bratislavský Kraj,BL,Boldog,925 26,48.197,17.5562
896,Bratislavský Kraj,BL,Bratislava,811 01,48.1482,17.1067
897,Bratislavský Kraj,BL,Bratislava,811 02,48.1482,17.1067
898,Bratislavský Kraj,BL,Bratislava,811 03,48.1482,17.1067
899,Bratislavský Kraj,BL,Bratislava,811 04,48.1482,17.1067
900,Bratislavský Kraj,BL,Bratislava,811 05,48.1482,17.1067
901,Bratislavský Kraj,BL,Bratislava,811 06,48.1482,17.1067
902,Bratislavský Kraj,BL,Bratislava,811 07,48.1482,17.1067
903,Bratislavský Kraj,BL,Bratislava,811 08,48.1482,17.1067
904,Bratislavský Kraj,BL,Bratislava,811 09,48.1482,17.1067
905,Bratislavský Kraj,BL,Bratislava,820 01,48.1482,17.1067
906,Bratislavský Kraj,BL,Bratislava,821 01,48.1482,17.1067
907,Bratislavský Kraj,BL,Bratislava,821 02,48.1482,17.1067
908,Bratislavský Kraj,BL,Bratislava,821 03,48.1482,17.1067
909,Bratislavský Kraj,BL,Bratislava,821 04,48.1482,17.1067
910,Bratislavský Kraj,BL,Bratislava,821 05,48.1482,17.1067
911,Bratislavský Kraj,BL,Bratislava,821 08,48.1482,17.1067
912,Bratislavský Kraj,BL,Bratislava,821 09,48.1482,17.1067
913,Bratislavský Kraj,BL,Bratislava,830 00,48.1482,17.1067
914,Bratislavský Kraj,BL,Bratislava,830 05,48.1482,17.1067
915,Bratislavský Kraj,BL,Bratislava,830 06,48.1482,17.1067
916,Bratislavský Kraj,BL,Bratislava,830 07,48.1482,17.1067
917,Bratislavský Kraj,BL,Bratislava,831 01,48.1482,17.1067
918,Bratislavský Kraj,BL,Bratislava,831 02,48.1482,17.1067
919,Bratislavský Kraj,BL,Bratislava,831 03,48.1482,17.1067
920,Bratislavský Kraj,BL,Bratislava,831 04,48.1482,17.1067
921,Bratislavský Kraj,BL,Bratislava,831 06,48.1482,17.1067
922,Bratislavský Kraj,BL,Bratislava,831 51,48.1482,17.1067
923,Bratislavský Kraj,BL,Bratislava,831 52,48.1482,17.1067
924,Bratislavský Kraj,BL,Bratislava,831 53,48.1482,17.1067
925,Bratislavský Kraj,BL,Bratislava,831 54,48.1482,17.1067
926,Bratislavský Kraj,BL,Bratislava,831 55,48.1482,17.1067
927,Bratislavský Kraj,BL,Bratislava,840 02,48.1482,17.1067
928,Bratislavský Kraj,BL,Bratislava,840 08,48.1482,17.1067
929,Bratislavský Kraj,BL,Bratislava,840 09,48.1482,17.1067
930,Bratislavský Kraj,BL,Bratislava,841 01,48.1482,17.1067
931,Bratislavský Kraj,BL,Bratislava,841 02,48.1482,17.1067
932,Bratislavský Kraj,BL,Bratislava,841 04,48.1482,17.1067
933,Bratislavský Kraj,BL,Bratislava,841 05,48.1482,17.1067
934,Bratislavský Kraj,BL,Bratislava,841 07,48.1482,17.1067
935,Bratislavský Kraj,BL,Bratislava,841 08,48.1482,17.1067
936,Bratislavský Kraj,BL,Bratislava,850 00,48.1482,17.1067
937,Bratislavský Kraj,BL,Bratislava,850 09,48.1482,17.1067
938,Bratislavský Kraj,BL,Bratislava,851 01,48.1482,17.1067
939,Bratislavský Kraj,BL,Bratislava,851 02,48.1482,17.1067
940,Bratislavský Kraj,BL,Bratislava,851 03,48.1482,17.1067
941,Bratislavský Kraj,BL,Bratislava,851 04,48.1482,17.1067
942,Bratislavský Kraj,BL,Bratislava,851 05,48.1482,17.1067
943,Bratislavský Kraj,BL,Bratislava,851 06,48.1482,17.1067
944,Bratislavský Kraj,BL,Bratislava,851 07,48.1482,17.1067
945,Košický Kraj,KI,Závadka,053 33,48.8658,20.6184
946,Košický Kraj,KI,Henclová,053 33,48.7869,20.5922
947,Košický Kraj,KI,Tichá Voda,053 33,48.7844,20.5979
948,Košický Kraj,KI,Nálepkovo,053 33,48.8424,20.6203
949,Košický Kraj,KI,Zahájnica,053 33,48.8199,20.6072
950,Košický Kraj,KI,Čierna Hora,053 33,48.8199,20.6072
951,Košický Kraj,KI,Hámre,053 33,48.8199,20.6072
952,Košický Kraj,KI,Švedlár,053 34,48.8134,20.7138
953,Košický Kraj,KI,Stará Voda,053 34,48.7991,20.6761
954,Košický Kraj,KI,Richnava,053 51,48.9265,20.9215
955,Košický Kraj,KI,Kluknava,053 51,48.9244,20.9414
956,Košický Kraj,KI,Hrišovce,053 51,48.9255,20.9314
957,Košický Kraj,KI,Štefanská Huta,053 51,48.9255,20.9314
958,Košický Kraj,KI,Margecany,055 01,48.8924,21.012
959,Košický Kraj,KI,Veľký Folkmar,055 51,48.8561,21.0138
960,Košický Kraj,KI,Kojšov,055 52,48.8218,20.9877
961,Košický Kraj,KI,Jaklovce,055 61,48.8717,20.988
962,Košický Kraj,KI,Prakovce,055 62,48.8159,20.8961
963,Košický Kraj,KI,Helcmanovce,055 63,48.8307,20.8677
964,Košický Kraj,KI,Mníšek nad Hnilcom,055 64,48.8041,20.8048
965,Košický Kraj,KI,Smolnícka Huta,055 65,48.7452,20.7736
966,Košický Kraj,KI,Úhorná,055 66,48.7059,20.6751
967,Košický Kraj,KI,Smolník,055 66,48.7294,20.7377
968,Košický Kraj,KI,Žakarovce,055 71,48.8786,20.9241
969,Košický Kraj,KI,Gelnica,056 01,48.8558,20.9371
970,Košický Kraj,KI,Staré Mesto,040 01,48.7396,21.2481
971,Košický Kraj,KI,Kavečany,040 01,48.7759,21.2059
972,Košický Kraj,KI,Ťahanovce,040 13,48.7576,21.2576
973,Košický Kraj,KI,Západ,040 11,48.6898,21.1932
974,Košický Kraj,KI,Lorinčík,040 11,48.6898,21.1932
975,Košický Kraj,KI,Pereš,040 11,48.6898,21.1932
976,Košický Kraj,KI,Poľov,040 15,48.6645,21.1931
977,Košický Kraj,KI,Šaca,040 15,48.6335,21.1694
978,Košický Kraj,KI,Myslava,040 16,48.7095,21.2031
979,Košický Kraj,KI,Železiarne,044 54,48.5797,21.2299
980,Košický Kraj,KI,Košická Nová Ves,040 14,48.7334,21.2973
981,Košický Kraj,KI,Vyšné Opátske,040 01,48.7033,21.2903
982,Košický Kraj,KI,Barca,040 17,48.6813,21.2618
983,Košický Kraj,KI,Šebastovce,040 17,48.6544,21.2677
984,Košický Kraj,KI,Krásna,040 18,48.67,21.3175
985,Košický Kraj,KI,Ľudvikov dvor,040 15,48.649,21.1813
986,Košický Kraj,KI,Baška,040 16,48.7067,21.184
987,Košický Kraj,KI,Vyšná Hutka,040 18,48.6759,21.3541
988,Košický Kraj,KI,Nižná Hutka,040 18,48.6574,21.3594
989,Košický Kraj,KI,Drienovec,044 01,48.6103,20.9475
990,Košický Kraj,KI,Žarnov,044 02,48.5834,20.9241
991,Košický Kraj,KI,Dvorníky - Včeláre,044 02,48.5991,20.8601
992,Košický Kraj,KI,Háj,044 02,48.6297,20.8526
993,Košický Kraj,KI,Hosťovce,044 02,48.5667,20.8667
994,Košický Kraj,KI,Zádiel,044 02,48.6122,20.8328
995,Košický Kraj,KI,Dvorníky,044 02,48.6011,20.8396
996,Košický Kraj,KI,Chorváty,044 02,48.5648,20.8735
997,Košický Kraj,KI,Včeláre,044 02,48.5889,20.8078
998,Košický Kraj,KI,Turňa nad Bodvou,044 02,48.6,20.8809
999,Košický Kraj,KI,Hačava,044 02,48.6667,20.8333
1000,Košický Kraj,KI,Turnianska Nová Ves,044 02,48.5781,20.8898
1001,Košický Kraj,KI,Janík,044 05,48.5548,20.9688
1002,Košický Kraj,KI,Peder,044 05,48.5782,20.9506
1003,Košický Kraj,KI,Geča,044 10,48.6279,21.3099
1004,Košický Kraj,KI,Ždaňa,044 11,48.6013,21.3491
1005,Košický Kraj,KI,Skároš,044 11,48.5876,21.3761
1006,Košický Kraj,KI,Trstené pri Hornáde,044 11,48.5755,21.3343
1007,Košický Kraj,KI,Hýľov,044 12,48.7303,21.106
1008,Košický Kraj,KI,Nižný Klátov,044 12,48.7292,21.142
1009,Košický Kraj,KI,Vyšný Klátov,044 12,48.7448,21.1246
1010,Košický Kraj,KI,Valaliky,044 13,48.6358,21.2988
1011,Košický Kraj,KI,Všechsvätých,044 13,48.6382,21.303
1012,Košický Kraj,KI,Kokšov - Bakša,044 13,48.6455,21.324
1013,Košický Kraj,KI,Košťany,044 13,48.6326,21.3023
1014,Košický Kraj,KI,Bernátovce,044 13,48.641,21.2996
1015,Košický Kraj,KI,Buzice,044 13,48.6462,21.2973
1016,Košický Kraj,KI,Gyňov,044 14,48.5886,21.3037
1017,Košický Kraj,KI,Geča č. 107-110,044 14,48.5993,21.315
1018,Košický Kraj,KI,Čaňa,044 14,48.6099,21.3262
1019,Košický Kraj,KI,Vyšná Myšľa,044 15,48.6353,21.3889
1020,Košický Kraj,KI,Nižná Myšľa,044 15,48.6239,21.3651
1021,Košický Kraj,KI,Blažice,044 16,48.6672,21.4106
1022,Košický Kraj,KI,Rákoš,044 16,48.6428,21.4273
1023,Košický Kraj,KI,Vyšný Čaj,044 16,48.6835,21.3989
1024,Košický Kraj,KI,Nižný Čaj,044 16,48.6659,21.3969
1025,Košický Kraj,KI,Bohdanovce,044 16,48.6561,21.4009
1026,Košický Kraj,KI,Slanec,044 17,48.6359,21.4772
1027,Košický Kraj,KI,Slančík,044 17,48.6611,21.4906
1028,Košický Kraj,KI,Slanská Huta,044 17,48.5989,21.4644
1029,Košický Kraj,KI,Nový Salaš,044 17,48.6113,21.473
1030,Košický Kraj,KI,Kalša,044 18,48.6142,21.5236
1031,Košický Kraj,KI,Slanské Nové Mesto,044 18,48.6314,21.5233
1032,Košický Kraj,KI,Olšovany,044 19,48.7069,21.4071
1033,Košický Kraj,KI,Ruskov,044 19,48.6819,21.4324
1034,Košický Kraj,KI,Ďurkov,044 19,48.6944,21.4197
1035,Košický Kraj,KI,Malá Ida,044 20,48.6748,21.1679
1036,Košický Kraj,KI,Bukovec,044 20,48.7103,21.1518
1037,Košický Kraj,KI,Nováčany,044 21,48.6902,21.072
1038,Košický Kraj,KI,Šemša,044 21,48.6762,21.1137
1039,Košický Kraj,KI,Hodkovce,044 21,48.6792,21.1001
1040,Košický Kraj,KI,Jasov,044 23,48.6826,20.9757
1041,Košický Kraj,KI,Rudník,044 23,48.6946,21.0097
1042,Košický Kraj,KI,Poproč,044 24,48.7117,20.9752
1043,Košický Kraj,KI,Vyšný Medzev,044 25,48.714,20.9029
1044,Košický Kraj,KI,Baňa Lucia,044 25,48.7216,20.9273
1045,Košický Kraj,KI,Nižný Medzev,044 25,48.7004,20.8937
1046,Košický Kraj,KI,Medzev,044 25,48.7004,20.8937
1047,Košický Kraj,KI,Štós - kúpele,044 26,48.7211,20.7912
1048,Košický Kraj,KI,Štós,044 26,48.7082,20.7909
1049,Košický Kraj,KI,Sokoľ,044 31,48.8127,21.2193
1050,Košický Kraj,KI,Malá Vieska,044 31,48.8055,21.245
1051,Košický Kraj,KI,Tepličany,044 31,48.797,21.2571
1052,Košický Kraj,KI,Kostoľany n/Hornádom,044 31,48.8051,21.2404
1053,Košický Kraj,KI,Družstevná pri Horn.,044 31,48.8051,21.2404
1054,Košický Kraj,KI,Malá Lodina,044 32,48.878,21.1333
1055,Košický Kraj,KI,Zdoba,044 41,48.7077,21.3315
1056,Košický Kraj,KI,Košická Polianka,044 41,48.7081,21.3418
1057,Košický Kraj,KI,Byster,044 41,48.7085,21.3521
1058,Košický Kraj,KI,Sady nad Torysou,044 41,48.7081,21.3418
1059,Košický Kraj,KI,Rozhanovce,044 42,48.7503,21.3446
1060,Košický Kraj,KI,Hrašovík,044 42,48.7467,21.3213
1061,Košický Kraj,KI,Košické Oľšany,044 42,48.732,21.3446
1062,Košický Kraj,KI,Beniakovce,044 42,48.7682,21.3162
1063,Košický Kraj,KI,Budimír,044 43,48.7995,21.3016
1064,Košický Kraj,KI,Vajkovce,044 43,48.7829,21.3238
1065,Košický Kraj,KI,Chrastné,044 44,48.7937,21.3514
1066,Košický Kraj,KI,Kráľovce,044 44,48.8025,21.3286
1067,Košický Kraj,KI,Nová Polhora,044 44,48.8103,21.3413
1068,Košický Kraj,KI,Ploské,044 44,48.815,21.3257
1069,Košický Kraj,KI,Ortáše,044 44,48.8302,21.3597
1070,Košický Kraj,KI,Trsťany,044 45,48.7598,21.4084
1071,Košický Kraj,KI,Herľany,044 45,48.7998,21.4766
1072,Košický Kraj,KI,Košický Klečenov,044 45,48.7396,21.5065
1073,Košický Kraj,KI,Bačkovík,044 45,48.7828,21.4316
1074,Košický Kraj,KI,Žírovce,044 45,48.7932,21.4681
1075,Košický Kraj,KI,Ďurďošík,044 45,48.7683,21.4649
1076,Košický Kraj,KI,Svinica,044 45,48.7348,21.4663
1077,Košický Kraj,KI,Bidovce,044 45,48.7362,21.4395
1078,Košický Kraj,KI,Vyšná Kamenica,044 45,48.7785,21.4856
1079,Košický Kraj,KI,Čakanovce,044 45,48.7668,21.4433
1080,Košický Kraj,KI,Borda,044 45,48.7541,21.5075
1081,Košický Kraj,KI,Rankovce,044 45,48.812,21.4639
1082,Košický Kraj,KI,Nižná Kamenica,044 45,48.7623,21.481
1083,Košický Kraj,KI,Mudrovce,044 47,48.8281,21.4494
1084,Košický Kraj,KI,Vtáčkovce,044 47,48.8429,21.382
1085,Košický Kraj,KI,Opiná,044 47,48.8544,21.427
1086,Košický Kraj,KI,Kecerovce,044 47,48.8294,21.4189
1087,Košický Kraj,KI,Boliarov,044 47,48.8027,21.4325
1088,Košický Kraj,KI,Kecerovský Lipovec,044 47,48.8453,21.4348
1089,Košický Kraj,KI,Čižatice,044 47,48.7955,21.3924
1090,Košický Kraj,KI,Bunetice,044 47,48.8294,21.4189
1091,Košický Kraj,KI,Kecerovské Kostoľany,044 47,48.8333,21.4167
1092,Košický Kraj,KI,Kecerovské Pekľany,044 47,48.8333,21.4167
1093,Košický Kraj,KI,Veľká Ida,044 55,48.596,21.1679
1094,Košický Kraj,KI,Komárovce,044 55,48.5741,21.1204
1095,Košický Kraj,KI,Gomboš,044 55,48.585,21.1442
1096,Košický Kraj,KI,Haniska,044 57,48.6199,21.2516
1097,Košický Kraj,KI,Sokoľany,044 57,48.6089,21.2294
1098,Košický Kraj,KI,Bočiar,044 57,48.591,21.2354
1099,Košický Kraj,KI,Grajciar,044 57,48.6066,21.2388
1100,Košický Kraj,KI,Milhosť,044 58,48.5387,21.2674
1101,Košický Kraj,KI,Seňa,044 58,48.559,21.2614
1102,Košický Kraj,KI,Kechnec,044 58,48.5504,21.264
1103,Košický Kraj,KI,Belža,044 58,48.5793,21.2713
1104,Košický Kraj,KI,Zlatá Idka,044 61,48.7534,21.0047
1105,Košický Kraj,KI,Opátka,044 65,48.7879,21.058
1106,Košický Kraj,KI,Košická Belá,044 65,48.8017,21.1113
1107,Košický Kraj,KI,Cestice,044 71,48.5914,21.101
1108,Košický Kraj,KI,Paňovce,044 71,48.6472,21.0628
1109,Košický Kraj,KI,Čečejovce,044 71,48.595,21.0651
1110,Košický Kraj,KI,Dobogov,044 71,48.6138,21.0727
1111,Košický Kraj,KI,Seleška,044 71,48.6215,21.0618
1112,Košický Kraj,KI,Rešica,044 73,48.5425,21.04
1113,Košický Kraj,KI,Nižný Lánec,044 73,48.5362,21.1094
1114,Košický Kraj,KI,Buzica,044 73,48.5322,21.0761
1115,Košický Kraj,KI,Vyšný Lánec,044 74,48.5304,21.1297
1116,Košický Kraj,KI,Perín,044 74,48.5345,21.1883
1117,Košický Kraj,KI,Chym,044 74,48.5324,21.159
1118,Košický Kraj,KI,Perín - Chym,044 74,48.5324,21.159
1119,Košický Kraj,KI,Kysak,044 81,48.8556,21.2197
1120,Košický Kraj,KI,Trebejov,044 81,48.835,21.2206
1121,Košický Kraj,KI,Veľká Lodina,044 81,48.8453,21.2201
1122,Košický Kraj,KI,Obišovce,044 81,48.8453,21.2201
1123,Košický Kraj,KI,Debraď,045 01,48.6507,20.9778
1124,Košický Kraj,KI,Moldava nad Bodvou,045 01,48.6143,20.9996
1125,Košický Kraj,KI,Budulov,045 01,48.5882,20.9924
1126,Košický Kraj,KI,Mokrance,045 01,48.596,21.0204
1127,Košický Kraj,KI,Topoľany,071 01,48.7745,21.8911
1128,Košický Kraj,KI,Michalovce,071 01,48.7543,21.9195
1129,Košický Kraj,KI,Močarany,071 01,48.7313,21.8821
1130,Košický Kraj,KI,Vybúchanec,071 01,48.821,21.8169
1131,Košický Kraj,KI,Vŕbovec,071 01,48.7363,21.9515
1132,Košický Kraj,KI,Lesné,071 01,48.8016,21.8154
1133,Košický Kraj,KI,Milovaná,071 01,48.763,21.877
1134,Košický Kraj,KI,Betlenovce,071 01,48.7193,21.9045
1135,Košický Kraj,KI,Suché,071 01,48.7653,21.8347
1136,Košický Kraj,KI,Žabany,071 01,48.763,21.877
1137,Košický Kraj,KI,Meďov,071 01,48.763,21.877
1138,Košický Kraj,KI,Petrovce n/Laborcom,071 01,48.763,21.877
1139,Košický Kraj,KI,Pozdišovce,072 01,48.7246,21.8546
1140,Košický Kraj,KI,Laškovce,072 01,48.7011,21.8513
1141,Košický Kraj,KI,Krásnovce,072 01,48.7211,21.8842
1142,Košický Kraj,KI,Šamudovce,072 01,48.7064,21.8869
1143,Košický Kraj,KI,Tušice,072 02,48.7268,21.7507
1144,Košický Kraj,KI,Horovce,072 02,48.7047,21.7685
1145,Košický Kraj,KI,Tušická Nová Ves,072 02,48.7164,21.7546
1146,Košický Kraj,KI,Lučkovce,072 03,48.7187,21.7931
1147,Košický Kraj,KI,Moravany,072 03,48.7405,21.7851
1148,Košický Kraj,KI,Rakovec nad Ondavou,072 03,48.7687,21.7827
1149,Košický Kraj,KI,Trhovište,072 04,48.6982,21.8047
1150,Košický Kraj,KI,Bánovce nad Ondavou,072 04,48.6832,21.8124
1151,Košický Kraj,KI,Piesky,072 04,48.6667,21.8
1152,Košický Kraj,KI,Kačanov,072 05,48.6122,21.8443
1153,Košický Kraj,KI,Ložín,072 05,48.6596,21.8352
1154,Košický Kraj,KI,Bracovce,072 05,48.6462,21.839
1155,Košický Kraj,KI,Falkušovce,072 05,48.6323,21.8413
1156,Košický Kraj,KI,Petrikovce,072 06,48.5453,21.861
1157,Košický Kraj,KI,Hradištská Moľva,072 06,48.5741,21.8099
1158,Košický Kraj,KI,Malčice,072 06,48.5779,21.8524
1159,Košický Kraj,KI,Markovce,072 06,48.5909,21.8427
1160,Košický Kraj,KI,Iňačovce,072 11,48.6973,22.0319
1161,Košický Kraj,KI,Čečehov,072 11,48.7248,21.9899
1162,Košický Kraj,KI,Jastrabie pri Michal,072 11,48.711,22.0109
1163,Košický Kraj,KI,Stretavka,072 13,48.6225,21.9872
1164,Košický Kraj,KI,Senné,072 13,48.6643,22.0231
1165,Košický Kraj,KI,Stretava,072 13,48.6434,22.0037
1166,Košický Kraj,KI,Zemplínska Široká,072 13,48.647,22.0004
1167,Košický Kraj,KI,Palín,072 13,48.6577,21.9877
1168,Košický Kraj,KI,Dolný Les,072 13,48.647,22.0004
1169,Košický Kraj,KI,Ťahyňa,072 14,48.5976,22.0633
1170,Košický Kraj,KI,Ortov,072 14,48.5835,22.0973
1171,Košický Kraj,KI,Pavlovce nad Uhom,072 14,48.6109,22.069
1172,Košický Kraj,KI,Vysoká nad Uhom,072 14,48.6261,22.0913
1173,Košický Kraj,KI,Vysocký Dvor,072 14,48.6323,22.1003
1174,Košický Kraj,KI,Budkovce,072 15,48.6322,21.9306
1175,Košický Kraj,KI,Dúbravka,072 15,48.6359,21.8886
1176,Košický Kraj,KI,Komanica,072 15,48.646,21.8927
1177,Košický Kraj,KI,Vrbnica,072 16,48.6813,21.8878
1178,Košický Kraj,KI,Hatalov,072 16,48.6588,21.889
1179,Košický Kraj,KI,Žbince,072 16,48.6671,21.8817
1180,Košický Kraj,KI,Ridzina,072 16,48.6691,21.8862
1181,Košický Kraj,KI,Slavkovce,072 17,48.6023,21.9215
1182,Košický Kraj,KI,Malé Raškovce,072 17,48.5793,21.9188
1183,Košický Kraj,KI,Zemplínske Kopčany,072 17,48.5908,21.9202
1184,Košický Kraj,KI,Nacina Ves,072 21,48.8189,21.8546
1185,Košický Kraj,KI,Stankovce,072 21,48.8369,21.8487
1186,Košický Kraj,KI,Voľa,072 21,48.845,21.8508
1187,Košický Kraj,KI,Pusté Čemerné,072 22,48.8422,21.8166
1188,Košický Kraj,KI,Krivošťany,072 22,48.8805,21.8525
1189,Košický Kraj,KI,Pláne,072 22,48.8586,21.8167
1190,Košický Kraj,KI,Strážske,072 22,48.8735,21.8367
1191,Košický Kraj,KI,Oreské,072 23,48.8596,21.9046
1192,Košický Kraj,KI,Zbudza,072 23,48.8144,21.8932
1193,Košický Kraj,KI,Staré,072 23,48.8614,21.8755
1194,Košický Kraj,KI,Trnava pri Laborci,072 31,48.8179,21.9319
1195,Košický Kraj,KI,Vinné,072 31,48.8096,21.9676
1196,Košický Kraj,KI,Jovsa,072 32,48.8192,22.0908
1197,Košický Kraj,KI,Kusín,072 32,48.8158,22.0627
1198,Košický Kraj,KI,Poruba p/Vihorlatom,072 32,48.8175,22.0768
1199,Košický Kraj,KI,Závadka,072 33,48.7661,22.0664
1200,Košický Kraj,KI,Hnojné,072 33,48.7784,22.0691
1201,Košický Kraj,KI,Lúčky,072 34,48.7669,22.0389
1202,Košický Kraj,KI,Veľké Zalužice,072 34,48.7534,21.9834
1203,Košický Kraj,KI,Malé Zalužice,072 34,48.7627,21.9934
1204,Košický Kraj,KI,Zalužice,072 34,48.7589,22.0088
1205,Košický Kraj,KI,Hažín,072 34,48.7523,22.0194
1206,Košický Kraj,KI,Klokočov,072 36,48.8136,22.0298
1207,Košický Kraj,KI,Kaluža,072 36,48.8078,21.9999
1208,Košický Kraj,KI,Zemplínska Šírava,072 36,48.8107,22.0149
1209,Košický Kraj,KI,Sliepkovce,072 37,48.6726,21.9462
1210,Košický Kraj,KI,Lastomír,072 37,48.7028,21.9253
1211,Košický Kraj,KI,Bajany,072 54,48.6026,22.1088
1212,Košický Kraj,KI,Čičarovce,076 71,48.54,22.0272
1213,Košický Kraj,KI,Beša,076 72,48.5356,21.9514
1214,Košický Kraj,KI,Ižkovce,076 72,48.557,21.9564
1215,Košický Kraj,KI,Vojany,076 72,48.568,21.9896
1216,Košický Kraj,KI,Drahňov,076 74,48.5932,21.9659
1217,Košický Kraj,KI,Kucany,076 75,48.5324,21.8678
1218,Košický Kraj,KI,Veľké Raškovce,076 75,48.5554,21.9107
1219,Košický Kraj,KI,Oborín,076 75,48.5413,21.8836
1220,Košický Kraj,KI,Veľké Slemence,076 77,48.5091,22.1402
1221,Košický Kraj,KI,Ptrukša,076 77,48.4872,22.1407
1222,Košický Kraj,KI,Ruská,076 77,48.5273,22.1407
1223,Košický Kraj,KI,Budince,076 77,48.5447,22.1233
1224,Košický Kraj,KI,Liesková,079 01,48.5835,22.0409
1225,Košický Kraj,KI,Krížany,079 01,48.5829,22.031
1226,Košický Kraj,KI,Veľké Kapušany,079 01,48.552,22.0804
1227,Košický Kraj,KI,Kapušianske Vojkovce,079 01,48.5664,22.1406
1228,Košický Kraj,KI,Kapušianske Kľačany,079 01,48.5726,22.0737
1229,Košický Kraj,KI,Čierne Pole,079 01,48.5781,22.0759
1230,Košický Kraj,KI,Maťovské Vojkovce,079 01,48.5726,22.0737
1231,Košický Kraj,KI,Krišovská Liesková,079 01,48.5726,22.0737
1232,Košický Kraj,KI,Čučma,048 01,48.6916,20.5413
1233,Košický Kraj,KI,Rudná,048 01,48.6578,20.4894
1234,Košický Kraj,KI,Rožňava,048 01,48.6601,20.5376
1235,Košický Kraj,KI,Nadabula,048 01,48.6778,20.5185
1236,Košický Kraj,KI,Rožňavská Baňa,048 01,48.6718,20.5217
1237,Košický Kraj,KI,Slavec,049 11,48.5858,20.4673
1238,Košický Kraj,KI,Vidová,049 11,48.5634,20.4411
1239,Košický Kraj,KI,Silická Brezová,049 11,48.5323,20.486
1240,Košický Kraj,KI,Plešivec,049 11,48.5458,20.4022
1241,Košický Kraj,KI,Tiba,049 12,48.5103,20.375
1242,Košický Kraj,KI,Gemerská Hôrka,049 12,48.535,20.3782
1243,Košický Kraj,KI,Meliata,049 12,48.5158,20.3316
1244,Košický Kraj,KI,Čoltovo,049 12,48.495,20.3754
1245,Košický Kraj,KI,Bohúňovo,049 12,48.514,20.3651
1246,Košický Kraj,KI,Betliar,049 21,48.7027,20.5081
1247,Košický Kraj,KI,Gemerská Poloma,049 22,48.7572,20.3923
1248,Košický Kraj,KI,Henckovce,049 23,48.7129,20.4322
1249,Košický Kraj,KI,Nižná Slaná,049 23,48.7252,20.4093
1250,Košický Kraj,KI,Kobeliarovo,049 23,48.7446,20.3709
1251,Košický Kraj,KI,Nižnoslanská Baňa,049 23,48.7276,20.4041
1252,Košický Kraj,KI,Vlachovo,049 24,48.7725,20.416
1253,Košický Kraj,KI,Gočovo,049 24,48.7593,20.4202
1254,Košický Kraj,KI,Dobšiná,049 25,48.8207,20.3699
1255,Košický Kraj,KI,Rejdová,049 26,48.7904,20.2861
1256,Košický Kraj,KI,Vyšná Slaná,049 26,48.7861,20.3184
1257,Košický Kraj,KI,Rakovnica,049 31,48.6564,20.4608
1258,Košický Kraj,KI,Rožňavské Bystré,049 31,48.6652,20.442
1259,Košický Kraj,KI,Štítnik,049 32,48.659,20.364
1260,Košický Kraj,KI,Gočaltovo,049 32,48.6378,20.3454
1261,Košický Kraj,KI,Pašková,049 32,48.5915,20.3837
1262,Košický Kraj,KI,Kunova Teplica,049 32,48.6118,20.3807
1263,Košický Kraj,KI,Honce,049 32,48.6678,20.4052
1264,Košický Kraj,KI,Rozložná,049 32,48.6172,20.3512
1265,Košický Kraj,KI,Markuška,049 34,48.7284,20.3262
1266,Košický Kraj,KI,Brdárka,049 34,48.7669,20.3389
1267,Košický Kraj,KI,Hanková,049 34,48.7491,20.314
1268,Košický Kraj,KI,Slavoška,049 34,48.7282,20.3368
1269,Košický Kraj,KI,Ochtiná,049 35,48.6841,20.3275
1270,Košický Kraj,KI,Petrovo,049 35,48.7139,20.3642
1271,Košický Kraj,KI,Koceľovce,049 35,48.7098,20.3438
1272,Košický Kraj,KI,Roštár,049 35,48.6922,20.3506
1273,Košický Kraj,KI,Slavošovce,049 36,48.713,20.2822
1274,Košický Kraj,KI,Rochovce,049 36,48.7024,20.3013
1275,Košický Kraj,KI,Čierna Lehota,049 36,48.7172,20.2707
1276,Košický Kraj,KI,Pača,049 41,48.682,20.6121
1277,Košický Kraj,KI,Krásnohor. Podhradie,049 41,48.682,20.6121
1278,Košický Kraj,KI,Bôrka,049 42,48.6324,20.7645
1279,Košický Kraj,KI,Kováčová,049 42,48.6407,20.699
1280,Košický Kraj,KI,Lipovník,049 42,48.6291,20.6218
1281,Košický Kraj,KI,Lúčka,049 42,48.6354,20.6855
1282,Košický Kraj,KI,Drnava,049 42,48.6395,20.6567
1283,Košický Kraj,KI,Hrušov,049 43,48.5824,20.6354
1284,Košický Kraj,KI,Jablonov nad Turňou,049 43,48.5939,20.6745
1285,Košický Kraj,KI,Silická Jablonica,049 43,48.5583,20.6086
1286,Košický Kraj,KI,Hrhov,049 44,48.6063,20.7507
1287,Košický Kraj,KI,Jovice,049 45,48.631,20.5497
1288,Košický Kraj,KI,Krásnohor. Dlhá Lúka,049 45,48.631,20.5497
1289,Košický Kraj,KI,Kružná,049 51,48.638,20.4706
1290,Košický Kraj,KI,Brzotín,049 51,48.631,20.4957
1291,Košický Kraj,KI,Silica,049 52,48.5555,20.5221
1292,Košický Kraj,KI,Dlhá Ves,049 55,48.4949,20.439
1293,Košický Kraj,KI,Ardovo,049 55,48.532,20.4151
1294,Košický Kraj,KI,Kečovo,049 55,48.4921,20.4848
1295,Košický Kraj,KI,Stratená,049 71,48.8712,20.3384
1296,Košický Kraj,KI,Dobšin. Ľad. Jaskyňa,049 71,48.8712,20.3384
1297,Košický Kraj,KI,Dedinky,049 73,48.8672,20.3795
1298,Košický Kraj,KI,Dobšinská Maša,049 73,48.8672,20.3795
1299,Košický Kraj,KI,Gemerská Panica,980 46,48.4726,20.3504
1300,Košický Kraj,KI,Bretka,980 46,48.4884,20.3409
1301,Košický Kraj,KI,Fekišovce,072 33,48.7713,22.0848
1302,Košický Kraj,KI,Remetské Hámre,072 41,48.8497,22.1837
1303,Košický Kraj,KI,Vyšná Rybnica,072 41,48.8221,22.1773
1304,Košický Kraj,KI,Vyšné Remety,072 41,48.8278,22.1678
1305,Košický Kraj,KI,Úbrež,072 42,48.7863,22.1325
1306,Košický Kraj,KI,Jasenov,072 42,48.7958,22.1678
1307,Košický Kraj,KI,Ruskovce,072 42,48.778,22.1635
1308,Košický Kraj,KI,Vyšné Revištia,072 43,48.7333,22.1
1309,Košický Kraj,KI,Gajdoš,072 43,48.7561,22.1214
1310,Košický Kraj,KI,Veľké Revištia,072 43,48.7426,22.1003
1311,Košický Kraj,KI,Blatné Revištia,072 43,48.7383,22.0795
1312,Košický Kraj,KI,Blatná Polianka,072 44,48.6895,22.1059
1313,Košický Kraj,KI,Blatné Remety,072 44,48.7081,22.1041
1314,Košický Kraj,KI,Bunkovce,072 44,48.7249,22.1169
1315,Košický Kraj,KI,Krčava,072 51,48.683,22.2458
1316,Košický Kraj,KI,Sejkov,072 51,48.6818,22.2276
1317,Košický Kraj,KI,Husák,072 51,48.699,22.2879
1318,Košický Kraj,KI,Orechová,072 51,48.7069,22.2238
1319,Košický Kraj,KI,Vyšné Nemecké,072 51,48.6608,22.2618
1320,Košický Kraj,KI,Močidlá,072 51,48.6863,22.2494
1321,Košický Kraj,KI,Nižné Nemecké,072 52,48.6535,22.2376
1322,Košický Kraj,KI,Tašuľa,072 52,48.6595,22.1712
1323,Košický Kraj,KI,Jenkovce,072 52,48.6556,22.2092
1324,Košický Kraj,KI,Bežovce,072 53,48.6288,22.1535
1325,Košický Kraj,KI,Záhor,072 53,48.6249,22.205
1326,Košický Kraj,KI,Pinkovce,072 54,48.608,22.185
1327,Košický Kraj,KI,Lekárovce,072 54,48.6032,22.156
1328,Košický Kraj,KI,Porostov,072 55,48.6977,22.1779
1329,Košický Kraj,KI,Ostrov,072 55,48.7183,22.1635
1330,Košický Kraj,KI,Svätuš,072 55,48.6846,22.1413
1331,Košický Kraj,KI,Kristy,072 55,48.6867,22.1885
1332,Košický Kraj,KI,Porúbka,072 61,48.7322,22.2654
1333,Košický Kraj,KI,Vojnatina,072 61,48.7352,22.2299
1334,Košický Kraj,KI,Priekopa,072 61,48.7514,22.2762
1335,Košický Kraj,KI,Kolibabovce,072 61,48.7196,22.2586
1336,Košický Kraj,KI,Petrovce,072 62,48.7075,22.3241
1337,Košický Kraj,KI,Koromľa,072 62,48.7159,22.2932
1338,Košický Kraj,KI,Koňuš,072 63,48.7763,22.2691
1339,Košický Kraj,KI,Choňkovce,072 63,48.779,22.2395
1340,Košický Kraj,KI,Podhoroď,072 64,48.8183,22.3008
1341,Košický Kraj,KI,Ruský Hrabovec,072 64,48.856,22.3544
1342,Košický Kraj,KI,Ruská Bystrá,072 64,48.8557,22.2962
1343,Košický Kraj,KI,Inovce,072 64,48.823,22.359
1344,Košický Kraj,KI,Beňatina,072 64,48.8088,22.3264
1345,Košický Kraj,KI,Baškovce,073 01,48.7852,22.2053
1346,Košický Kraj,KI,Komárovce,073 01,48.7322,22.177
1347,Košický Kraj,KI,Sobranecké Kúpele,073 01,48.7581,22.1918
1348,Košický Kraj,KI,Hlivištia,073 01,48.8086,22.2206
1349,Košický Kraj,KI,Tibava,073 01,48.7376,22.2128
1350,Košický Kraj,KI,Sobrance,073 01,48.7445,22.1814
1351,Košický Kraj,KI,Horňa,073 01,48.7576,22.1995
1352,Košický Kraj,KI,Nižná Rybnica,073 01,48.741,22.1463
1353,Košický Kraj,KI,Teplička,052 01,48.9092,20.5897
1354,Košický Kraj,KI,Spišské Tomášovce,052 01,48.962,20.4723
1355,Košický Kraj,KI,Harichovce,053 01,49.0033,20.7471
1356,Košický Kraj,KI,Smižany,053 11,48.9545,20.5234
1357,Košický Kraj,KI,Iliašovce,053 11,48.9545,20.5234
1358,Košický Kraj,KI,Hadušovce,053 13,48.9682,20.4742
1359,Košický Kraj,KI,Letanovce,053 13,48.9735,20.4844
1360,Košický Kraj,KI,Arnutovce,053 13,48.9789,20.4946
1361,Košický Kraj,KI,Hrabušice,053 15,48.9756,20.4086
1362,Košický Kraj,KI,Betlanovce,053 15,48.9756,20.4086
1363,Košický Kraj,KI,Lieskovany,053 21,48.9281,20.6047
1364,Košický Kraj,KI,Markušovce,053 21,48.9119,20.6307
1365,Košický Kraj,KI,Matejovce nad Hornádom,053 21,48.92,20.6177
1366,Košický Kraj,KI,Odorín,053 22,48.9337,20.6346
1367,Košický Kraj,KI,Danišovce,053 22,48.9337,20.6346
1368,Košický Kraj,KI,Jamník,053 22,48.9337,20.6346
1369,Košický Kraj,KI,Rudňany,053 23,48.8816,20.6801
1370,Košický Kraj,KI,Poráč,053 23,48.8842,20.7239
1371,Košický Kraj,KI,Novoveská Huta,053 31,48.8312,20.6139
1372,Košický Kraj,KI,Bindt,053 32,48.8706,20.5788
1373,Košický Kraj,KI,Hnilčík,053 32,48.8592,20.5745
1374,Košický Kraj,KI,Ráztoky,053 32,48.8595,20.5531
1375,Košický Kraj,KI,Slovinky,053 40,48.881,20.837
1376,Košický Kraj,KI,Kolinovce,053 42,48.9282,20.8524
1377,Košický Kraj,KI,Kaľava,053 42,48.9342,20.8682
1378,Košický Kraj,KI,Krompachy,053 42,48.9145,20.8751
1379,Košický Kraj,KI,Olcnava,053 61,48.9275,20.7556
1380,Košický Kraj,KI,Dobrá Voľa,053 61,48.9689,20.7827
1381,Košický Kraj,KI,Spišské Vlachy,053 61,48.9475,20.7957
1382,Košický Kraj,KI,Vojkovce,053 61,48.9533,20.8627
1383,Košický Kraj,KI,Hodkovce,053 61,48.6792,21.1001
1384,Košický Kraj,KI,Oľšavka,053 61,48.8953,20.8594
1385,Košický Kraj,KI,Žehra,053 61,48.8953,20.8594
1386,Košický Kraj,KI,Slatvina,053 61,48.8953,20.8594
1387,Košický Kraj,KI,Bystrany,053 62,48.9487,20.7598
1388,Košický Kraj,KI,Chrasť nad Hornádom,053 63,48.9266,20.6952
1389,Košický Kraj,KI,Trsťany,053 63,48.9339,20.7079
1390,Košický Kraj,KI,Spišský Hrušov,053 63,48.9475,20.7059
1391,Košický Kraj,KI,Vítkovce,053 63,48.9275,20.7225
1392,Košický Kraj,KI,Hincovce,053 63,48.9339,20.7079
1393,Košický Kraj,KI,Hnilec,053 75,48.8405,20.5052
1394,Košický Kraj,KI,Delava,053 75,48.8405,20.5052
1395,Košický Kraj,KI,Biele Vody,053 76,48.8645,20.3971
1396,Košický Kraj,KI,Palcmanská Maša,053 76,48.8538,20.3875
1397,Košický Kraj,KI,Havrania Dolina,053 76,48.8638,20.428
1398,Košický Kraj,KI,Mlynky,053 76,48.8522,20.4301
1399,Košický Kraj,KI,Sykavka,053 76,48.8586,20.4107
1400,Košický Kraj,KI,Prostredný Hámor,053 76,48.8586,20.4107
1401,Košický Kraj,KI,Rakovec,053 76,48.8586,20.4107
1402,Košický Kraj,KI,Veľký Ruskov,075 01,48.6473,21.6801
1403,Košický Kraj,KI,Milhostov,075 01,48.6648,21.7121
1404,Košický Kraj,KI,Plechotice,075 01,48.6263,21.6424
1405,Košický Kraj,KI,Egreš,075 01,48.6144,21.6062
1406,Košický Kraj,KI,Nový Majer,075 01,48.6354,21.779
1407,Košický Kraj,KI,Trebišov,075 01,48.6286,21.7195
1408,Košický Kraj,KI,Nový Ruskov,075 01,48.6327,21.6988
1409,Košický Kraj,KI,Malý Ruskov,075 01,48.6357,21.6664
1410,Košický Kraj,KI,Olšina,075 01,48.6091,21.7843
1411,Košický Kraj,KI,Kožuchov,076 01,48.5642,21.7241
1412,Košický Kraj,KI,Zemplínske Hradište,076 01,48.5836,21.7372
1413,Košický Kraj,KI,Kašov,076 02,48.4898,21.7416
1414,Košický Kraj,KI,Kysta,076 02,48.5135,21.7201
1415,Košický Kraj,KI,Zemplínsky Branč,076 02,48.5434,21.7202
1416,Košický Kraj,KI,Novosad,076 02,48.5253,21.7426
1417,Košický Kraj,KI,Hraň,076 03,48.545,21.7847
1418,Košický Kraj,KI,Sirník,076 03,48.5196,21.8017
1419,Košický Kraj,KI,Cejkov,076 05,48.4663,21.7605
1420,Košický Kraj,KI,Zemplínske Jastrabie,076 05,48.475,21.7878
1421,Košický Kraj,KI,Brehov,076 05,48.4836,21.815
1422,Košický Kraj,KI,Kuzmice,076 12,48.5797,21.5696
1423,Košický Kraj,KI,Brezina,076 12,48.5483,21.5605
1424,Košický Kraj,KI,Dancov Potok,076 12,48.5628,21.5631
1425,Košický Kraj,KI,Slivník,076 12,48.5999,21.5566
1426,Košický Kraj,KI,Byšta,076 13,48.5307,21.5388
1427,Košický Kraj,KI,Kazimír,076 13,48.5236,21.5855
1428,Košický Kraj,KI,Michaľany,076 14,48.5159,21.6234
1429,Košický Kraj,KI,Lastovce,076 14,48.5391,21.6281
1430,Košický Kraj,KI,Luhyňa,076 14,48.4906,21.6359
1431,Košický Kraj,KI,Hrčeľ,076 15,48.519,21.6951
1432,Košický Kraj,KI,Veľaty,076 15,48.5241,21.6605
1433,Košický Kraj,KI,Zemplínsky Klečenov,076 16,48.5581,21.6718
1434,Košický Kraj,KI,Stanča,076 16,48.5697,21.6561
1435,Košický Kraj,KI,Zemplínska Nová Ves,076 16,48.5684,21.6655
1436,Košický Kraj,KI,Úpor,076 16,48.5773,21.6686
1437,Košický Kraj,KI,Nižný Žipov,076 17,48.5821,21.6377
1438,Košický Kraj,KI,Čeľovce,076 17,48.6022,21.628
1439,Košický Kraj,KI,Hriadky,076 22,48.6991,21.7089
1440,Košický Kraj,KI,Vojčice,076 22,48.6784,21.7158
1441,Košický Kraj,KI,Klin nad Bodrogom,076 31,48.3838,21.7253
1442,Košický Kraj,KI,Streda nad Bodrogom,076 31,48.3722,21.7542
1443,Košický Kraj,KI,Viničky,076 31,48.3988,21.7447
1444,Košický Kraj,KI,Borša,076 32,48.3944,21.7042
1445,Košický Kraj,KI,Veľká Bara,076 32,48.4256,21.7161
1446,Košický Kraj,KI,Malá Bara,076 32,48.4222,21.7299
1447,Košický Kraj,KI,Bara,076 32,48.4256,21.7161
1448,Košický Kraj,KI,Černochov,076 32,48.4412,21.732
1449,Košický Kraj,KI,Karlov Dvor,076 33,48.401,21.6672
1450,Košický Kraj,KI,Slovenské Nové Mesto,076 33,48.401,21.6672
1451,Košický Kraj,KI,Ladmovce,076 34,48.4137,21.7805
1452,Košický Kraj,KI,Zemplín,076 34,48.44,21.8101
1453,Košický Kraj,KI,Svätá Mária,076 35,48.4333,21.839
1454,Košický Kraj,KI,Pavlovo,076 35,48.439,21.8365
1455,Košický Kraj,KI,N.Vieska pri Bodrogu,076 35,48.4249,21.8278
1456,Košický Kraj,KI,Véč,076 35,48.4249,21.8278
1457,Košický Kraj,KI,Somotor,076 35,48.4025,21.8079
1458,Košický Kraj,KI,Malý Kamenec,076 36,48.3522,21.7878
1459,Košický Kraj,KI,Veľký Kamenec,076 36,48.3616,21.8059
1460,Košický Kraj,KI,Rad,076 37,48.4637,21.8577
1461,Košický Kraj,KI,Hrušov,076 37,48.4604,21.8699
1462,Košický Kraj,KI,Svinice,076 37,48.4571,21.8822
1463,Košický Kraj,KI,Dobrá,076 41,48.4125,22.0286
1464,Košický Kraj,KI,Biel,076 41,48.4089,22.0591
1465,Košický Kraj,KI,Veľké Trakany,076 42,48.3915,22.0886
1466,Košický Kraj,KI,Kolónia,076 42,48.3954,22.0972
1467,Košický Kraj,KI,Malé Trakany,076 42,48.3994,22.1057
1468,Košický Kraj,KI,Boťany,076 43,48.4447,22.0926
1469,Košický Kraj,KI,Čierna nad Tisou,076 43,48.417,22.0887
1470,Košický Kraj,KI,Čierna,076 43,48.417,22.0887
1471,Košický Kraj,KI,Pribeník,076 51,48.3929,22.003
1472,Košický Kraj,KI,Veľký Horeš,076 52,48.3846,21.909
1473,Košický Kraj,KI,Onča,076 52,48.3831,21.9073
1474,Košický Kraj,KI,Malý Horeš,076 52,48.3988,21.9464
1475,Košický Kraj,KI,Strážne,076 52,48.3659,21.8666
1476,Košický Kraj,KI,Zatín,076 53,48.4758,21.9039
1477,Košický Kraj,KI,Soľnička,076 53,48.475,21.9605
1478,Košický Kraj,KI,Boľ,076 53,48.4728,21.9445
1479,Košický Kraj,KI,Kravany,076 61,48.7587,21.6433
1480,Košický Kraj,KI,Višňov,076 61,48.7484,21.6686
1481,Košický Kraj,KI,Bačkov,076 61,48.7399,21.6232
1482,Košický Kraj,KI,Dargov,076 61,48.7332,21.5852
1483,Košický Kraj,KI,Stankovce,076 61,48.8369,21.8487
1484,Košický Kraj,KI,Dvorianky,076 62,48.7309,21.7078
1485,Košický Kraj,KI,Božčice,076 62,48.7692,21.7335
1486,Košický Kraj,KI,Parchovany,076 62,48.7522,21.716
1487,Košický Kraj,KI,Hunkovce,076 62,48.75,21.75
1488,Košický Kraj,KI,Kinčeš,076 62,48.7333,21.6833
1489,Košický Kraj,KI,Zemplínska Teplica,076 64,48.6466,21.5721
1490,Košický Kraj,KI,Čerhov,076 81,48.4633,21.6471
1491,Košický Kraj,KI,Malá Tŕňa,076 82,48.45,21.6833
1492,Košický Kraj,KI,Veľká Tŕňa,076 82,48.469,21.6787
1493,Košický Kraj,KI,Svätuše,076 83,48.4333,21.9167
1494,Košický Kraj,KI,Vojka,076 83,48.4615,21.9153
1495,Košický Kraj,KI,Kapoňa,076 84,48.4622,22.0515
1496,Košický Kraj,KI,Bačka,076 84,48.4421,22.0494
1497,Košický Kraj,KI,Poľany,076 84,48.4686,21.9903
1498,Košický Kraj,KI,Leles,076 84,48.463,22.029
1499,Košický Kraj,KI,Fejséš,077 01,48.4234,21.9794
1500,Košický Kraj,KI,Kráľovský Chlmec,077 01,48.4234,21.9794
1501,Košický Kraj,KI,Malé Ozorovce,078 01,48.6824,21.6134
1502,Košický Kraj,KI,Trnávka,078 01,48.7069,21.6174
1503,Košický Kraj,KI,Veľké Ozorovce,078 01,48.6628,21.6079
1504,Košický Kraj,KI,Zbehňov,078 01,48.6895,21.6297
1505,Košický Kraj,KI,Albínov,078 01,48.6885,21.6259
1506,Košický Kraj,KI,Sečovce,078 01,48.7007,21.661
1507,Košický Kraj,KI,Košice,040 12,48.7139,21.2581
1508,Košický Kraj,KI,Košice,040 22,48.7139,21.2581
1509,Košický Kraj,KI,Košice,040 23,48.7139,21.2581
1510,Košický Kraj,KI,Spišská Nová Ves,052 05,48.9446,20.5615
1511,Nitriansky Kraj,NI,Madérét,930 28,47.9045,17.8857
1512,Nitriansky Kraj,NI,Malá Iža,945 01,47.7618,18.1527
1513,Nitriansky Kraj,NI,Kava,945 01,47.814,18.0969
1514,Nitriansky Kraj,NI,Ďulov Dvor,945 01,47.812,18.0943
1515,Nitriansky Kraj,NI,Hadovce,945 01,47.7849,18.0794
1516,Nitriansky Kraj,NI,Nová Osada,945 01,47.7871,18.1086
1517,Nitriansky Kraj,NI,Veľký Harčáš,945 01,47.754,18.1567
1518,Nitriansky Kraj,NI,Hliník,945 01,47.812,18.0943
1519,Nitriansky Kraj,NI,Vrbová nad Váhom,945 01,47.8514,18.052
1520,Nitriansky Kraj,NI,Čergov,945 01,47.8877,18.0177
1521,Nitriansky Kraj,NI,Lándor,945 01,47.7945,18.1288
1522,Nitriansky Kraj,NI,Zlatá Osada,945 01,47.8724,18.0555
1523,Nitriansky Kraj,NI,Pavel,945 04,47.7667,18.0167
1524,Nitriansky Kraj,NI,Čerhát,945 04,47.7833,18.0167
1525,Nitriansky Kraj,NI,Nová Stráž,945 04,47.7676,18.0434
1526,Nitriansky Kraj,NI,Kameničná,946 01,47.8189,18.0386
1527,Nitriansky Kraj,NI,Balvany,946 01,47.8302,18.0224
1528,Nitriansky Kraj,NI,Violín,946 02,47.8395,17.9666
1529,Nitriansky Kraj,NI,Čalovec,946 02,47.8171,17.9877
1530,Nitriansky Kraj,NI,Veľký Ostrov,946 03,47.9589,17.9058
1531,Nitriansky Kraj,NI,Veľká Gúta,946 03,47.9167,18.0333
1532,Nitriansky Kraj,NI,Pačérok,946 03,47.9333,18.0167
1533,Nitriansky Kraj,NI,Malý Ostrov,946 03,47.9683,17.9932
1534,Nitriansky Kraj,NI,Kráľka,946 03,47.8813,17.944
1535,Nitriansky Kraj,NI,Kolárovo,946 03,47.9229,17.9847
1536,Nitriansky Kraj,NI,Čierny Chrbát,946 03,47.933,17.9831
1537,Nitriansky Kraj,NI,Dedina Mládeže,946 03,47.9495,18.0037
1538,Nitriansky Kraj,NI,Částa,946 03,47.933,17.9831
1539,Nitriansky Kraj,NI,Horná Zlatná,946 12,47.7833,17.95
1540,Nitriansky Kraj,NI,Veľký Lél,946 12,47.757,17.9467
1541,Nitriansky Kraj,NI,Zlatná na Ostrove,946 12,47.7667,17.9667
1542,Nitriansky Kraj,NI,Štúrová,946 13,47.8303,17.9422
1543,Nitriansky Kraj,NI,Okoličná na Ostrove,946 13,47.8038,17.9209
1544,Nitriansky Kraj,NI,Lúky,946 14,47.8443,17.8736
1545,Nitriansky Kraj,NI,Zemianska Olča,946 14,47.8081,17.8665
1546,Nitriansky Kraj,NI,Bodzianske Lúky,946 14,47.8833,17.9
1547,Nitriansky Kraj,NI,Sokolce - lúky,946 14,47.8443,17.8736
1548,Nitriansky Kraj,NI,Lipové,946 14,47.8415,17.8542
1549,Nitriansky Kraj,NI,Tôň,946 15,47.8044,17.8375
1550,Nitriansky Kraj,NI,Bodza,946 16,47.8364,17.8292
1551,Nitriansky Kraj,NI,Holiare,946 16,47.8275,17.8146
1552,Nitriansky Kraj,NI,Brestovec,946 17,47.8634,17.8228
1553,Nitriansky Kraj,NI,Sokolce,946 17,47.8517,17.8276
1554,Nitriansky Kraj,NI,Klížska Nemá,946 19,47.7521,17.8197
1555,Nitriansky Kraj,NI,Číčov,946 19,47.7712,17.7731
1556,Nitriansky Kraj,NI,Trávnik,946 19,47.7758,17.7929
1557,Nitriansky Kraj,NI,Krížový Dvor,946 19,47.7664,17.7952
1558,Nitriansky Kraj,NI,Kéč,946 19,47.7664,17.7952
1559,Nitriansky Kraj,NI,Okánikovo,946 21,47.7833,17.8833
1560,Nitriansky Kraj,NI,Veľké Kosihy,946 21,47.7624,17.8832
1561,Nitriansky Kraj,NI,Chotín,946 31,47.8071,18.2269
1562,Nitriansky Kraj,NI,Marcelová,946 32,47.7879,18.2826
1563,Nitriansky Kraj,NI,Mudroňovo,946 32,47.8314,18.3215
1564,Nitriansky Kraj,NI,Krátke Kesy,946 32,47.787,18.2718
1565,Nitriansky Kraj,NI,Šrobárová,946 32,47.804,18.3248
1566,Nitriansky Kraj,NI,Modrany,946 33,47.8236,18.352
1567,Nitriansky Kraj,NI,Mikulášov Sad,946 34,47.846,18.4351
1568,Nitriansky Kraj,NI,Bátorove Kosihy,946 34,47.8294,18.4202
1569,Nitriansky Kraj,NI,Búč,946 35,47.8076,18.4466
1570,Nitriansky Kraj,NI,Kravany nad Dunajom,946 36,47.7633,18.4832
1571,Nitriansky Kraj,NI,Moča,946 37,47.761,18.4079
1572,Nitriansky Kraj,NI,Radvaň nad Dunajom,946 38,47.7469,18.3661
1573,Nitriansky Kraj,NI,Virt,946 38,47.7526,18.3212
1574,Nitriansky Kraj,NI,Žitava,946 38,47.745,18.3381
1575,Nitriansky Kraj,NI,Bystrička,946 38,47.7628,18.3612
1576,Nitriansky Kraj,NI,Iža,946 39,47.752,18.2276
1577,Nitriansky Kraj,NI,Bokroš,946 39,47.7598,18.2686
1578,Nitriansky Kraj,NI,Patince,946 39,47.7389,18.2896
1579,Nitriansky Kraj,NI,Aňala,946 51,47.9569,18.1377
1580,Nitriansky Kraj,NI,Aňalské Záhrady,946 51,47.9425,18.1322
1581,Nitriansky Kraj,NI,Nesvady,946 51,47.9282,18.1268
1582,Nitriansky Kraj,NI,Imeľ,946 52,47.904,18.1417
1583,Nitriansky Kraj,NI,Kotelnica,946 54,47.9421,18.1774
1584,Nitriansky Kraj,NI,Vlkanovo,946 54,47.9454,18.2364
1585,Nitriansky Kraj,NI,Chrasť,946 54,47.9417,18.2206
1586,Nitriansky Kraj,NI,Nový Diel,946 54,47.9529,18.2612
1587,Nitriansky Kraj,NI,Bajč,946 54,47.9262,18.2074
1588,Nitriansky Kraj,NI,Pribeta,946 55,47.8998,18.315
1589,Nitriansky Kraj,NI,Dulovce,946 56,47.8692,18.2728
1590,Nitriansky Kraj,NI,Svätý Peter,946 57,47.8415,18.2541
1591,Nitriansky Kraj,NI,Martovce,947 01,47.855,18.1245
1592,Nitriansky Kraj,NI,Zelený Háj,947 01,47.8522,18.1706
1593,Nitriansky Kraj,NI,Vék,947 01,47.8588,18.1568
1594,Nitriansky Kraj,NI,Holanovo,947 01,47.84,18.165
1595,Nitriansky Kraj,NI,Konkoľ,947 01,47.8447,18.1915
1596,Nitriansky Kraj,NI,Bohatá,947 03,47.8892,18.2162
1597,Nitriansky Kraj,NI,Nová Trstená,947 03,47.8887,18.2485
1598,Nitriansky Kraj,NI,Malé Krškany,934 01,48.218,18.6684
1599,Nitriansky Kraj,NI,Malý Kiar,934 01,48.1815,18.6769
1600,Nitriansky Kraj,NI,Čankov,934 01,48.1954,18.708
1601,Nitriansky Kraj,NI,Horša,934 01,48.2403,18.6927
1602,Nitriansky Kraj,NI,Veľké Krškany,934 01,48.2135,18.6753
1603,Nitriansky Kraj,NI,Kamenec,934 01,48.2538,18.6686
1604,Nitriansky Kraj,NI,Krškany,934 01,48.2135,18.6753
1605,Nitriansky Kraj,NI,Kalinčiakovo,934 01,48.2001,18.6592
1606,Nitriansky Kraj,NI,Krížny Vrch,934 01,48.2114,18.6699
1607,Nitriansky Kraj,NI,Géňa,934 01,48.1864,18.6043
1608,Nitriansky Kraj,NI,Nixbrod,934 01,48.2114,18.6699
1609,Nitriansky Kraj,NI,Ladislavov Dvor,934 01,48.2114,18.6699
1610,Nitriansky Kraj,NI,Žemberovce,935 02,48.2667,18.75
1611,Nitriansky Kraj,NI,Kamenný Chotár,935 02,48.2667,18.75
1612,Nitriansky Kraj,NI,Brhlovce,935 02,48.2667,18.75
1613,Nitriansky Kraj,NI,Kmeťovce,935 03,48.262,18.7059
1614,Nitriansky Kraj,NI,Bátovce,935 03,48.2908,18.7457
1615,Nitriansky Kraj,NI,Jalakšová,935 03,48.2813,18.7446
1616,Nitriansky Kraj,NI,Drženice,935 03,48.2867,18.6969
1617,Nitriansky Kraj,NI,Pečenice,935 03,48.2975,18.7711
1618,Nitriansky Kraj,NI,Devičany,935 04,48.3225,18.7054
1619,Nitriansky Kraj,NI,Bohunice,935 05,48.3311,18.752
1620,Nitriansky Kraj,NI,Majere,935 05,48.3311,18.752
1621,Nitriansky Kraj,NI,Pukanec,935 05,48.3311,18.752
1622,Nitriansky Kraj,NI,Uhliská,935 05,48.3311,18.752
1623,Nitriansky Kraj,NI,Jabloňovce,935 06,48.2923,18.7339
1624,Nitriansky Kraj,NI,Malé Kozmálovce,935 21,48.2737,18.5116
1625,Nitriansky Kraj,NI,Tlmače,935 21,48.2893,18.5315
1626,Nitriansky Kraj,NI,Veľké Kozmálovce,935 21,48.2705,18.5415
1627,Nitriansky Kraj,NI,Lipník,935 21,48.2778,18.5282
1628,Nitriansky Kraj,NI,Kozárovce,935 22,48.2719,18.5881
1629,Nitriansky Kraj,NI,Rybník,935 23,48.2925,18.5621
1630,Nitriansky Kraj,NI,Čajkov,935 24,48.2896,18.6006
1631,Nitriansky Kraj,NI,Gondovo,935 25,48.2867,18.6504
1632,Nitriansky Kraj,NI,Tekovská Nová Ves,935 25,48.273,18.6323
1633,Nitriansky Kraj,NI,Opatová,935 25,48.2842,18.6509
1634,Nitriansky Kraj,NI,Nová Dedina,935 25,48.2787,18.6475
1635,Nitriansky Kraj,NI,Svätý Kríž,935 25,48.2708,18.6564
1636,Nitriansky Kraj,NI,Starý Tekov,935 26,48.2447,18.5367
1637,Nitriansky Kraj,NI,Hronské Kosihy,935 27,48.2658,18.5953
1638,Nitriansky Kraj,NI,Podlužany,935 27,48.2544,18.606
1639,Nitriansky Kraj,NI,Hronské Kľačany,935 29,48.2401,18.5697
1640,Nitriansky Kraj,NI,Dolná Seč,935 31,48.1763,18.564
1641,Nitriansky Kraj,NI,Vyšné nad Hronom,935 31,48.1627,18.5845
1642,Nitriansky Kraj,NI,Horná Seč,935 31,48.1953,18.5445
1643,Nitriansky Kraj,NI,Kalnica,935 32,48.2099,18.5205
1644,Nitriansky Kraj,NI,Kalná nad Hronom,935 32,48.2039,18.5201
1645,Nitriansky Kraj,NI,Kalná,935 32,48.1978,18.5198
1646,Nitriansky Kraj,NI,Šándorhalma,935 33,48.2295,18.4672
1647,Nitriansky Kraj,NI,Marušová,935 33,48.2358,18.5221
1648,Nitriansky Kraj,NI,Nový Tekov,935 33,48.2474,18.517
1649,Nitriansky Kraj,NI,Rohožnica,935 34,48.2111,18.4647
1650,Nitriansky Kraj,NI,Veľký Ďur,935 34,48.2111,18.4647
1651,Nitriansky Kraj,NI,Horný Ďur,935 34,48.2111,18.4647
1652,Nitriansky Kraj,NI,Dolný Ďur,935 34,48.2111,18.4647
1653,Nitriansky Kraj,NI,Lula,935 35,48.1774,18.3606
1654,Nitriansky Kraj,NI,Tehla,935 35,48.1844,18.3855
1655,Nitriansky Kraj,NI,Iňa,935 35,48.1698,18.4215
1656,Nitriansky Kraj,NI,Malá Baračka,935 36,48.1543,18.406
1657,Nitriansky Kraj,NI,Jesenské,935 36,48.1651,18.4112
1658,Nitriansky Kraj,NI,Beša,935 36,48.1434,18.4008
1659,Nitriansky Kraj,NI,Horný Pial,935 37,48.1554,18.4504
1660,Nitriansky Kraj,NI,Dolný Pial,935 37,48.1317,18.4619
1661,Nitriansky Kraj,NI,Lok,935 38,48.1836,18.4606
1662,Nitriansky Kraj,NI,Mochovce - elektráreň,935 39,48.1869,18.4739
1663,Nitriansky Kraj,NI,Tekovské Lužany,935 41,48.0986,18.5379
1664,Nitriansky Kraj,NI,Arma,935 41,48.1267,18.5577
1665,Nitriansky Kraj,NI,Medvecké,935 41,48.1548,18.5775
1666,Nitriansky Kraj,NI,Ondrejovce,935 51,48.1376,18.519
1667,Nitriansky Kraj,NI,Bajka,935 51,48.1506,18.5179
1668,Nitriansky Kraj,NI,Turá,935 51,48.1548,18.5775
1669,Nitriansky Kraj,NI,Tekovský Hrádok,935 51,48.1681,18.5517
1670,Nitriansky Kraj,NI,Veselá,935 52,48.1041,18.6353
1671,Nitriansky Kraj,NI,Šarovce,935 52,48.1041,18.6353
1672,Nitriansky Kraj,NI,Zbrojníky,935 55,48.1155,18.7041
1673,Nitriansky Kraj,NI,Hontianska Vrbica,935 55,48.1348,18.7036
1674,Nitriansky Kraj,NI,Pežerňa,935 55,48.1252,18.7039
1675,Nitriansky Kraj,NI,Starý Hrádok,935 56,48.1508,18.6386
1676,Nitriansky Kraj,NI,Mýtne Ludany,935 56,48.1639,18.6643
1677,Nitriansky Kraj,NI,Dobogov,935 56,48.1574,18.6515
1678,Nitriansky Kraj,NI,Jur nad Hronom,935 57,48.1267,18.6296
1679,Nitriansky Kraj,NI,Žemliare,935 57,48.1483,18.6037
1680,Nitriansky Kraj,NI,Domaša,935 61,48.0063,18.659
1681,Nitriansky Kraj,NI,Vozokany nad Hronom,935 61,48.0121,18.6621
1682,Nitriansky Kraj,NI,Čajakovo,935 61,47.9967,18.6578
1683,Nitriansky Kraj,NI,Hronovce,935 61,48.005,18.6596
1684,Nitriansky Kraj,NI,Pohronský Ruskov,935 62,47.9736,18.6563
1685,Nitriansky Kraj,NI,Čata,935 63,47.9536,18.6515
1686,Nitriansky Kraj,NI,Kuraľany,935 64,47.9814,18.5408
1687,Nitriansky Kraj,NI,Keť,935 64,47.9667,18.5667
1688,Nitriansky Kraj,NI,Veľké Ludince,935 65,47.9627,18.5114
1689,Nitriansky Kraj,NI,Farná,935 66,48.0058,18.5112
1690,Nitriansky Kraj,NI,Nýrovce,935 67,48.0251,18.5821
1691,Nitriansky Kraj,NI,Málaš,935 67,48.0529,18.5268
1692,Nitriansky Kraj,NI,Čaka,935 68,48.0393,18.4689
1693,Nitriansky Kraj,NI,Plavé Vozokany,935 69,48.0709,18.4658
1694,Nitriansky Kraj,NI,Šalov,935 71,48.0031,18.7069
1695,Nitriansky Kraj,NI,Pastovce,935 74,47.9673,18.7574
1696,Nitriansky Kraj,NI,Bielovce,935 74,47.9935,18.7746
1697,Nitriansky Kraj,NI,Lontov,935 75,48.0421,18.7774
1698,Nitriansky Kraj,NI,Ipeľský Sokolec,935 75,48.0189,18.8058
1699,Nitriansky Kraj,NI,Kubáňovo,935 75,48.0587,18.8114
1700,Nitriansky Kraj,NI,Nový Dvor,935 77,48.089,18.86
1701,Nitriansky Kraj,NI,Vyškovce nad Ipľom,935 77,48.0557,18.8678
1702,Nitriansky Kraj,NI,Stredné Turovce,935 81,48.1099,18.9464
1703,Nitriansky Kraj,NI,Veľké Turovce,935 81,48.1118,18.9455
1704,Nitriansky Kraj,NI,Dolné Turovce,935 81,48.0998,18.9415
1705,Nitriansky Kraj,NI,Horné Turovce,935 81,48.1256,18.9486
1706,Nitriansky Kraj,NI,Ipeľské Úľany,935 82,48.1254,19.0499
1707,Nitriansky Kraj,NI,Plášťovce,935 82,48.159,18.9785
1708,Nitriansky Kraj,NI,Chorvatice,935 84,48.1189,18.8964
1709,Nitriansky Kraj,NI,Horné Semerovce,935 84,48.1252,18.8819
1710,Nitriansky Kraj,NI,Tupá,935 84,48.1194,18.8959
1711,Nitriansky Kraj,NI,Slatina,935 84,48.1212,18.8914
1712,Nitriansky Kraj,NI,Kráľovičová,935 84,48.1212,18.8914
1713,Nitriansky Kraj,NI,Hokovce,935 84,48.1212,18.8914
1714,Nitriansky Kraj,NI,Sazdice,935 85,48.0881,18.7969
1715,Nitriansky Kraj,NI,Dolné Semerovce,935 85,48.1106,18.8527
1716,Nitriansky Kraj,NI,Demandice,935 85,48.1256,18.7831
1717,Nitriansky Kraj,NI,Hontianske Trsťany,935 86,48.1314,18.8698
1718,Nitriansky Kraj,NI,Santovka,935 87,48.157,18.7672
1719,Nitriansky Kraj,NI,Bory,935 87,48.1808,18.7517
1720,Nitriansky Kraj,NI,Malinovec,935 87,48.1491,18.7768
1721,Nitriansky Kraj,NI,Domadice,935 87,48.1764,18.7797
1722,Nitriansky Kraj,NI,Preseľany nad Ipľom,936 01,48.0712,18.9107
1723,Nitriansky Kraj,NI,Tešmák,936 01,48.063,18.9842
1724,Nitriansky Kraj,NI,Šahy,936 01,48.0741,18.9495
1725,Nitriansky Kraj,NI,Hrkovce,936 01,48.0884,18.9027
1726,Nitriansky Kraj,NI,Karolína,937 01,48.0254,18.6079
1727,Nitriansky Kraj,NI,Rozina,937 01,48.0589,18.5893
1728,Nitriansky Kraj,NI,Želiezovce,937 01,48.0508,18.6542
1729,Nitriansky Kraj,NI,Veľký Pesek,937 01,48.0764,18.7128
1730,Nitriansky Kraj,NI,Malý Pesek,937 01,48.0986,18.7148
1731,Nitriansky Kraj,NI,Sikenica,937 01,48.0489,18.6691
1732,Nitriansky Kraj,NI,Svodov,937 01,48.083,18.6504
