,name,address,city,state,zip,phone,LAT,LON,hasSpecialties,ADDICTION MEDICINE,ADVANCED HEART FAILURE AND TRANSPLANT CARDIOLOGY,ALLERGY/IMMUNOLOGY,ANESTHESIOLOGY,ANESTHESIOLOGY ASSISTANT,AUDIOLOGIST,CARDIAC ELECTROPHYSIOLOGY,CARDIAC SURGERY,CARDIOVASCULAR DISEASE (CARDIOLOGY),CERTIFIED NURSE MIDWIFE,CERTIFIED REGISTERED NURSE ANESTHETIST,CHIROPRACTIC,CLINICAL NURSE SPECIALIST,CLINICAL PSYCHOLOGIST,CLINICAL SOCIAL WORKER,COLORECTAL SURGERY (PROCTOLOGY),CRITICAL CARE (INTENSIVISTS),DENTIST,DERMATOLOGY,DIAGNOSTIC RADIOLOGY,EMERGENCY MEDICINE,ENDOCRINOLOGY,FAMILY PRACTICE,GASTROENTEROLOGY,GENERAL PRACTICE,GENERAL SURGERY,GERIATRIC MEDICINE,GERIATRIC PSYCHIATRY,GYNECOLOGICAL ONCOLOGY,HAND SURGERY,HEMATOLOGY,HEMATOLOGY/ONCOLOGY,HEMATOPOIETIC CELL TRANSPLANTATION AND CELLULAR TH,HOSPICE/PALLIATIVE CARE,HOSPITALIST,INFECTIOUS DISEASE,INTERNAL MEDICINE,INTERVENTIONAL CARDIOLOGY,INTERVENTIONAL PAIN MANAGEMENT,INTERVENTIONAL RADIOLOGY,MAXILLOFACIAL SURGERY,MEDICAL ONCOLOGY,NEPHROLOGY,NEUROLOGY,NEUROPSYCHIATRY,NEUROSURGERY,NUCLEAR MEDICINE,NURSE PRACTITIONER,OBSTETRICS/GYNECOLOGY,OCCUPATIONAL THERAPY,OPHTHALMOLOGY,OPTOMETRY,ORAL SURGERY,ORTHOPEDIC SURGERY,OSTEOPATHIC MANIPULATIVE MEDICINE,OTOLARYNGOLOGY,PAIN MANAGEMENT,PATHOLOGY,PEDIATRIC MEDICINE,PERIPHERAL VASCULAR DISEASE,PHYSICAL MEDICINE AND REHABILITATION,PHYSICAL THERAPY,PHYSICIAN ASSISTANT,PLASTIC AND RECONSTRUCTIVE SURGERY,PODIATRY,PREVENTATIVE MEDICINE,PSYCHIATRY,PULMONARY DISEASE,RADIATION ONCOLOGY,REGISTERED DIETITIAN OR NUTRITION PROFESSIONAL,"RHEUMATOLOGY,",SLEEP MEDICINE,SPEECH LANGUAGE PATHOLOGIST,SPORTS MEDICINE,SURGICAL ONCOLOGY,THORACIC SURGERY,UNDEFINED PHYSICIAN TYPE (SPECIFY),"UROLOGY,",VASCULAR SURGERY,id
0,"""KUTNOWSKI SZPITAL SAMORZĄDOWY"" SPÓŁKA Z O.O.",,Kutno,,99-300,,52.2392953,19.371924,False,,,,,,,,,,,,,,,,,,,,,,,,,,,,,,,,,,,,,,,,,,,,,,,,,,,,,,,,,,,,,,,,,,,,,,,,,,,,,,,,30000
1,"""Teresa"" Uzdrowiskowy Szpital Kardiologiczny",Plac Zdrojowy 9,Jedlina-Zdrój,,58-330,,50.728534,16.3453272,False,,,,,,,,,,,,,,,,,,,,,,,,,,,,,,,,,,,,,,,,,,,,,,,,,,,,,,,,,,,,,,,,,,,,,,,,,,,,,,,,30001
2,10 Wojskowy Szpital Kliniczny z Polikliniką,Powstańców Warszawy 5,Bydgoszcz,,85-023,,53.1420664,18.011077,False,,,,,,,,,,,,,,,,,,,,,,,,,,,,,,,,,,,,,,,,,,,,,,,,,,,,,,,,,,,,,,,,,,,,,,,,,,,,,,,,30002
3,105 Szpital Wojskowy,Żelazna 1,Żagań,,68-100,,51.6123209,15.3327485,False,,,,,,,,,,,,,,,,,,,,,,,,,,,,,,,,,,,,,,,,,,,,,,,,,,,,,,,,,,,,,,,,,,,,,,,,,,,,,,,,30003
4,105 Szpital Wojskowy z Przychodnią SPZOZ,Bolesława Domańskiego 2,Żary,,68-200,,51.6415875,15.1481984,False,,,,,,,,,,,,,,,,,,,,,,,,,,,,,,,,,,,,,,,,,,,,,,,,,,,,,,,,,,,,,,,,,,,,,,,,,,,,,,,,30004
5,107 Szpital Wojskowy,,Wałcz,,78-600,+48 67 258 24 42; +48 261 47 28 80,53.2838447,16.4616404,False,,,,,,,,,,,,,,,,,,,,,,,,,,,,,,,,,,,,,,,,,,,,,,,,,,,,,,,,,,,,,,,,,,,,,,,,,,,,,,,,30005
6,108 Szpital Wojskowy,Tadeusza Kościuszki 30,Ełk,,19-300,+48876219803,53.8199983,22.3631121,False,,,,,,,,,,,,,,,,,,,,,,,,,,,,,,,,,,,,,,,,,,,,,,,,,,,,,,,,,,,,,,,,,,,,,,,,,,,,,,,,30006
7,109 Szpital Wojskowy z przychodnią,,Szczecin,,70-560,,53.4430984,14.54263,False,,,,,,,,,,,,,,,,,,,,,,,,,,,,,,,,,,,,,,,,,,,,,,,,,,,,,,,,,,,,,,,,,,,,,,,,,,,,,,,,30007
8,115 Szpital Wojskowy,Boczna 13,Hel,,84-150,+48 58 690 42 60,54.6120893,18.7986812,False,,,,,,,,,,,,,,,,,,,,,,,,,,,,,,,,,,,,,,,,,,,,,,,,,,,,,,,,,,,,,,,,,,,,,,,,,,,,,,,,30008
9,116 Szpital Wojskowy z Przychodnią,,Opole,,45-068,,50.6605317,17.8966954,False,,,,,,,,,,,,,,,,,,,,,,,,,,,,,,,,,,,,,,,,,,,,,,,,,,,,,,,,,,,,,,,,,,,,,,,,,,,,,,,,30009
10,21 Wojskowy Szpital Uzdrowisko-Rehabilitacyjny,Generała Feliksa Rzewuskiego 8,Busko-Zdrój,,28-100,,50.4542961,20.7208577,False,,,,,,,,,,,,,,,,,,,,,,,,,,,,,,,,,,,,,,,,,,,,,,,,,,,,,,,,,,,,,,,,,,,,,,,,,,,,,,,,30010
11,22 Wojskowy Szpital Uzrowiskowo-Rehabilitacyjny,Wojska Polskiego 5,,,,,52.8785707,18.8042155,False,,,,,,,,,,,,,,,,,,,,,,,,,,,,,,,,,,,,,,,,,,,,,,,,,,,,,,,,,,,,,,,,,,,,,,,,,,,,,,,,30011
12,23. Wojskowy Szpital Uzdrowiskowo-Rehabilitacyjny,Jadwigi 2a,Lądek-Zdrój,,57-540,,50.3422994,16.8904087,False,,,,,,,,,,,,,,,,,,,,,,,,,,,,,,,,,,,,,,,,,,,,,,,,,,,,,,,,,,,,,,,,,,,,,,,,,,,,,,,,30012
13,5 Wojskowy Szpital Kliniczny w Krakowie,Wrocławska 1-3,Kraków,,30-006,,50.0751372,19.9339294,False,,,,,,,,,,,,,,,,,,,,,,,,,,,,,,,,,,,,,,,,,,,,,,,,,,,,,,,,,,,,,,,,,,,,,,,,,,,,,,,,30013
14,6 Szpital Wojskowy z Przychodnią,Szpitalna 2,Dęblin,,08-530,261 518 530,51.5544396,21.8561291,False,,,,,,,,,,,,,,,,,,,,,,,,,,,,,,,,,,,,,,,,,,,,,,,,,,,,,,,,,,,,,,,,,,,,,,,,,,,,,,,,30014
15,7 Szpital Marynarki Wojennej,,Gdańsk,,80-307,+48 58 552 63 18,54.391905,18.5650018,False,,,,,,,,,,,,,,,,,,,,,,,,,,,,,,,,,,,,,,,,,,,,,,,,,,,,,,,,,,,,,,,,,,,,,,,,,,,,,,,,30015
16,Angelius,,Katowice,,40-022,,50.2166537,18.9840343,False,,,,,,,,,,,,,,,,,,,,,,,,,,,,,,,,,,,,,,,,,,,,,,,,,,,,,,,,,,,,,,,,,,,,,,,,,,,,,,,,30016
17,Apteka,Książęca 4,Bojszowy,,43-220,,50.0569879,19.0966361,False,,,,,,,,,,,,,,,,,,,,,,,,,,,,,,,,,,,,,,,,,,,,,,,,,,,,,,,,,,,,,,,,,,,,,,,,,,,,,,,,30017
18,Arion ZOZ,,Tarnogród,,23-420,,50.3605341,22.7427566,False,,,,,,,,,,,,,,,,,,,,,,,,,,,,,,,,,,,,,,,,,,,,,,,,,,,,,,,,,,,,,,,,,,,,,,,,,,,,,,,,30018
19,Arion ZOZ,Doktora Stanisława Pojaska nan,Biłgoraj,,23-400,,50.5300021,22.7126673,False,,,,,,,,,,,,,,,,,,,,,,,,,,,,,,,,,,,,,,,,,,,,,,,,,,,,,,,,,,,,,,,,,,,,,,,,,,,,,,,,30019
20,Beskidzkie Centrum Medyczne,Młodzieżowa 21,Bielsko-Biała,,43-300,+48 33 82 63 400,49.7852242,19.0311845,False,,,,,,,,,,,,,,,,,,,,,,,,,,,,,,,,,,,,,,,,,,,,,,,,,,,,,,,,,,,,,,,,,,,,,,,,,,,,,,,,30020
21,Beskidzkie Centrum Onkologii im. Jana Pawła II,,Bielsko-Biała,,43-300,+48 33 498 4001,49.8237033,19.0566707,False,,,,,,,,,,,,,,,,,,,,,,,,,,,,,,,,,,,,,,,,,,,,,,,,,,,,,,,,,,,,,,,,,,,,,,,,,,,,,,,,30021
22,Białostockie Centrum Onkologii im. Marii Skłodowskiej - Curie,,Białystok,,15-007,,53.1354418,23.1677438,False,,,,,,,,,,,,,,,,,,,,,,,,,,,,,,,,,,,,,,,,,,,,,,,,,,,,,,,,,,,,,,,,,,,,,,,,,,,,,,,,30022
23,Bieszczadzkie Wodne Ochotnicze Pogotowie Ratunkowe,,Solina,,38-612,,49.382042,22.4483314,False,,,,,,,,,,,,,,,,,,,,,,,,,,,,,,,,,,,,,,,,,,,,,,,,,,,,,,,,,,,,,,,,,,,,,,,,,,,,,,,,30023
24,Brzeskie Centrum Medyczne,Nysańska 4-6,Brzeg,,49-300,,50.8523726,17.4756819,False,,,,,,,,,,,,,,,,,,,,,,,,,,,,,,,,,,,,,,,,,,,,,,,,,,,,,,,,,,,,,,,,,,,,,,,,,,,,,,,,30024
25,Bydgoskie Centrum Diabetologii i Endokrynologii,,Bydgoszcz,,85-023,,53.1056571,18.0592279,False,,,,,,,,,,,,,,,,,,,,,,,,,,,,,,,,,,,,,,,,,,,,,,,,,,,,,,,,,,,,,,,,,,,,,,,,,,,,,,,,30025
26,Bystrzyckie Centrum Zdrowia,,Bystrzyca Kłodzka,,57-500,+48 748111577,50.2997011,16.6527316,False,,,,,,,,,,,,,,,,,,,,,,,,,,,,,,,,,,,,,,,,,,,,,,,,,,,,,,,,,,,,,,,,,,,,,,,,,,,,,,,,30026
27,Były Szpital w Górze,Ludwika Hirszfelda 8,Góra,,56-200,,51.6653014,16.5402075,False,,,,,,,,,,,,,,,,,,,,,,,,,,,,,,,,,,,,,,,,,,,,,,,,,,,,,,,,,,,,,,,,,,,,,,,,,,,,,,,,30027
28,CDT Medicus - Szpital,Leśna 8,Lubin,,59-300,,51.3833304,16.2033617,False,,,,,,,,,,,,,,,,,,,,,,,,,,,,,,,,,,,,,,,,,,,,,,,,,,,,,,,,,,,,,,,,,,,,,,,,,,,,,,,,30028
29,CenterMed Sp. z o.o.,Feliksa Bocheńskiego 38a,Katowice,,40-022,,50.2661648,18.9899633,False,,,,,,,,,,,,,,,,,,,,,,,,,,,,,,,,,,,,,,,,,,,,,,,,,,,,,,,,,,,,,,,,,,,,,,,,,,,,,,,,30029
30,Centralny Szpital Kliniczny MON,Szaserów 128,Warszawa,,04-349,,52.2518166,21.0936436,False,,,,,,,,,,,,,,,,,,,,,,,,,,,,,,,,,,,,,,,,,,,,,,,,,,,,,,,,,,,,,,,,,,,,,,,,,,,,,,,,30030
31,Centralny Szpital Kliniczny MSWiA,Wołoska 137,Warszawa,,02-507,,52.1994168,20.997354,False,,,,,,,,,,,,,,,,,,,,,,,,,,,,,,,,,,,,,,,,,,,,,,,,,,,,,,,,,,,,,,,,,,,,,,,,,,,,,,,,30031
32,"Centrum Ginekologii, Położnictwa i Neonatologii w Opolu",Władysława Reymonta 8,Opole,,45-066,+48 77 454 54 01,50.6668027,17.9276177,False,,,,,,,,,,,,,,,,,,,,,,,,,,,,,,,,,,,,,,,,,,,,,,,,,,,,,,,,,,,,,,,,,,,,,,,,,,,,,,,,30032
33,"Centrum Ginekologii, Położnictwa i Neonatologii w Opolu",ulica Władysława Reymonta 8,Opole,,45-066,,50.6672094,17.9287324,False,,,,,,,,,,,,,,,,,,,,,,,,,,,,,,,,,,,,,,,,,,,,,,,,,,,,,,,,,,,,,,,,,,,,,,,,,,,,,,,,30033
34,Centrum Leczenia Chorób Płuc - oddział dziecięcy,,Łódź,,90-132,,51.8357575,19.4829462,False,,,,,,,,,,,,,,,,,,,,,,,,,,,,,,,,,,,,,,,,,,,,,,,,,,,,,,,,,,,,,,,,,,,,,,,,,,,,,,,,30034
35,Centrum Leczenia Oparzeń,,Siemianowice Śląskie,,41-100,,50.3051211,19.0285062,False,,,,,,,,,,,,,,,,,,,,,,,,,,,,,,,,,,,,,,,,,,,,,,,,,,,,,,,,,,,,,,,,,,,,,,,,,,,,,,,,30035
36,Centrum Medyczne BCM,,Wyszogród,,09-450,,52.3882716,20.1885503,False,,,,,,,,,,,,,,,,,,,,,,,,,,,,,,,,,,,,,,,,,,,,,,,,,,,,,,,,,,,,,,,,,,,,,,,,,,,,,,,,30036
37,Centrum Medyczne Grupa Zdrowie - Zakład Opiekuńczo Leczniczy dla osób z zaburzeniami psychicznymi,,Raciąż (Gmina),,09-140,+48 22 749 10 70,52.8188985,20.0425421,False,,,,,,,,,,,,,,,,,,,,,,,,,,,,,,,,,,,,,,,,,,,,,,,,,,,,,,,,,,,,,,,,,,,,,,,,,,,,,,,,30037
38,Centrum Medyczne Karpacz,,Karpacz,,58-540,+48 883 358 135,50.7813504,15.7407475,False,,,,,,,,,,,,,,,,,,,,,,,,,,,,,,,,,,,,,,,,,,,,,,,,,,,,,,,,,,,,,,,,,,,,,,,,,,,,,,,,30038
39,Centrum Medyczne Promed,,Pabianice,,95-200,,51.6594022,19.3531108,False,,,,,,,,,,,,,,,,,,,,,,,,,,,,,,,,,,,,,,,,,,,,,,,,,,,,,,,,,,,,,,,,,,,,,,,,,,,,,,,,30039
40,Centrum Medyczne Szpital św. Rodziny,Stanisława Wigury 19,Łódź,,90-318,+48 42 2549681,51.7562587,19.4635888,False,,,,,,,,,,,,,,,,,,,,,,,,,,,,,,,,,,,,,,,,,,,,,,,,,,,,,,,,,,,,,,,,,,,,,,,,,,,,,,,,30040
41,Centrum Medyczne w Łańcucie,,Łańcut,,37-100,,50.0672027,22.2329009,False,,,,,,,,,,,,,,,,,,,,,,,,,,,,,,,,,,,,,,,,,,,,,,,,,,,,,,,,,,,,,,,,,,,,,,,,,,,,,,,,30041
42,Centrum Onkologii,Wilhelma Konrada Roentgena 5,Warszawa,,02-781,,52.1472241,21.0354016,False,,,,,,,,,,,,,,,,,,,,,,,,,,,,,,,,,,,,,,,,,,,,,,,,,,,,,,,,,,,,,,,,,,,,,,,,,,,,,,,,30042
43,Centrum Onkologii,,Bydgoszcz,,85-023,,53.1457609,18.1124637,False,,,,,,,,,,,,,,,,,,,,,,,,,,,,,,,,,,,,,,,,,,,,,,,,,,,,,,,,,,,,,,,,,,,,,,,,,,,,,,,,30043
44,Centrum Onkologii,,Gliwice,,44-100,,50.3027415,18.6615338,False,,,,,,,,,,,,,,,,,,,,,,,,,,,,,,,,,,,,,,,,,,,,,,,,,,,,,,,,,,,,,,,,,,,,,,,,,,,,,,,,30044
45,Centrum Onkologii Instytut imienia Marii Skłodowskiej,Garncarska 11,Kraków,,31-141,,50.0617535,19.9273596,False,,,,,,,,,,,,,,,,,,,,,,,,,,,,,,,,,,,,,,,,,,,,,,,,,,,,,,,,,,,,,,,,,,,,,,,,,,,,,,,,30045
46,Centrum Opieki Medycznej,ulica 3 Maja 70,Jarosław,,37-500,,50.0136554,22.6933452,False,,,,,,,,,,,,,,,,,,,,,,,,,,,,,,,,,,,,,,,,,,,,,,,,,,,,,,,,,,,,,,,,,,,,,,,,,,,,,,,,30046
47,Centrum Pediatrii im. Jana Pawła II,,Sosnowiec,,41-214,,50.2737397,19.1968861,False,,,,,,,,,,,,,,,,,,,,,,,,,,,,,,,,,,,,,,,,,,,,,,,,,,,,,,,,,,,,,,,,,,,,,,,,,,,,,,,,30047
48,Centrum Psychiatrii,,Katowice,,40-022,,50.2717742,19.0839802,False,,,,,,,,,,,,,,,,,,,,,,,,,,,,,,,,,,,,,,,,,,,,,,,,,,,,,,,,,,,,,,,,,,,,,,,,,,,,,,,,30048
49,Centrum Pulmonologii i Torakochirurgii w Bystrej,,,,,,49.7655585,19.0674264,False,,,,,,,,,,,,,,,,,,,,,,,,,,,,,,,,,,,,,,,,,,,,,,,,,,,,,,,,,,,,,,,,,,,,,,,,,,,,,,,,30049
50,Centrum Pulmonologii i alergologii,Franciszkańska 30,Karpacz,,58-540,,50.8295664,15.5297053,False,,,,,,,,,,,,,,,,,,,,,,,,,,,,,,,,,,,,,,,,,,,,,,,,,,,,,,,,,,,,,,,,,,,,,,,,,,,,,,,,30050
51,Centrum Rehabilitacji REHAMED-CENTER,Tajęcina 66A,Trzebownisko,,36-001,,50.1258066,22.0066891,False,,,,,,,,,,,,,,,,,,,,,,,,,,,,,,,,,,,,,,,,,,,,,,,,,,,,,,,,,,,,,,,,,,,,,,,,,,,,,,,,30051
52,Centrum Terapii Nerwic,Zamkowa 1a,Strzeleczki,,47-364,+48 77 466 84 18; +48 77 466 84 63,50.4416554,17.7718881,False,,,,,,,,,,,,,,,,,,,,,,,,,,,,,,,,,,,,,,,,,,,,,,,,,,,,,,,,,,,,,,,,,,,,,,,,,,,,,,,,30052
53,Centrum Zdrowia Dziecka,,Warszawa,,04-703,,52.2069459,21.1880582,False,,,,,,,,,,,,,,,,,,,,,,,,,,,,,,,,,,,,,,,,,,,,,,,,,,,,,,,,,,,,,,,,,,,,,,,,,,,,,,,,30053
54,Centrum Zdrowia Tuchów,Szpitalna 1,Tuchów,,33-170,,49.8925689,21.0605353,False,,,,,,,,,,,,,,,,,,,,,,,,,,,,,,,,,,,,,,,,,,,,,,,,,,,,,,,,,,,,,,,,,,,,,,,,,,,,,,,,30054
55,Certus,Grunwaldzka 156,Poznań,,60-161,+48 61 860 42 00,52.392763,16.8594452,False,,,,,,,,,,,,,,,,,,,,,,,,,,,,,,,,,,,,,,,,,,,,,,,,,,,,,,,,,,,,,,,,,,,,,,,,,,,,,,,,30055
56,Chorzowskie Centrum Pediatrii i Onkologii im. dr Edwarda Hankego,Władysława Truchana 7,Chorzów,,41-506,,50.297283,18.9486623,False,,,,,,,,,,,,,,,,,,,,,,,,,,,,,,,,,,,,,,,,,,,,,,,,,,,,,,,,,,,,,,,,,,,,,,,,,,,,,,,,30056
57,Dolnośląski Szpital Specjalistyczny im. T. Marciniaka,Generała Augusta Emila Fieldorfa nan,Wrocław,,54-126,+48713064419,51.1422775,16.9059648,False,,,,,,,,,,,,,,,,,,,,,,,,,,,,,,,,,,,,,,,,,,,,,,,,,,,,,,,,,,,,,,,,,,,,,,,,,,,,,,,,30057
58,Dolnośląskie Centrum Onkologii,,Wrocław,,50-502,,51.0946573,17.0162879,False,,,,,,,,,,,,,,,,,,,,,,,,,,,,,,,,,,,,,,,,,,,,,,,,,,,,,,,,,,,,,,,,,,,,,,,,,,,,,,,,30058
59,Dolnośląskie Centrum Rehabilitacji Sp. z o.o. w Kamiennej Górze,,Kamienna Góra,,58-400,,50.7789146,16.0674418,False,,,,,,,,,,,,,,,,,,,,,,,,,,,,,,,,,,,,,,,,,,,,,,,,,,,,,,,,,,,,,,,,,,,,,,,,,,,,,,,,30059
60,Dolnośląskie Centrum Zdrowia Psychicznego,,Wrocław,,50-225,,51.1296303,17.0278072,False,,,,,,,,,,,,,,,,,,,,,,,,,,,,,,,,,,,,,,,,,,,,,,,,,,,,,,,,,,,,,,,,,,,,,,,,,,,,,,,,30060
61,Dom Pomocy Społecznej,,Łódź,,93-358,,51.7068489,19.4344586,False,,,,,,,,,,,,,,,,,,,,,,,,,,,,,,,,,,,,,,,,,,,,,,,,,,,,,,,,,,,,,,,,,,,,,,,,,,,,,,,,30061
62,Dom Pomocy Społecznej,,Wielgie,,87-603,,52.7498767,19.2339524,False,,,,,,,,,,,,,,,,,,,,,,,,,,,,,,,,,,,,,,,,,,,,,,,,,,,,,,,,,,,,,,,,,,,,,,,,,,,,,,,,30062
63,Domowy Szpital,Spółdzielcza 5,Biała Podlaska,,21-500,,52.0341791,23.1104192,False,,,,,,,,,,,,,,,,,,,,,,,,,,,,,,,,,,,,,,,,,,,,,,,,,,,,,,,,,,,,,,,,,,,,,,,,,,,,,,,,30063
64,Dziecięcy Szpital Uzdrowiskowy „Mieszko”,Wojska Polskiego 4,Szczawno-Zdrój,,58-310,,50.804922,16.2549841,False,,,,,,,,,,,,,,,,,,,,,,,,,,,,,,,,,,,,,,,,,,,,,,,,,,,,,,,,,,,,,,,,,,,,,,,,,,,,,,,,30064
65,Esculap,,Bielsko-Biała,,43-300,,49.8073872,18.9731649,False,,,,,,,,,,,,,,,,,,,,,,,,,,,,,,,,,,,,,,,,,,,,,,,,,,,,,,,,,,,,,,,,,,,,,,,,,,,,,,,,30065
66,EuroMediCare,,Wrocław,,54-144,,51.1421892,16.9560493,False,,,,,,,,,,,,,,,,,,,,,,,,,,,,,,,,,,,,,,,,,,,,,,,,,,,,,,,,,,,,,,,,,,,,,,,,,,,,,,,,30066
67,Euromedic,Tadeusza Kościuszki 92,Katowice,,40-022,,50.2452523,19.0119544,False,,,,,,,,,,,,,,,,,,,,,,,,,,,,,,,,,,,,,,,,,,,,,,,,,,,,,,,,,,,,,,,,,,,,,,,,,,,,,,,,30067
68,Filia Domu Pomocy Społecznej Nr 1,,Tomaszów Mazowiecki,,97-200,,51.5345777,19.9992428,False,,,,,,,,,,,,,,,,,,,,,,,,,,,,,,,,,,,,,,,,,,,,,,,,,,,,,,,,,,,,,,,,,,,,,,,,,,,,,,,,30068
69,Filia Wielkopolskiego Centrum Onkologii,Kaszubska 12,Kalisz,,62-800,,51.7692528,18.1018641,False,,,,,,,,,,,,,,,,,,,,,,,,,,,,,,,,,,,,,,,,,,,,,,,,,,,,,,,,,,,,,,,,,,,,,,,,,,,,,,,,30069
70,Fundacja Hospicjum dla Dzieci,Lwowska 132,Rzeszów,,35-074,17 853 48 18,50.0377121,22.0633016,False,,,,,,,,,,,,,,,,,,,,,,,,,,,,,,,,,,,,,,,,,,,,,,,,,,,,,,,,,,,,,,,,,,,,,,,,,,,,,,,,30070
71,GAMETA,Rudzka 34/36,Rzgów,,95-030,+48 42 645 77 77,51.6737683,19.478558,False,,,,,,,,,,,,,,,,,,,,,,,,,,,,,,,,,,,,,,,,,,,,,,,,,,,,,,,,,,,,,,,,,,,,,,,,,,,,,,,,30071
72,Galen Ortopedia,Jerzego 6,Bieruń,,43-155,,50.0925548,19.0904836,False,,,,,,,,,,,,,,,,,,,,,,,,,,,,,,,,,,,,,,,,,,,,,,,,,,,,,,,,,,,,,,,,,,,,,,,,,,,,,,,,30072
73,Galena,,Bielsko-Biała,,43-300,,49.8103258,19.0559899,False,,,,,,,,,,,,,,,,,,,,,,,,,,,,,,,,,,,,,,,,,,,,,,,,,,,,,,,,,,,,,,,,,,,,,,,,,,,,,,,,30073
74,Geo Medical,Wita Stwosza 41,Katowice,,40-022,,50.2457373,19.0133727,False,,,,,,,,,,,,,,,,,,,,,,,,,,,,,,,,,,,,,,,,,,,,,,,,,,,,,,,,,,,,,,,,,,,,,,,,,,,,,,,,30074
75,Ginekologiczno-Położniczy Szpital Kliniczny,Polna 33,Poznań,,60-584,+48 61 841 92 24,52.410091,16.8963007,False,,,,,,,,,,,,,,,,,,,,,,,,,,,,,,,,,,,,,,,,,,,,,,,,,,,,,,,,,,,,,,,,,,,,,,,,,,,,,,,,30075
76,Gliwickie Centrum Medyczne Sp. z o.o.,Tadeusza Kościuszki 29,Gliwice,,44-100,324613201,50.2944524,18.6529806,False,,,,,,,,,,,,,,,,,,,,,,,,,,,,,,,,,,,,,,,,,,,,,,,,,,,,,,,,,,,,,,,,,,,,,,,,,,,,,,,,30076
77,Gminna Przychodnia SZOZ,Bydgoska 38,Dąbrowa Chełmińska,,86-070,,53.1772024,18.2998435,False,,,,,,,,,,,,,,,,,,,,,,,,,,,,,,,,,,,,,,,,,,,,,,,,,,,,,,,,,,,,,,,,,,,,,,,,,,,,,,,,30077
78,Gminny Ośrodek Zdrowia,Powstańców Śląskich 7,Przystajń,,42-141,,50.8831648,18.6872297,False,,,,,,,,,,,,,,,,,,,,,,,,,,,,,,,,,,,,,,,,,,,,,,,,,,,,,,,,,,,,,,,,,,,,,,,,,,,,,,,,30078
79,Gminny Zakład Opieki Zdrowotnej,Jana nan,Bojszowy,,43-220,,50.0574498,19.0965943,False,,,,,,,,,,,,,,,,,,,,,,,,,,,,,,,,,,,,,,,,,,,,,,,,,,,,,,,,,,,,,,,,,,,,,,,,,,,,,,,,30079
80,Górnośląskie Centrum Zdrowia Dziecka im. Jana Pawła II,Medyków 16,Katowice,,40-022,+48 32 2071800,50.2238509,18.949552,False,,,,,,,,,,,,,,,,,,,,,,,,,,,,,,,,,,,,,,,,,,,,,,,,,,,,,,,,,,,,,,,,,,,,,,,,,,,,,,,,30080
81,Głogowski Szpital Powiatowy,Tadeusza Kościuszki 15,Głogów,,67-200,,51.6548096,16.074964,False,,,,,,,,,,,,,,,,,,,,,,,,,,,,,,,,,,,,,,,,,,,,,,,,,,,,,,,,,,,,,,,,,,,,,,,,,,,,,,,,30081
82,Hospicjum,Szpitalna 1C,Miechów,,32-200,,50.3552426,20.0355248,False,,,,,,,,,,,,,,,,,,,,,,,,,,,,,,,,,,,,,,,,,,,,,,,,,,,,,,,,,,,,,,,,,,,,,,,,,,,,,,,,30082
83,Hospicjum Cordis,Oswobodzenia 48,Katowice,,40-022,,50.2472868,19.0883464,False,,,,,,,,,,,,,,,,,,,,,,,,,,,,,,,,,,,,,,,,,,,,,,,,,,,,,,,,,,,,,,,,,,,,,,,,,,,,,,,,30083
84,Hospicjum Elbląskie,,Elbląg,,82-300,,54.1716241,19.4276207,False,,,,,,,,,,,,,,,,,,,,,,,,,,,,,,,,,,,,,,,,,,,,,,,,,,,,,,,,,,,,,,,,,,,,,,,,,,,,,,,,30084
85,Hospicjum Palium,Osiedle Rusa 55,Poznań,,61-285,,52.3913603,16.9871195,False,,,,,,,,,,,,,,,,,,,,,,,,,,,,,,,,,,,,,,,,,,,,,,,,,,,,,,,,,,,,,,,,,,,,,,,,,,,,,,,,30085
86,Hospicjum Stacjonarne VITA-SPES,nan 37,Padew Narodowa,,39-340,,50.3990414,21.5389441,False,,,,,,,,,,,,,,,,,,,,,,,,,,,,,,,,,,,,,,,,,,,,,,,,,,,,,,,,,,,,,,,,,,,,,,,,,,,,,,,,30086
87,Hospicjum im. Jana Pawła II,Południowa 3,Konin,,62-500,,52.2271422,18.282373,False,,,,,,,,,,,,,,,,,,,,,,,,,,,,,,,,,,,,,,,,,,,,,,,,,,,,,,,,,,,,,,,,,,,,,,,,,,,,,,,,30087
88,Hospicjum w Tczewie,,Tczew,,83-100,,54.0906833,18.7969011,False,,,,,,,,,,,,,,,,,,,,,,,,,,,,,,,,,,,,,,,,,,,,,,,,,,,,,,,,,,,,,,,,,,,,,,,,,,,,,,,,30088
89,Hospicjum Świętego Łazarza,,Kraków,,31-836,+48 12 641 4655,50.0847743,20.0323564,False,,,,,,,,,,,,,,,,,,,,,,,,,,,,,,,,,,,,,,,,,,,,,,,,,,,,,,,,,,,,,,,,,,,,,,,,,,,,,,,,30089
90,"I Klinika Psychiatrii, Psychoterapii i Wczesnej Interwencji SPSK 1",Głuska 1,Lublin,Lublin,20-115,,51.2071833,22.5883899,False,,,,,,,,,,,,,,,,,,,,,,,,,,,,,,,,,,,,,,,,,,,,,,,,,,,,,,,,,,,,,,,,,,,,,,,,,,,,,,,,30090
91,I Szpital Miejski im. dr. Emanuela Sonnenberga,Pieniny 30,Łódź,,90-132,+48 42 6793067,51.7821154,19.5245703,False,,,,,,,,,,,,,,,,,,,,,,,,,,,,,,,,,,,,,,,,,,,,,,,,,,,,,,,,,,,,,,,,,,,,,,,,,,,,,,,,30091
92,I Szpital Wojskowy,Aleje Racławickie 23,Lublin,Lublin,20-115,,51.250909,22.5338662,False,,,,,,,,,,,,,,,,,,,,,,,,,,,,,,,,,,,,,,,,,,,,,,,,,,,,,,,,,,,,,,,,,,,,,,,,,,,,,,,,30092
93,II Szpital Miejski im. dr Ludwika Rydygiera,,Łódź,,90-318,,51.7770744,19.4677025,False,,,,,,,,,,,,,,,,,,,,,,,,,,,,,,,,,,,,,,,,,,,,,,,,,,,,,,,,,,,,,,,,,,,,,,,,,,,,,,,,30093
94,III Szpital Miejski im. dr. Karola Jonschera,Milionowa 14,Łódź,,93-193,+48 42 6761774,51.7524264,19.4849983,False,,,,,,,,,,,,,,,,,,,,,,,,,,,,,,,,,,,,,,,,,,,,,,,,,,,,,,,,,,,,,,,,,,,,,,,,,,,,,,,,30094
95,IV Wojskowy Szpital Kliniczny,,Wrocław,,50-559,,51.0753867,17.0237598,False,,,,,,,,,,,,,,,,,,,,,,,,,,,,,,,,,,,,,,,,,,,,,,,,,,,,,,,,,,,,,,,,,,,,,,,,,,,,,,,,30095
96,Instytut Centrum Zdrowia Matki Polki,,Łódź,,93-337,,51.7078777,19.481395,False,,,,,,,,,,,,,,,,,,,,,,,,,,,,,,,,,,,,,,,,,,,,,,,,,,,,,,,,,,,,,,,,,,,,,,,,,,,,,,,,30096
97,Instytut Centrum Zdrowia Matki Polki,Rzgowska 281/289,Łódź,,93-337,,51.7061807,19.4797244,False,,,,,,,,,,,,,,,,,,,,,,,,,,,,,,,,,,,,,,,,,,,,,,,,,,,,,,,,,,,,,,,,,,,,,,,,,,,,,,,,30097
98,Instytut Centrum Zdrowia Matki Polki,,Łódź,,93-337,+48 42 2711000,51.7075013,19.4766984,False,,,,,,,,,,,,,,,,,,,,,,,,,,,,,,,,,,,,,,,,,,,,,,,,,,,,,,,,,,,,,,,,,,,,,,,,,,,,,,,,30098
99,Instytut Gruźlicy i Chorób Płuc,,Warszawa,,01-172,,52.2353167,20.9670485,False,,,,,,,,,,,,,,,,,,,,,,,,,,,,,,,,,,,,,,,,,,,,,,,,,,,,,,,,,,,,,,,,,,,,,,,,,,,,,,,,30099
100,Instytut Gruźlicy i Chorób Płuc - Oddział Terenowy im. Jana i Ireny Rudników,,Rabka-Zdrój,,34-700,,49.6068517,19.9669328,False,,,,,,,,,,,,,,,,,,,,,,,,,,,,,,,,,,,,,,,,,,,,,,,,,,,,,,,,,,,,,,,,,,,,,,,,,,,,,,,,30100
101,Instytut Kardiologii,,Warszawa,,04-626,,52.218842,21.1758441,False,,,,,,,,,,,,,,,,,,,,,,,,,,,,,,,,,,,,,,,,,,,,,,,,,,,,,,,,,,,,,,,,,,,,,,,,,,,,,,,,30101
102,Instytut Matki i Dziecka,Marcina Kasprzaka 17A,Warszawa,,01-210,+48 22 327 73 05,52.2273459,20.9689427,False,,,,,,,,,,,,,,,,,,,,,,,,,,,,,,,,,,,,,,,,,,,,,,,,,,,,,,,,,,,,,,,,,,,,,,,,,,,,,,,,30102
103,Instytut Medycyny Pracy im. prof. dr. med. Jerzego Nofera,Świętej Teresy od Dzieciątka Jezus 8,Łódź,,91-357,+48 42 631 45 02,51.801787,19.436214,False,,,,,,,,,,,,,,,,,,,,,,,,,,,,,,,,,,,,,,,,,,,,,,,,,,,,,,,,,,,,,,,,,,,,,,,,,,,,,,,,30103
104,Instytut Onkologii,Wawelska 15,Warszawa,,02-340,,52.2159434,20.9833461,False,,,,,,,,,,,,,,,,,,,,,,,,,,,,,,,,,,,,,,,,,,,,,,,,,,,,,,,,,,,,,,,,,,,,,,,,,,,,,,,,30104
105,Instytut Psychiatrii i Neurologii,,Warszawa,,02-758,,52.1721674,21.0654691,False,,,,,,,,,,,,,,,,,,,,,,,,,,,,,,,,,,,,,,,,,,,,,,,,,,,,,,,,,,,,,,,,,,,,,,,,,,,,,,,,30105
106,Instytut Reumatologii i Kardiologii,,Warszawa,,02-632,,52.1920274,20.995275,False,,,,,,,,,,,,,,,,,,,,,,,,,,,,,,,,,,,,,,,,,,,,,,,,,,,,,,,,,,,,,,,,,,,,,,,,,,,,,,,,30106
107,Jaworskie Centrum Medyczne,,Jawor,,59-400,,51.0474669,16.1988781,False,,,,,,,,,,,,,,,,,,,,,,,,,,,,,,,,,,,,,,,,,,,,,,,,,,,,,,,,,,,,,,,,,,,,,,,,,,,,,,,,30107
108,Jolly Med,Popielówek 1 nan,Lubomierz,,59-623,75 789 13 30,50.9749107,15.5236438,False,,,,,,,,,,,,,,,,,,,,,,,,,,,,,,,,,,,,,,,,,,,,,,,,,,,,,,,,,,,,,,,,,,,,,,,,,,,,,,,,30108
109,Katedra i Klinika Psychiatrii Pomorskiego Uniwersytetu Medycznego,,Szczecin,,70-560,,53.4544829,14.5323967,False,,,,,,,,,,,,,,,,,,,,,,,,,,,,,,,,,,,,,,,,,,,,,,,,,,,,,,,,,,,,,,,,,,,,,,,,,,,,,,,,30109
110,Katowickie Centrum Onkologii (dawn. Szpital im. Stanisława Leszczyńskiego),Raciborska 26,Katowice,,40-022,32 251-52-53,50.2547333,19.0049573,False,,,,,,,,,,,,,,,,,,,,,,,,,,,,,,,,,,,,,,,,,,,,,,,,,,,,,,,,,,,,,,,,,,,,,,,,,,,,,,,,30110
111,Katowickie Centrum Onkologii Zespół nr 2,,Katowice,,40-022,,50.2865682,19.0119179,False,,,,,,,,,,,,,,,,,,,,,,,,,,,,,,,,,,,,,,,,,,,,,,,,,,,,,,,,,,,,,,,,,,,,,,,,,,,,,,,,30111
112,Klinika,,,,,,53.7266247,17.6275143,False,,,,,,,,,,,,,,,,,,,,,,,,,,,,,,,,,,,,,,,,,,,,,,,,,,,,,,,,,,,,,,,,,,,,,,,,,,,,,,,,30112
113,Klinika Chorób Zakaźnych Wojewódzkiego Szpitala Zespolonego,Radiowa 7,Kielce,,25-525,+48 41 363 71 37,50.8752139,20.6377718,False,,,,,,,,,,,,,,,,,,,,,,,,,,,,,,,,,,,,,,,,,,,,,,,,,,,,,,,,,,,,,,,,,,,,,,,,,,,,,,,,30113
114,Klinika Dermatologii i Wenerologii Uniwersytetu Medycznego w Łodzi,Plac generała Józefa Hallera 1,Łódź,,90-563,,51.7683776,19.4333373,False,,,,,,,,,,,,,,,,,,,,,,,,,,,,,,,,,,,,,,,,,,,,,,,,,,,,,,,,,,,,,,,,,,,,,,,,,,,,,,,,30114
115,"Klinika Dermatologii, Wenerologii i Dermatologii Dziecięcej",Radziwiłłowska 13,Lublin,Lublin,20-115,,51.2497035,22.558396,False,,,,,,,,,,,,,,,,,,,,,,,,,,,,,,,,,,,,,,,,,,,,,,,,,,,,,,,,,,,,,,,,,,,,,,,,,,,,,,,,30115
116,Klinika Ort-Medica Centeum Medyczne,Brzozowa 7,Ostrów Wielkopolski,,63-400,,51.6274169,17.8049814,False,,,,,,,,,,,,,,,,,,,,,,,,,,,,,,,,,,,,,,,,,,,,,,,,,,,,,,,,,,,,,,,,,,,,,,,,,,,,,,,,30116
117,Klinika Pro Bono,,Poznań,,60-122,,52.3772308,16.8805224,False,,,,,,,,,,,,,,,,,,,,,,,,,,,,,,,,,,,,,,,,,,,,,,,,,,,,,,,,,,,,,,,,,,,,,,,,,,,,,,,,30117
118,Klinika św. Łukasza,Bystrzańska 94b,Bielsko-Biała,,43-300,,49.7825107,19.0667834,False,,,,,,,,,,,,,,,,,,,,,,,,,,,,,,,,,,,,,,,,,,,,,,,,,,,,,,,,,,,,,,,,,,,,,,,,,,,,,,,,30118
119,Kolejowy Szpital Uzdrowiskowy,Gabriela Narutowicza 12,,,,,52.880236,18.6898415,False,,,,,,,,,,,,,,,,,,,,,,,,,,,,,,,,,,,,,,,,,,,,,,,,,,,,,,,,,,,,,,,,,,,,,,,,,,,,,,,,30119
120,Kolejowy Szpital Uzdrowiskowy,Zdrojowa 17,,,,,52.8772621,18.7895421,False,,,,,,,,,,,,,,,,,,,,,,,,,,,,,,,,,,,,,,,,,,,,,,,,,,,,,,,,,,,,,,,,,,,,,,,,,,,,,,,,30120
121,Krakowska Poradnia Opieki Paliatywnej,Wielicka nan,Kraków,,30-864,,50.0101323,20.0059805,False,,,,,,,,,,,,,,,,,,,,,,,,,,,,,,,,,,,,,,,,,,,,,,,,,,,,,,,,,,,,,,,,,,,,,,,,,,,,,,,,30121
122,Krakowski Szpital Reumatologii i Rehabilitacji,Aleja Marszałka Ferdynanda Focha 33,Kraków,,30-233,,50.0575056,19.9134477,False,,,,,,,,,,,,,,,,,,,,,,,,,,,,,,,,,,,,,,,,,,,,,,,,,,,,,,,,,,,,,,,,,,,,,,,,,,,,,,,,30122
123,Krakowskie Centrum Rehabilitacji,,Kraków,,30-233,,50.0635596,19.8658621,False,,,,,,,,,,,,,,,,,,,,,,,,,,,,,,,,,,,,,,,,,,,,,,,,,,,,,,,,,,,,,,,,,,,,,,,,,,,,,,,,30123
124,Krom-Med,Siewierska 74a,Zawiercie,,42-400,,50.4892528,19.4908009,False,,,,,,,,,,,,,,,,,,,,,,,,,,,,,,,,,,,,,,,,,,,,,,,,,,,,,,,,,,,,,,,,,,,,,,,,,,,,,,,,30124
125,Kujawsko-Pomorskie Centrum Pulmonologii w Bydgoszczy,Seminaryjna 1,Bydgoszcz,,85-023,,53.1220007,17.9838251,False,,,,,,,,,,,,,,,,,,,,,,,,,,,,,,,,,,,,,,,,,,,,,,,,,,,,,,,,,,,,,,,,,,,,,,,,,,,,,,,,30125
126,LUX MED,Puławska 455,Warszawa,,02-840,+48 22 4312059,52.1384034,21.0185935,False,,,,,,,,,,,,,,,,,,,,,,,,,,,,,,,,,,,,,,,,,,,,,,,,,,,,,,,,,,,,,,,,,,,,,,,,,,,,,,,,30126
127,Latawiec,,Świdnica,,58-100,,50.8328388,16.4655143,False,,,,,,,,,,,,,,,,,,,,,,,,,,,,,,,,,,,,,,,,,,,,,,,,,,,,,,,,,,,,,,,,,,,,,,,,,,,,,,,,30127
128,Leszczyńskie Centrum Medyczne Ventriculus,Słowiańska nan,Leszno,,64-100,65 520 65 80,51.8424941,16.5691177,False,,,,,,,,,,,,,,,,,,,,,,,,,,,,,,,,,,,,,,,,,,,,,,,,,,,,,,,,,,,,,,,,,,,,,,,,,,,,,,,,30128
129,Leśny,,Oborniki Śląskie,,55-120,,51.3074876,16.8922688,False,,,,,,,,,,,,,,,,,,,,,,,,,,,,,,,,,,,,,,,,,,,,,,,,,,,,,,,,,,,,,,,,,,,,,,,,,,,,,,,,30129
130,Liftmed,Cegielniana 14,Rybnik,,44-200,+48324408899,50.099934,18.5430245,False,,,,,,,,,,,,,,,,,,,,,,,,,,,,,,,,,,,,,,,,,,,,,,,,,,,,,,,,,,,,,,,,,,,,,,,,,,,,,,,,30130
131,Lotnicze Pogotowie Ratunkowe,,Sanok,,38-500,,49.5750066,22.2034415,False,,,,,,,,,,,,,,,,,,,,,,,,,,,,,,,,,,,,,,,,,,,,,,,,,,,,,,,,,,,,,,,,,,,,,,,,,,,,,,,,30131
132,Lotnicze Pogotowie Ratunkowe Ostrów Wielkopolski,Michałków 1a,Ostrów Wielkopolski (Gmina),,63-400,,51.7019968,17.8398252,False,,,,,,,,,,,,,,,,,,,,,,,,,,,,,,,,,,,,,,,,,,,,,,,,,,,,,,,,,,,,,,,,,,,,,,,,,,,,,,,,30132
133,Lux Med,Władysława Szernera 3,Warszawa,,03-305,,52.2807225,21.0117169,False,,,,,,,,,,,,,,,,,,,,,,,,,,,,,,,,,,,,,,,,,,,,,,,,,,,,,,,,,,,,,,,,,,,,,,,,,,,,,,,,30133
134,Lądowisko Żyrardów,Jana Skrowaczewskiego nan,Żyrardów,,96-300,,52.0693953,20.4297681,False,,,,,,,,,,,,,,,,,,,,,,,,,,,,,,,,,,,,,,,,,,,,,,,,,,,,,,,,,,,,,,,,,,,,,,,,,,,,,,,,30134
135,Mazowiecki Oddział Wojewódzki NFZ - Delegatura w Radomiu,,Radom,,26-610,,51.4321972,21.1640157,False,,,,,,,,,,,,,,,,,,,,,,,,,,,,,,,,,,,,,,,,,,,,,,,,,,,,,,,,,,,,,,,,,,,,,,,,,,,,,,,,30135
136,Mazowiecki Szpital Bródnowski,Ludwika Kondratowicza 8,Warszawa,,03-352,22 326 55 00,52.2914836,21.0469851,False,,,,,,,,,,,,,,,,,,,,,,,,,,,,,,,,,,,,,,,,,,,,,,,,,,,,,,,,,,,,,,,,,,,,,,,,,,,,,,,,30136
137,Mazowiecki Szpital Onkologiczny,Kościelna 61,Wieliszew,,05-135,,52.4400895,20.9623141,False,,,,,,,,,,,,,,,,,,,,,,,,,,,,,,,,,,,,,,,,,,,,,,,,,,,,,,,,,,,,,,,,,,,,,,,,,,,,,,,,30137
138,Mazowiecki Szpital Specjalistyczny,Juliana Aleksandrowicza 5,Radom,,26-610,,51.4393477,21.1576187,False,,,,,,,,,,,,,,,,,,,,,,,,,,,,,,,,,,,,,,,,,,,,,,,,,,,,,,,,,,,,,,,,,,,,,,,,,,,,,,,,30138
139,Mazowiecki Szpital Wojewódzki Drewnica,,Ząbki,,05-091,,52.297273,21.1144242,False,,,,,,,,,,,,,,,,,,,,,,,,,,,,,,,,,,,,,,,,,,,,,,,,,,,,,,,,,,,,,,,,,,,,,,,,,,,,,,,,30139
140,Mazowiecki Szpital Wojewódzki w Siedlcach,,Siedlce,,08-110,,52.1746086,22.2917481,False,,,,,,,,,,,,,,,,,,,,,,,,,,,,,,,,,,,,,,,,,,,,,,,,,,,,,,,,,,,,,,,,,,,,,,,,,,,,,,,,30140
141,Mazowieckie Centrum Epileptologii i Nefrologii Dziecięcej,Barska nan,Warszawa,,02-340,,52.219458,20.9777227,False,,,,,,,,,,,,,,,,,,,,,,,,,,,,,,,,,,,,,,,,,,,,,,,,,,,,,,,,,,,,,,,,,,,,,,,,,,,,,,,,30141
142,Mazowieckie Centrum Leczenia Chorób Płuc i Gruźlicy,Reymonta 83/91,Otwock,,05-400,,52.1100528,21.2984134,False,,,,,,,,,,,,,,,,,,,,,,,,,,,,,,,,,,,,,,,,,,,,,,,,,,,,,,,,,,,,,,,,,,,,,,,,,,,,,,,,30142
143,Mazowieckie Centrum Neuropsychiatrii,3 Maja 127D,Józefów,,05-420,,52.1280695,21.2376612,False,,,,,,,,,,,,,,,,,,,,,,,,,,,,,,,,,,,,,,,,,,,,,,,,,,,,,,,,,,,,,,,,,,,,,,,,,,,,,,,,30143
144,Mazowieckie Centrum Neuropsychiatrii i Rehabilitacji Dzieci i Młodzieży w Zagórzu - Oddział w Garwolinie,,Garwolin,,08-400,,51.8863869,21.6247226,False,,,,,,,,,,,,,,,,,,,,,,,,,,,,,,,,,,,,,,,,,,,,,,,,,,,,,,,,,,,,,,,,,,,,,,,,,,,,,,,,30144
145,Mazowieckie Centrum Rehabilitacji STOCER,,Konstancin-Jeziorna,,05-510,22 711 90 00,52.0796994,21.1136106,False,,,,,,,,,,,,,,,,,,,,,,,,,,,,,,,,,,,,,,,,,,,,,,,,,,,,,,,,,,,,,,,,,,,,,,,,,,,,,,,,30145
146,Małpolskie Centrum Rehabilitacji Dzieci w Radziszowie,Podlesie 173,Skawina,,32-050,+12 275 17 51 w.160,49.9079739,19.8344921,False,,,,,,,,,,,,,,,,,,,,,,,,,,,,,,,,,,,,,,,,,,,,,,,,,,,,,,,,,,,,,,,,,,,,,,,,,,,,,,,,30146
147,MedPolonia,Obornicka 262,Poznań,,60-681,+48 61 66 43 313; +48 514 971 722,52.4482314,16.9077441,False,,,,,,,,,,,,,,,,,,,,,,,,,,,,,,,,,,,,,,,,,,,,,,,,,,,,,,,,,,,,,,,,,,,,,,,,,,,,,,,,30147
148,Medeor Plus,,Łódź,,91-357,,51.7879771,19.4471071,False,,,,,,,,,,,,,,,,,,,,,,,,,,,,,,,,,,,,,,,,,,,,,,,,,,,,,,,,,,,,,,,,,,,,,,,,,,,,,,,,30148
149,Miejski Samodzielny Publiczny Zakład Opieki Zdrowotnej Nr 1,Ignacego Prądzyńskiego 11,Wołomin,,05-200,,52.3428662,21.2385535,False,,,,,,,,,,,,,,,,,,,,,,,,,,,,,,,,,,,,,,,,,,,,,,,,,,,,,,,,,,,,,,,,,,,,,,,,,,,,,,,,30149
150,Miejski Szpital Zespolony,,Częstochowa,,42-202,,50.813681,19.1329304,False,,,,,,,,,,,,,,,,,,,,,,,,,,,,,,,,,,,,,,,,,,,,,,,,,,,,,,,,,,,,,,,,,,,,,,,,,,,,,,,,30150
151,Miejski Szpital Zespolony im. dr Władysława Biegańskiego,Adama Mickiewicza 12,Częstochowa,,42-217,,50.8016604,19.1142928,False,,,,,,,,,,,,,,,,,,,,,,,,,,,,,,,,,,,,,,,,,,,,,,,,,,,,,,,,,,,,,,,,,,,,,,,,,,,,,,,,30151
152,Miejski Szpital w Pionkach,Niepodległości 1,Pionki,,26-670,,51.475322,21.4447717,False,,,,,,,,,,,,,,,,,,,,,,,,,,,,,,,,,,,,,,,,,,,,,,,,,,,,,,,,,,,,,,,,,,,,,,,,,,,,,,,,30152
153,Milickie Centrum Medyczne,,Milicz,,56-300,,51.5167157,17.2587172,False,,,,,,,,,,,,,,,,,,,,,,,,,,,,,,,,,,,,,,,,,,,,,,,,,,,,,,,,,,,,,,,,,,,,,,,,,,,,,,,,30153
154,Międzyleski Szpital Specjalistyczny,Bursztynowa 2,Warszawa,,04-703,022 815-67-39,52.2028399,21.1826029,False,,,,,,,,,,,,,,,,,,,,,,,,,,,,,,,,,,,,,,,,,,,,,,,,,,,,,,,,,,,,,,,,,,,,,,,,,,,,,,,,30154
155,Międzynarodowe Centrum Słuchu,,Nadarzyn,,05-830,,52.0983573,20.8205484,False,,,,,,,,,,,,,,,,,,,,,,,,,,,,,,,,,,,,,,,,,,,,,,,,,,,,,,,,,,,,,,,,,,,,,,,,,,,,,,,,30155
156,NOVOMED,,Włoszczowa,,29-100,,50.8465754,19.9849326,False,,,,,,,,,,,,,,,,,,,,,,,,,,,,,,,,,,,,,,,,,,,,,,,,,,,,,,,,,,,,,,,,,,,,,,,,,,,,,,,,30156
157,"NZOZ ""Zdrowie""",Klonowa 9,Janikowo,,88-160,,52.7547413,18.1047321,False,,,,,,,,,,,,,,,,,,,,,,,,,,,,,,,,,,,,,,,,,,,,,,,,,,,,,,,,,,,,,,,,,,,,,,,,,,,,,,,,30157
158,NZOZ Analco,Aleja Armii Krajowej 25,Świdnik,,21-040,,51.2178079,22.7150565,False,,,,,,,,,,,,,,,,,,,,,,,,,,,,,,,,,,,,,,,,,,,,,,,,,,,,,,,,,,,,,,,,,,,,,,,,,,,,,,,,30158
159,NZOZ KORMED Sp. z o.o.,,Jawor,,59-400,,51.0595445,16.183387,False,,,,,,,,,,,,,,,,,,,,,,,,,,,,,,,,,,,,,,,,,,,,,,,,,,,,,,,,,,,,,,,,,,,,,,,,,,,,,,,,30159
160,NZOZ Konwaliowa,Jana Kowalczyka 1A,Warszawa,,03-193,+48 22 3532266,52.304236,20.9897828,False,,,,,,,,,,,,,,,,,,,,,,,,,,,,,,,,,,,,,,,,,,,,,,,,,,,,,,,,,,,,,,,,,,,,,,,,,,,,,,,,30160
161,NZOZ Medyk Ośrodek Zdrowia,Lipowa 10,Miedźna,,43-225,,50.0162738,19.1015099,False,,,,,,,,,,,,,,,,,,,,,,,,,,,,,,,,,,,,,,,,,,,,,,,,,,,,,,,,,,,,,,,,,,,,,,,,,,,,,,,,30161
162,NZOZ Moja Poradnia - przychodnia,Cicha 23,Piekary Śląskie,,41-940,,50.3924214,18.9545862,False,,,,,,,,,,,,,,,,,,,,,,,,,,,,,,,,,,,,,,,,,,,,,,,,,,,,,,,,,,,,,,,,,,,,,,,,,,,,,,,,30162
163,NZOZ Salus Ośrodek Zdrowia,Grunwaldzka 50,Chorzele,,06-330,,53.2627251,20.8978316,False,,,,,,,,,,,,,,,,,,,,,,,,,,,,,,,,,,,,,,,,,,,,,,,,,,,,,,,,,,,,,,,,,,,,,,,,,,,,,,,,30163
164,NZOZ Szpital Miejski w Rudzie Śląskiej,Wincentego Lipa 2,Ruda Śląska,,41-710,,50.3152877,18.8875286,False,,,,,,,,,,,,,,,,,,,,,,,,,,,,,,,,,,,,,,,,,,,,,,,,,,,,,,,,,,,,,,,,,,,,,,,,,,,,,,,,30164
165,NZOZ Szpital Powiatowy,Piastowska 7,Bielawa,,58-260,,50.6838,16.6095285,False,,,,,,,,,,,,,,,,,,,,,,,,,,,,,,,,,,,,,,,,,,,,,,,,,,,,,,,,,,,,,,,,,,,,,,,,,,,,,,,,30165
166,NZOZ Szpital na Siemiradzkiego im. R. Czerwiakowskiego,,Kraków,,31-141,,50.069745,19.9324386,False,,,,,,,,,,,,,,,,,,,,,,,,,,,,,,,,,,,,,,,,,,,,,,,,,,,,,,,,,,,,,,,,,,,,,,,,,,,,,,,,30166
167,NZOZ Szpital na Siemiradzkiego — Ośrodek Medycyny Matczyno-Płodowej,Kremerowska 11,Kraków,,31-141,,50.0679679,19.929607,False,,,,,,,,,,,,,,,,,,,,,,,,,,,,,,,,,,,,,,,,,,,,,,,,,,,,,,,,,,,,,,,,,,,,,,,,,,,,,,,,30167
168,Namysłowskie Centrum Zdrowia SA,,Namysłów,,46-100,+48 77 40 40 200,51.0840607,17.7106492,False,,,,,,,,,,,,,,,,,,,,,,,,,,,,,,,,,,,,,,,,,,,,,,,,,,,,,,,,,,,,,,,,,,,,,,,,,,,,,,,,30168
169,Nasza Przychodnia s.c. NZOZ. Przychodnia,Torowa 1,,,,,53.3017772,23.2879297,False,,,,,,,,,,,,,,,,,,,,,,,,,,,,,,,,,,,,,,,,,,,,,,,,,,,,,,,,,,,,,,,,,,,,,,,,,,,,,,,,30169
170,Neurologia - Oddział 20,nan 43,,,,,52.1442628,15.4030208,False,,,,,,,,,,,,,,,,,,,,,,,,,,,,,,,,,,,,,,,,,,,,,,,,,,,,,,,,,,,,,,,,,,,,,,,,,,,,,,,,30170
171,Niepubliczny Ośrodek Zdrowia,,Jarczów,,22-664,,50.4243261,23.5871534,False,,,,,,,,,,,,,,,,,,,,,,,,,,,,,,,,,,,,,,,,,,,,,,,,,,,,,,,,,,,,,,,,,,,,,,,,,,,,,,,,30171
172,Niepubliczny Zakład Opieki Zdrowotnej,nan 762,Hyżne,,36-024,,49.9142527,22.132342,False,,,,,,,,,,,,,,,,,,,,,,,,,,,,,,,,,,,,,,,,,,,,,,,,,,,,,,,,,,,,,,,,,,,,,,,,,,,,,,,,30172
173,Niepubliczny Zakład Opieki Zdrowotnej,Adama Mickiewicza 1,Ustroń,,43-450,,49.7184505,18.8147904,False,,,,,,,,,,,,,,,,,,,,,,,,,,,,,,,,,,,,,,,,,,,,,,,,,,,,,,,,,,,,,,,,,,,,,,,,,,,,,,,,30173
174,"Niepubliczny Zakład Opieki Zdrowotnej ""BHMed"" sp. z o. o.",,Świdnica,,58-100,,50.829925,16.5108825,False,,,,,,,,,,,,,,,,,,,,,,,,,,,,,,,,,,,,,,,,,,,,,,,,,,,,,,,,,,,,,,,,,,,,,,,,,,,,,,,,30174
175,"Niepubliczny Zakład Opieki Zdrowotnej ""Nowy Szpital""",ulica Gabriela Narutowicza 6,Kostrzyn nad Odrą,,66-470,,52.6084622,14.6419166,False,,,,,,,,,,,,,,,,,,,,,,,,,,,,,,,,,,,,,,,,,,,,,,,,,,,,,,,,,,,,,,,,,,,,,,,,,,,,,,,,30175
176,"Niepubliczny Zakład Opieki Zdrowotnej ""ZDROWIE""",Stanisława Staszica 3k,Szydłowiec,,26-500,,51.2277701,20.86543,False,,,,,,,,,,,,,,,,,,,,,,,,,,,,,,,,,,,,,,,,,,,,,,,,,,,,,,,,,,,,,,,,,,,,,,,,,,,,,,,,30176
177,Niepubliczny Zakład Opieki Zdrowotnej - Szpital Specjalistyczny im. Prof. E. Michałowskiego,Strzelecka 9,Katowice,,40-022,32 602-70-00,50.2530152,19.005832,False,,,,,,,,,,,,,,,,,,,,,,,,,,,,,,,,,,,,,,,,,,,,,,,,,,,,,,,,,,,,,,,,,,,,,,,,,,,,,,,,30177
178,Niepubliczny Zakład Opieki Zdrowotnej CARE,Stanisława Dubois 17,Zgierz,,95-100,,51.8579637,19.4212246,False,,,,,,,,,,,,,,,,,,,,,,,,,,,,,,,,,,,,,,,,,,,,,,,,,,,,,,,,,,,,,,,,,,,,,,,,,,,,,,,,30178
179,Niepubliczny Zakład Opieki Zdrowotnej Mak-Med sp. z o.o.,Biegańskiego 3,Małkinia Górna,,07-320,,52.6923238,22.0491605,False,,,,,,,,,,,,,,,,,,,,,,,,,,,,,,,,,,,,,,,,,,,,,,,,,,,,,,,,,,,,,,,,,,,,,,,,,,,,,,,,30179
180,Niepubliczny Zakład Opieki Zdrowotnej PANACEUM,Solidarności 12,Ruda Śląska,,41-710,,50.2406591,18.8334475,False,,,,,,,,,,,,,,,,,,,,,,,,,,,,,,,,,,,,,,,,,,,,,,,,,,,,,,,,,,,,,,,,,,,,,,,,,,,,,,,,30180
181,Niepubliczny Zakład Opieki Zdrowotnej WIELMED w Łagowie,Słupska 3,Łagów,,26-025,,50.7772349,21.0860829,False,,,,,,,,,,,,,,,,,,,,,,,,,,,,,,,,,,,,,,,,,,,,,,,,,,,,,,,,,,,,,,,,,,,,,,,,,,,,,,,,30181
182,Nowa siedziba Szpitala Uniwersyteckiego,Macieja Jakubowskiego nan,Kraków,,30-864,,50.0089588,19.9952407,False,,,,,,,,,,,,,,,,,,,,,,,,,,,,,,,,,,,,,,,,,,,,,,,,,,,,,,,,,,,,,,,,,,,,,,,,,,,,,,,,30182
183,Nowodworskie Centrum Medyczne,,Nowy Dwór Mazowiecki,,05-100,,52.4186148,20.7252072,False,,,,,,,,,,,,,,,,,,,,,,,,,,,,,,,,,,,,,,,,,,,,,,,,,,,,,,,,,,,,,,,,,,,,,,,,,,,,,,,,30183
184,Nowy Szpital,,Szprotawa,,67-300,,51.5666949,15.5519833,False,,,,,,,,,,,,,,,,,,,,,,,,,,,,,,,,,,,,,,,,,,,,,,,,,,,,,,,,,,,,,,,,,,,,,,,,,,,,,,,,30184
185,Nowy Szpital,,Świecie,,86-100,,53.4135904,18.4652544,False,,,,,,,,,,,,,,,,,,,,,,,,,,,,,,,,,,,,,,,,,,,,,,,,,,,,,,,,,,,,,,,,,,,,,,,,,,,,,,,,30185
186,Nowy Szpital Olkusz,1000-lecia nan,Olkusz,,32-300,,50.2695531,19.5674073,False,,,,,,,,,,,,,,,,,,,,,,,,,,,,,,,,,,,,,,,,,,,,,,,,,,,,,,,,,,,,,,,,,,,,,,,,,,,,,,,,30186
187,ODDZIAŁ MEDYCYNY PALIATYWNEJ SZPITALA OGÓLNEGO im. dr Edmunda Wojtyły w Bielsku-Białej,Emilii Plater 17,Bielsko-Biała,,43-300,,49.8205913,19.0239195,False,,,,,,,,,,,,,,,,,,,,,,,,,,,,,,,,,,,,,,,,,,,,,,,,,,,,,,,,,,,,,,,,,,,,,,,,,,,,,,,,30187
188,Oddział Dzienny Psychiatryczny Ogólny Świętokrzyskiego Centrum Psychiatrii,Janusza Kusocińskiego 59,Kielce,,25-525,+48 41 366 97 71,50.8540784,20.5983963,False,,,,,,,,,,,,,,,,,,,,,,,,,,,,,,,,,,,,,,,,,,,,,,,,,,,,,,,,,,,,,,,,,,,,,,,,,,,,,,,,30188
189,"Oddział Pulmonologii, Diagnostyki i Leczenia Raka Płuca",Wieniecka 49,Włocławek,,87-816,,52.6592899,19.0320254,False,,,,,,,,,,,,,,,,,,,,,,,,,,,,,,,,,,,,,,,,,,,,,,,,,,,,,,,,,,,,,,,,,,,,,,,,,,,,,,,,30189
190,Oddział Ratunkowy,Korczyńska 57,Krosno,,38-400,+48134364110,49.7012565,21.7834387,False,,,,,,,,,,,,,,,,,,,,,,,,,,,,,,,,,,,,,,,,,,,,,,,,,,,,,,,,,,,,,,,,,,,,,,,,,,,,,,,,30190
191,Oddział Rehabilitacji Neurologicznej Szpitala MSWiA,Juliana Ursyna Niemcewicza 82,Warszawa,,05-075,,52.245291,21.2300705,False,,,,,,,,,,,,,,,,,,,,,,,,,,,,,,,,,,,,,,,,,,,,,,,,,,,,,,,,,,,,,,,,,,,,,,,,,,,,,,,,30191
192,Oddział Wewnętrzny,Mossego 17,Grodzisk Wielkopolski,,62-065,,52.2281867,16.368498,False,,,,,,,,,,,,,,,,,,,,,,,,,,,,,,,,,,,,,,,,,,,,,,,,,,,,,,,,,,,,,,,,,,,,,,,,,,,,,,,,30192
193,Oddział Zakaźny,,Ostróda,,14-100,,53.6932488,19.9755567,False,,,,,,,,,,,,,,,,,,,,,,,,,,,,,,,,,,,,,,,,,,,,,,,,,,,,,,,,,,,,,,,,,,,,,,,,,,,,,,,,30193
194,Oddział neurologiczny,Marka Sobieskiego 4C,Krasnystaw,,22-300,,50.9829668,23.1646202,False,,,,,,,,,,,,,,,,,,,,,,,,,,,,,,,,,,,,,,,,,,,,,,,,,,,,,,,,,,,,,,,,,,,,,,,,,,,,,,,,30194
195,Oddziały dziecięce Wojewódzkiego Zespołu Reumatologicznego,,Sopot,,81-704,,54.4473946,18.5407802,False,,,,,,,,,,,,,,,,,,,,,,,,,,,,,,,,,,,,,,,,,,,,,,,,,,,,,,,,,,,,,,,,,,,,,,,,,,,,,,,,30195
196,Okręgowy Szpital Kolejowy,Panewnicka 65,Katowice,,40-022,+48 32 6053500,50.2270376,18.9592083,False,,,,,,,,,,,,,,,,,,,,,,,,,,,,,,,,,,,,,,,,,,,,,,,,,,,,,,,,,,,,,,,,,,,,,,,,,,,,,,,,30196
197,Okulistyka s.c.,Stanisława Wyspiańskiego 23,Tomaszów Lubelski,,22-600,,50.4415484,23.4138327,False,,,,,,,,,,,,,,,,,,,,,,,,,,,,,,,,,,,,,,,,,,,,,,,,,,,,,,,,,,,,,,,,,,,,,,,,,,,,,,,,30197
198,Opolskie Centrum Onkologii,,Opole,,45-068,,50.6723787,17.9369398,False,,,,,,,,,,,,,,,,,,,,,,,,,,,,,,,,,,,,,,,,,,,,,,,,,,,,,,,,,,,,,,,,,,,,,,,,,,,,,,,,30198
199,"Osrodek zdrowia, przychodnia lekarska",Plac Ratuszowy 1B,Łaziska Górne,,43-170,,50.1502017,18.8397024,False,,,,,,,,,,,,,,,,,,,,,,,,,,,,,,,,,,,,,,,,,,,,,,,,,,,,,,,,,,,,,,,,,,,,,,,,,,,,,,,,30199
200,Ośrodek Diagnostyczno-Leczniczy,,Chełm,,22-100,,51.1350706,23.4828394,False,,,,,,,,,,,,,,,,,,,,,,,,,,,,,,,,,,,,,,,,,,,,,,,,,,,,,,,,,,,,,,,,,,,,,,,,,,,,,,,,30200
201,Ośrodek Kardiologii Inwazyjnej IKARDIA,,Nałęczów,,24-140,,51.2845881,22.2077706,False,,,,,,,,,,,,,,,,,,,,,,,,,,,,,,,,,,,,,,,,,,,,,,,,,,,,,,,,,,,,,,,,,,,,,,,,,,,,,,,,30201
202,Ośrodek Leczenia Specjalistycznego,Nowowiejska 27,Warszawa,,00-659,,52.2199317,21.0082314,False,,,,,,,,,,,,,,,,,,,,,,,,,,,,,,,,,,,,,,,,,,,,,,,,,,,,,,,,,,,,,,,,,,,,,,,,,,,,,,,,30202
203,Ośrodek Pediatryczny im. dr J. Korczaka - Wojewódzki Szpital Specjalistyczny im. M.Kopernika w Łodzi,,Łódź,,92-208,,51.7582325,19.4841195,False,,,,,,,,,,,,,,,,,,,,,,,,,,,,,,,,,,,,,,,,,,,,,,,,,,,,,,,,,,,,,,,,,,,,,,,,,,,,,,,,30203
204,Ośrodek Pediatryczny im. dr. Janusza Korczaka,Aleja Marszałka Józefa Piłsudskiego 71,Łódź,,92-208,,51.7611942,19.4840198,False,,,,,,,,,,,,,,,,,,,,,,,,,,,,,,,,,,,,,,,,,,,,,,,,,,,,,,,,,,,,,,,,,,,,,,,,,,,,,,,,30204
205,Ośrodek Psychiatryczny,Dolna 42,Warszawa,,02-554,,52.2004304,21.0257103,False,,,,,,,,,,,,,,,,,,,,,,,,,,,,,,,,,,,,,,,,,,,,,,,,,,,,,,,,,,,,,,,,,,,,,,,,,,,,,,,,30205
206,Ośrodek Rehabilitacji im. Prof. Dr Wiktora Degi,Stanisława Konarskiego 5,Zgorzelec,,59-900,,51.1463865,15.0067908,False,,,,,,,,,,,,,,,,,,,,,,,,,,,,,,,,,,,,,,,,,,,,,,,,,,,,,,,,,,,,,,,,,,,,,,,,,,,,,,,,30206
207,Ośrodek Rehabilitacyjno-Reumatologiczny,,Goczałkowice-Zdrój,,43-230,,49.9372259,18.9792152,False,,,,,,,,,,,,,,,,,,,,,,,,,,,,,,,,,,,,,,,,,,,,,,,,,,,,,,,,,,,,,,,,,,,,,,,,,,,,,,,,30207
208,Ośrodek Zdrowia,Augustowska 45,,,,,53.6846098,23.0957768,False,,,,,,,,,,,,,,,,,,,,,,,,,,,,,,,,,,,,,,,,,,,,,,,,,,,,,,,,,,,,,,,,,,,,,,,,,,,,,,,,30208
209,Ośrodek Zdrowia,nan 427,Rakszawa,,37-111,,50.1595382,22.239242,False,,,,,,,,,,,,,,,,,,,,,,,,,,,,,,,,,,,,,,,,,,,,,,,,,,,,,,,,,,,,,,,,,,,,,,,,,,,,,,,,30209
210,Ośrodek Zdrowia,nan 70,Tarnów (Gmina),,33-112,,49.9705079,20.9906953,False,,,,,,,,,,,,,,,,,,,,,,,,,,,,,,,,,,,,,,,,,,,,,,,,,,,,,,,,,,,,,,,,,,,,,,,,,,,,,,,,30210
211,Ośrodek Zdrowia,Józefa Piłsudskiego 17,Gorzyce,,39-432,,50.6628807,21.839854,False,,,,,,,,,,,,,,,,,,,,,,,,,,,,,,,,,,,,,,,,,,,,,,,,,,,,,,,,,,,,,,,,,,,,,,,,,,,,,,,,30211
212,Ośrodek Zdrowia,Główna 29,Tarnów (Gmina),,33-111,,49.9690734,20.9469114,False,,,,,,,,,,,,,,,,,,,,,,,,,,,,,,,,,,,,,,,,,,,,,,,,,,,,,,,,,,,,,,,,,,,,,,,,,,,,,,,,30212
213,Ośrodek Zdrowia,,Długosiodło,,07-210,,52.7614387,21.5903152,False,,,,,,,,,,,,,,,,,,,,,,,,,,,,,,,,,,,,,,,,,,,,,,,,,,,,,,,,,,,,,,,,,,,,,,,,,,,,,,,,30213
214,Ośrodek Zdrowia,nan 795,Boguchwała,,36-047,,49.9963735,21.8741571,False,,,,,,,,,,,,,,,,,,,,,,,,,,,,,,,,,,,,,,,,,,,,,,,,,,,,,,,,,,,,,,,,,,,,,,,,,,,,,,,,30214
215,Ośrodek Zdrowia,Mossego 23,Grodzisk Wielkopolski,,62-065,,52.2279694,16.3696575,False,,,,,,,,,,,,,,,,,,,,,,,,,,,,,,,,,,,,,,,,,,,,,,,,,,,,,,,,,,,,,,,,,,,,,,,,,,,,,,,,30215
216,Ośrodek Zdrowia,Ludowa nan,Krynica-Zdrój,,33-380,,49.3970575,20.9543762,False,,,,,,,,,,,,,,,,,,,,,,,,,,,,,,,,,,,,,,,,,,,,,,,,,,,,,,,,,,,,,,,,,,,,,,,,,,,,,,,,30216
217,Ośrodek Zdrowia,Radzyńska 4,Łasin,,86-320,,53.5174671,19.0812354,False,,,,,,,,,,,,,,,,,,,,,,,,,,,,,,,,,,,,,,,,,,,,,,,,,,,,,,,,,,,,,,,,,,,,,,,,,,,,,,,,30217
218,Ośrodek Zdrowia,Garwolińska 9,Borowie,,08-412,+48 25 685 90 29,51.9489385,21.7687628,False,,,,,,,,,,,,,,,,,,,,,,,,,,,,,,,,,,,,,,,,,,,,,,,,,,,,,,,,,,,,,,,,,,,,,,,,,,,,,,,,30218
219,"Ośrodek Zdrowia ""Domestica""",Szkolna 5,Czastary,,98-410,,51.2590559,18.3236492,False,,,,,,,,,,,,,,,,,,,,,,,,,,,,,,,,,,,,,,,,,,,,,,,,,,,,,,,,,,,,,,,,,,,,,,,,,,,,,,,,30219
220,Ośrodek Zdrowia w Bukowej,,Krasocin,,28-366,,50.8637729,20.202921,False,,,,,,,,,,,,,,,,,,,,,,,,,,,,,,,,,,,,,,,,,,,,,,,,,,,,,,,,,,,,,,,,,,,,,,,,,,,,,,,,30220
221,Ośrodek Zdrowia w Krzyżanowicach,Wyzwolenia 1A,Krzyżanowice,,47-450,+4832 419 40 22,49.9821412,18.2692767,False,,,,,,,,,,,,,,,,,,,,,,,,,,,,,,,,,,,,,,,,,,,,,,,,,,,,,,,,,,,,,,,,,,,,,,,,,,,,,,,,30221
222,Ośrodek Zdrowia w Przysietnicy,nan 858,Brzozów,,36-200,,49.7191169,22.0466012,False,,,,,,,,,,,,,,,,,,,,,,,,,,,,,,,,,,,,,,,,,,,,,,,,,,,,,,,,,,,,,,,,,,,,,,,,,,,,,,,,30222
223,Ośrodek Zdrowia w Rutce-Tartak,Leśna 1,Rutka-Tartak,,16-406,,54.3214913,22.9709955,False,,,,,,,,,,,,,,,,,,,,,,,,,,,,,,,,,,,,,,,,,,,,,,,,,,,,,,,,,,,,,,,,,,,,,,,,,,,,,,,,30223
224,Ośrodek Zdrowia w Tuczępach,nan 15,Tuczępy,,28-142,,50.5162447,20.9922258,False,,,,,,,,,,,,,,,,,,,,,,,,,,,,,,,,,,,,,,,,,,,,,,,,,,,,,,,,,,,,,,,,,,,,,,,,,,,,,,,,30224
225,Ośrodek zdrowia,,Stary Sącz,,33-340,,49.5624136,20.6314663,False,,,,,,,,,,,,,,,,,,,,,,,,,,,,,,,,,,,,,,,,,,,,,,,,,,,,,,,,,,,,,,,,,,,,,,,,,,,,,,,,30225
226,Ośrodek zdrowia,,Łańcut (Gmina),,37-122,,50.0138249,22.2299912,False,,,,,,,,,,,,,,,,,,,,,,,,,,,,,,,,,,,,,,,,,,,,,,,,,,,,,,,,,,,,,,,,,,,,,,,,,,,,,,,,30226
227,Pabian-Med,Jana Kilińskiego 10/12,Pabianice,,95-200,,51.6603221,19.3548004,False,,,,,,,,,,,,,,,,,,,,,,,,,,,,,,,,,,,,,,,,,,,,,,,,,,,,,,,,,,,,,,,,,,,,,,,,,,,,,,,,30227
228,Pabianickie Centrum Psychiatryczne,Wiejska 60,Pabianice,,95-200,,51.6503986,19.3302534,False,,,,,,,,,,,,,,,,,,,,,,,,,,,,,,,,,,,,,,,,,,,,,,,,,,,,,,,,,,,,,,,,,,,,,,,,,,,,,,,,30228
229,Pałuckie Centrum Zdrowia SZPITAL,Szpitalna 30,Żnin,,88-400,,52.8471996,17.7179887,False,,,,,,,,,,,,,,,,,,,,,,,,,,,,,,,,,,,,,,,,,,,,,,,,,,,,,,,,,,,,,,,,,,,,,,,,,,,,,,,,30229
230,Piekarskie Centrum Medyczne,Szpitalna 11,Piekary Śląskie,,41-940,,50.3745234,18.9524166,False,,,,,,,,,,,,,,,,,,,,,,,,,,,,,,,,,,,,,,,,,,,,,,,,,,,,,,,,,,,,,,,,,,,,,,,,,,,,,,,,30230
231,Pleszewskie Centrum Medyczne,,Pleszew,,63-300,+48627420900,51.8986911,17.7643519,False,,,,,,,,,,,,,,,,,,,,,,,,,,,,,,,,,,,,,,,,,,,,,,,,,,,,,,,,,,,,,,,,,,,,,,,,,,,,,,,,30231
232,Podhalański Szpital Specjalistyczny im. Jana Pawła II w Nowym Targu,,Nowy Targ,,34-400,,49.4875435,20.0306161,False,,,,,,,,,,,,,,,,,,,,,,,,,,,,,,,,,,,,,,,,,,,,,,,,,,,,,,,,,,,,,,,,,,,,,,,,,,,,,,,,30232
233,Pogotowie,,Pokrzywnica,,06-121,,52.6201304,21.0213049,False,,,,,,,,,,,,,,,,,,,,,,,,,,,,,,,,,,,,,,,,,,,,,,,,,,,,,,,,,,,,,,,,,,,,,,,,,,,,,,,,30233
234,Pogotowie Ratunkowe,,Wołów,,56-100,,51.3404151,16.6405346,False,,,,,,,,,,,,,,,,,,,,,,,,,,,,,,,,,,,,,,,,,,,,,,,,,,,,,,,,,,,,,,,,,,,,,,,,,,,,,,,,30234
235,Pogotowie Ratunkowe,,Rzeszów,,35-074,,50.0343853,21.9970674,False,,,,,,,,,,,,,,,,,,,,,,,,,,,,,,,,,,,,,,,,,,,,,,,,,,,,,,,,,,,,,,,,,,,,,,,,,,,,,,,,30235
236,Pogotowie Ratunkowe w Łomży,Szosa Zambrowska 1,Łomża,,18-400,,53.1732612,22.0814395,False,,,,,,,,,,,,,,,,,,,,,,,,,,,,,,,,,,,,,,,,,,,,,,,,,,,,,,,,,,,,,,,,,,,,,,,,,,,,,,,,30236
237,Pogotowie Ratunkowe w Łomży,Wąska 8,Łomża,,18-400,,53.173083,22.081521,False,,,,,,,,,,,,,,,,,,,,,,,,,,,,,,,,,,,,,,,,,,,,,,,,,,,,,,,,,,,,,,,,,,,,,,,,,,,,,,,,30237
238,Pogotowie ratunkowe,,Pszczyna,,43-200,,49.9712971,18.935651,False,,,,,,,,,,,,,,,,,,,,,,,,,,,,,,,,,,,,,,,,,,,,,,,,,,,,,,,,,,,,,,,,,,,,,,,,,,,,,,,,30238
239,"Poliklinika MSW, Zespół Lecznictwa Psychiatrycznego",,Olsztyn,,10-118,,53.7956023,20.4831587,False,,,,,,,,,,,,,,,,,,,,,,,,,,,,,,,,,,,,,,,,,,,,,,,,,,,,,,,,,,,,,,,,,,,,,,,,,,,,,,,,30239
240,Poliklinika MSWiA,,Lublin,Lublin,20-115,+48 81 5285595,51.2497286,22.5548295,False,,,,,,,,,,,,,,,,,,,,,,,,,,,,,,,,,,,,,,,,,,,,,,,,,,,,,,,,,,,,,,,,,,,,,,,,,,,,,,,,30240
241,Polmedic - Centrum Medyczne,,Radom,,26-610,,51.3812803,21.1621522,False,,,,,,,,,,,,,,,,,,,,,,,,,,,,,,,,,,,,,,,,,,,,,,,,,,,,,,,,,,,,,,,,,,,,,,,,,,,,,,,,30241
242,Pomorskie Centrum Chorób Zakaźnych i Gruźlicy,,Gdańsk,,80-208,,54.3629107,18.6153392,False,,,,,,,,,,,,,,,,,,,,,,,,,,,,,,,,,,,,,,,,,,,,,,,,,,,,,,,,,,,,,,,,,,,,,,,,,,,,,,,,30242
243,Pomorskie Centrum Rehabilitacji - Szpital w Dzierżążnie,Szpitalna nan,Kartuzy,,83-332,,54.3297463,18.2610104,False,,,,,,,,,,,,,,,,,,,,,,,,,,,,,,,,,,,,,,,,,,,,,,,,,,,,,,,,,,,,,,,,,,,,,,,,,,,,,,,,30243
244,"Poradnia ""Salus""",Tadeusza Kościuszki 9,Jawor,,59-400,,51.0477615,16.1959494,False,,,,,,,,,,,,,,,,,,,,,,,,,,,,,,,,,,,,,,,,,,,,,,,,,,,,,,,,,,,,,,,,,,,,,,,,,,,,,,,,30244
245,Poradnia rehabilitacyjna,,Tomaszów Mazowiecki,,97-200,,51.5287901,20.0230104,False,,,,,,,,,,,,,,,,,,,,,,,,,,,,,,,,,,,,,,,,,,,,,,,,,,,,,,,,,,,,,,,,,,,,,,,,,,,,,,,,30245
246,Powiatowe Centrum Matki i Dziecka,Franklina Roosevelta 3,Piotrków Trybunalski,,97-300,,51.4008518,19.6909399,False,,,,,,,,,,,,,,,,,,,,,,,,,,,,,,,,,,,,,,,,,,,,,,,,,,,,,,,,,,,,,,,,,,,,,,,,,,,,,,,,30246
247,Powiatowe Centrum Zdrowia,Aleja Armii Krajowej 105/106,Malbork,,82-200,,54.0315709,19.0222245,False,,,,,,,,,,,,,,,,,,,,,,,,,,,,,,,,,,,,,,,,,,,,,,,,,,,,,,,,,,,,,,,,,,,,,,,,,,,,,,,,30247
248,Powiatowe Centrum Zdrowia,Gustawa Morcinka nan,Lwówek Śląski,,59-600,,51.111921,15.5863659,False,,,,,,,,,,,,,,,,,,,,,,,,,,,,,,,,,,,,,,,,,,,,,,,,,,,,,,,,,,,,,,,,,,,,,,,,,,,,,,,,30248
249,Powiatowe Centrum Zdrowia S.A.,,Kluczbork,,46-200,,50.9664533,18.2163277,False,,,,,,,,,,,,,,,,,,,,,,,,,,,,,,,,,,,,,,,,,,,,,,,,,,,,,,,,,,,,,,,,,,,,,,,,,,,,,,,,30249
250,Powiatowy Szpital Pomocy Maltańskiej,Niepodległości 9,Barczewo,,11-010,,53.8293093,20.6952972,False,,,,,,,,,,,,,,,,,,,,,,,,,,,,,,,,,,,,,,,,,,,,,,,,,,,,,,,,,,,,,,,,,,,,,,,,,,,,,,,,30250
251,Powiatowy Szpital w Aleksnadrowie Kujawskim,Juliusza Słowackiego 18,,,,,52.8742131,18.6968919,False,,,,,,,,,,,,,,,,,,,,,,,,,,,,,,,,,,,,,,,,,,,,,,,,,,,,,,,,,,,,,,,,,,,,,,,,,,,,,,,,30251
252,Powiatowy Szpital w Iławie,,Iława,,14-200,,53.5852161,19.5646436,False,,,,,,,,,,,,,,,,,,,,,,,,,,,,,,,,,,,,,,,,,,,,,,,,,,,,,,,,,,,,,,,,,,,,,,,,,,,,,,,,30252
253,Powiatowy Zespół Opieki Zdrowotnej w Ostródzie S.A.,,Ostróda,,14-100,,53.6931711,19.9744278,False,,,,,,,,,,,,,,,,,,,,,,,,,,,,,,,,,,,,,,,,,,,,,,,,,,,,,,,,,,,,,,,,,,,,,,,,,,,,,,,,30253
254,Powiatowy Zespół Szpitali im. Józefa Dietla,,Oleśnica,,56-400,,51.2091144,17.3901236,False,,,,,,,,,,,,,,,,,,,,,,,,,,,,,,,,,,,,,,,,,,,,,,,,,,,,,,,,,,,,,,,,,,,,,,,,,,,,,,,,30254
255,Powiatowy Zespół Zakładów Opieki Zdrowotnej,,Będzin,,42-500,,50.324926,19.1313763,False,,,,,,,,,,,,,,,,,,,,,,,,,,,,,,,,,,,,,,,,,,,,,,,,,,,,,,,,,,,,,,,,,,,,,,,,,,,,,,,,30255
256,Powiatowy Zespół Zakładów Opieki Zdrowotnej w Będzinie - Szpital w Czeladzi,Szpitalna 40,Czeladź,,41-250,,50.3269768,19.0760773,False,,,,,,,,,,,,,,,,,,,,,,,,,,,,,,,,,,,,,,,,,,,,,,,,,,,,,,,,,,,,,,,,,,,,,,,,,,,,,,,,30256
257,Prosektorium,ulica Szpitalna 3,Miechów,,32-200,,50.3538186,20.0366755,False,,,,,,,,,,,,,,,,,,,,,,,,,,,,,,,,,,,,,,,,,,,,,,,,,,,,,,,,,,,,,,,,,,,,,,,,,,,,,,,,30257
258,Prywatna Klinika ADO MED 2,Stefana Batorego 19,Chorzów,,41-506,+48 32 247-00-29,50.2735559,18.9393923,False,,,,,,,,,,,,,,,,,,,,,,,,,,,,,,,,,,,,,,,,,,,,,,,,,,,,,,,,,,,,,,,,,,,,,,,,,,,,,,,,30258
259,Prywatna Klinika Chirurgii i Medycyny Estetycznej,,Chełm,,22-100,,51.1355439,23.4691694,False,,,,,,,,,,,,,,,,,,,,,,,,,,,,,,,,,,,,,,,,,,,,,,,,,,,,,,,,,,,,,,,,,,,,,,,,,,,,,,,,30259
260,Prywatny Szpital Położniczo Ginekologiczny,Łubinowa 3,Katowice,,40-022,+48 32 2025521,50.2058505,18.9898269,False,,,,,,,,,,,,,,,,,,,,,,,,,,,,,,,,,,,,,,,,,,,,,,,,,,,,,,,,,,,,,,,,,,,,,,,,,,,,,,,,30260
261,Przychodnia,Kardynała Stefana Wyszyńskiego 26,,,,,53.9473922,17.7041539,False,,,,,,,,,,,,,,,,,,,,,,,,,,,,,,,,,,,,,,,,,,,,,,,,,,,,,,,,,,,,,,,,,,,,,,,,,,,,,,,,30261
262,Przychodnia,,Rybno,,13-220,,53.3830561,19.9264158,False,,,,,,,,,,,,,,,,,,,,,,,,,,,,,,,,,,,,,,,,,,,,,,,,,,,,,,,,,,,,,,,,,,,,,,,,,,,,,,,,30262
263,Przychodnia,Tadeusza Kościuszki 2,Ostróda,,14-100,,53.696774,19.9635316,False,,,,,,,,,,,,,,,,,,,,,,,,,,,,,,,,,,,,,,,,,,,,,,,,,,,,,,,,,,,,,,,,,,,,,,,,,,,,,,,,30263
264,"Przychodnia ""Centrum""",Koźmińska 9,Warta,,98-290,,51.7106244,18.6194006,False,,,,,,,,,,,,,,,,,,,,,,,,,,,,,,,,,,,,,,,,,,,,,,,,,,,,,,,,,,,,,,,,,,,,,,,,,,,,,,,,30264
265,"Przychodnia ""Medyk""",Popioły 1,Warta,,98-290,,51.7045636,18.6211807,False,,,,,,,,,,,,,,,,,,,,,,,,,,,,,,,,,,,,,,,,,,,,,,,,,,,,,,,,,,,,,,,,,,,,,,,,,,,,,,,,30265
266,Przychodnia Lekarska,Gimnazjalna 6,Odolanów,,63-430,,51.5783718,17.6597261,False,,,,,,,,,,,,,,,,,,,,,,,,,,,,,,,,,,,,,,,,,,,,,,,,,,,,,,,,,,,,,,,,,,,,,,,,,,,,,,,,30266
267,Przychodnia NFZ,,,,,,52.6335118,21.852631,False,,,,,,,,,,,,,,,,,,,,,,,,,,,,,,,,,,,,,,,,,,,,,,,,,,,,,,,,,,,,,,,,,,,,,,,,,,,,,,,,30267
268,Przychodnia NZOZ PRIMUS,Szkolna 12,Siewierz,,42-470,,50.499236,19.1944151,False,,,,,,,,,,,,,,,,,,,,,,,,,,,,,,,,,,,,,,,,,,,,,,,,,,,,,,,,,,,,,,,,,,,,,,,,,,,,,,,,30268
269,Przychodnia Pod Klasztorem,Plac Mariacki 7,Leżajsk,,37-300,,50.2697608,22.4064781,False,,,,,,,,,,,,,,,,,,,,,,,,,,,,,,,,,,,,,,,,,,,,,,,,,,,,,,,,,,,,,,,,,,,,,,,,,,,,,,,,30269
270,Przychodnia Przyszpitalna,Prezydenta Stefana Artwińskiego 1,Kielce,,25-525,,50.8711846,20.6032438,False,,,,,,,,,,,,,,,,,,,,,,,,,,,,,,,,,,,,,,,,,,,,,,,,,,,,,,,,,,,,,,,,,,,,,,,,,,,,,,,,30270
271,Przychodnia Rejonowa,Mieczysława Niedziałkowskiego 15,Zawiercie,,42-400,,50.4900575,19.4284561,False,,,,,,,,,,,,,,,,,,,,,,,,,,,,,,,,,,,,,,,,,,,,,,,,,,,,,,,,,,,,,,,,,,,,,,,,,,,,,,,,30271
272,Przychodnia Rejonowa,,Goniądz,,19-110,,53.4865369,22.7344213,False,,,,,,,,,,,,,,,,,,,,,,,,,,,,,,,,,,,,,,,,,,,,,,,,,,,,,,,,,,,,,,,,,,,,,,,,,,,,,,,,30272
273,Przychodnia Rejonowa Nr 1,Ludwika Waryńskiego 27,Suwałki,,16-400,,54.0996418,22.938013,False,,,,,,,,,,,,,,,,,,,,,,,,,,,,,,,,,,,,,,,,,,,,,,,,,,,,,,,,,,,,,,,,,,,,,,,,,,,,,,,,30273
274,Przychodnia Rejonowa nr 1,Konstantego Ildefonsa Gałczyńskiego 1,Zawiercie,,42-400,,50.4934977,19.4380805,False,,,,,,,,,,,,,,,,,,,,,,,,,,,,,,,,,,,,,,,,,,,,,,,,,,,,,,,,,,,,,,,,,,,,,,,,,,,,,,,,30274
275,Przychodnia Rejonowa nr 4 ZLA,Borowa 33a,Zawiercie,,42-400,326714131,50.5104758,19.4030924,False,,,,,,,,,,,,,,,,,,,,,,,,,,,,,,,,,,,,,,,,,,,,,,,,,,,,,,,,,,,,,,,,,,,,,,,,,,,,,,,,30275
276,Przychodnia Rejonowa nr 7,,Kielce,,25-525,,50.8527842,20.6184991,False,,,,,,,,,,,,,,,,,,,,,,,,,,,,,,,,,,,,,,,,,,,,,,,,,,,,,,,,,,,,,,,,,,,,,,,,,,,,,,,,30276
277,Przychodnia Rejonowo-Specjalistyczna nr 5,Marszałka Józefa Piłsudskiego 80,Zawiercie,,42-400,,50.4911993,19.4476747,False,,,,,,,,,,,,,,,,,,,,,,,,,,,,,,,,,,,,,,,,,,,,,,,,,,,,,,,,,,,,,,,,,,,,,,,,,,,,,,,,30277
278,Przychodnia Zdrowia,Szkolna 7,,,,,50.6977531,22.9812793,False,,,,,,,,,,,,,,,,,,,,,,,,,,,,,,,,,,,,,,,,,,,,,,,,,,,,,,,,,,,,,,,,,,,,,,,,,,,,,,,,30278
279,Przychodnia lekarska,,Kalety,,42-660,,50.5629244,18.8819378,False,,,,,,,,,,,,,,,,,,,,,,,,,,,,,,,,,,,,,,,,,,,,,,,,,,,,,,,,,,,,,,,,,,,,,,,,,,,,,,,,30279
280,Przychodnia rejonowa,Stanisława Staszica 4,Szydłowiec,,26-500,48 617 12 95,51.2271051,20.868591,False,,,,,,,,,,,,,,,,,,,,,,,,,,,,,,,,,,,,,,,,,,,,,,,,,,,,,,,,,,,,,,,,,,,,,,,,,,,,,,,,30280
281,Przychodnia specjalistyczna,Powstańców Śląskich 8,Zawiercie,,42-400,326723445,50.4851136,19.424907,False,,,,,,,,,,,,,,,,,,,,,,,,,,,,,,,,,,,,,,,,,,,,,,,,,,,,,,,,,,,,,,,,,,,,,,,,,,,,,,,,30281
282,Przychodnia w Jeziorsku,nan 21,Warta,,98-290,,51.7941248,18.6477569,False,,,,,,,,,,,,,,,,,,,,,,,,,,,,,,,,,,,,,,,,,,,,,,,,,,,,,,,,,,,,,,,,,,,,,,,,,,,,,,,,30282
283,Pszczyńskie Centrum Okulistyczne,,Pszczyna,,43-200,,49.9696987,18.9440948,False,,,,,,,,,,,,,,,,,,,,,,,,,,,,,,,,,,,,,,,,,,,,,,,,,,,,,,,,,,,,,,,,,,,,,,,,,,,,,,,,30283
284,Radomski Szpital Specjalistyczny im. dr. Tytusa Chałubińskiego,,Radom,,26-610,,51.4008774,21.1448902,False,,,,,,,,,,,,,,,,,,,,,,,,,,,,,,,,,,,,,,,,,,,,,,,,,,,,,,,,,,,,,,,,,,,,,,,,,,,,,,,,30284
285,Radomski Szpital Specjalistyczny im. dr. Tytusa Chałubińskiego,,Radom,,26-610,+48 48 361 51 00,51.3980734,21.1481098,False,,,,,,,,,,,,,,,,,,,,,,,,,,,,,,,,,,,,,,,,,,,,,,,,,,,,,,,,,,,,,,,,,,,,,,,,,,,,,,,,30285
286,Radomskie Centrum Onkologii im. Bohaterów Radomskiego Czerwca '76,,Radom,,26-610,,51.4128033,21.1122309,False,,,,,,,,,,,,,,,,,,,,,,,,,,,,,,,,,,,,,,,,,,,,,,,,,,,,,,,,,,,,,,,,,,,,,,,,,,,,,,,,30286
287,Regionalne Centrum Krwiodawstwa i Krwiolecznictwa,Franciszkańska 17/25,Łódź,,90-318,,51.7823883,19.4611172,False,,,,,,,,,,,,,,,,,,,,,,,,,,,,,,,,,,,,,,,,,,,,,,,,,,,,,,,,,,,,,,,,,,,,,,,,,,,,,,,,30287
288,Regionalne Centrum Onkologii - Zakład Teleradioterapii,Łęgska 55,Włocławek,,87-800,,52.6578606,19.0747086,False,,,,,,,,,,,,,,,,,,,,,,,,,,,,,,,,,,,,,,,,,,,,,,,,,,,,,,,,,,,,,,,,,,,,,,,,,,,,,,,,30288
289,Regionalne Centrum Zdrowia,,Lubin,,59-300,,51.402188,16.1965219,False,,,,,,,,,,,,,,,,,,,,,,,,,,,,,,,,,,,,,,,,,,,,,,,,,,,,,,,,,,,,,,,,,,,,,,,,,,,,,,,,30289
290,Regionalny Szpital w Kołobrzegu,Podporucznika Edmunda Łopuskiego 31-33,Kołobrzeg,,78-100,+48 943530200,54.1738361,15.5660185,False,,,,,,,,,,,,,,,,,,,,,,,,,,,,,,,,,,,,,,,,,,,,,,,,,,,,,,,,,,,,,,,,,,,,,,,,,,,,,,,,30290
291,Regionalny szpital specjalistyczny im. doktora Władysława Biegańskiego,Doktora Ludwika Rydygiera 15-17,Grudziądz,,86-300,,53.4538157,18.7838686,False,,,,,,,,,,,,,,,,,,,,,,,,,,,,,,,,,,,,,,,,,,,,,,,,,,,,,,,,,,,,,,,,,,,,,,,,,,,,,,,,30291
292,SOR,,Biała Podlaska,,21-500,,52.0465301,23.1106975,False,,,,,,,,,,,,,,,,,,,,,,,,,,,,,,,,,,,,,,,,,,,,,,,,,,,,,,,,,,,,,,,,,,,,,,,,,,,,,,,,30292
293,SP SP ZOZ Oddział Psychiatryczny,,Słupsk,,76-200,,54.4729724,17.0252592,False,,,,,,,,,,,,,,,,,,,,,,,,,,,,,,,,,,,,,,,,,,,,,,,,,,,,,,,,,,,,,,,,,,,,,,,,,,,,,,,,30293
294,"SP ZOZ ""Szpital Powiatowy"" w Bochni im Bł. Marty Wieckiej",Krakowska 31,Bochnia,,32-700,+48 14 615 3 400,49.9668561,20.4215027,False,,,,,,,,,,,,,,,,,,,,,,,,,,,,,,,,,,,,,,,,,,,,,,,,,,,,,,,,,,,,,,,,,,,,,,,,,,,,,,,,30294
295,"SP ZOZ ""Szpital Powiatowy"" w Bochni im Bł. Marty Wieckiej",Krakowska 31,Bochnia,,32-700,+48 14 615 3 400,49.9668561,20.4215027,False,,,,,,,,,,,,,,,,,,,,,,,,,,,,,,,,,,,,,,,,,,,,,,,,,,,,,,,,,,,,,,,,,,,,,,,,,,,,,,,,30295
296,SP ZOZ Miejski Szpital Zespolony im. dr Tytusa Chałubińskiego,Królowej Bony 1/3,Częstochowa,,42-226,,50.8078149,19.0950308,False,,,,,,,,,,,,,,,,,,,,,,,,,,,,,,,,,,,,,,,,,,,,,,,,,,,,,,,,,,,,,,,,,,,,,,,,,,,,,,,,30296
297,SP ZOZ Szpital Specjalistyczny MSWiA w Głuchołazach im. św. Jana Pawła II,Mieczysława Karłowicza nan,Głuchołazy,,48-340,+48 77 40 80 123; +48 77 40 80 155; +48 77 40 80 168; +48 77 40 80 169,50.3046345,17.3869939,False,,,,,,,,,,,,,,,,,,,,,,,,,,,,,,,,,,,,,,,,,,,,,,,,,,,,,,,,,,,,,,,,,,,,,,,,,,,,,,,,30297
298,SP ZOZ Szpital im. Andrzeja Wolańczyka,Hoża 11,Złotoryja,,59-500,,51.1164812,15.9104055,False,,,,,,,,,,,,,,,,,,,,,,,,,,,,,,,,,,,,,,,,,,,,,,,,,,,,,,,,,,,,,,,,,,,,,,,,,,,,,,,,30298
299,SP ZOZ Wojewódzka Stacja Pogotowia Ratunkowego w Łapach,Cmentarna 28,Łapy,,18-100,85 715 23 69,52.9864466,22.8874341,False,,,,,,,,,,,,,,,,,,,,,,,,,,,,,,,,,,,,,,,,,,,,,,,,,,,,,,,,,,,,,,,,,,,,,,,,,,,,,,,,30299
300,SP ZOZ w Wolsztynie,,Wolsztyn,,64-200,,52.1173855,16.1179053,False,,,,,,,,,,,,,,,,,,,,,,,,,,,,,,,,,,,,,,,,,,,,,,,,,,,,,,,,,,,,,,,,,,,,,,,,,,,,,,,,30300
301,SPZOZ Państwowy Szpital dla Nerwowo i Psychicznie Chorych,,Rybnik,,44-200,,50.1047425,18.5469764,False,,,,,,,,,,,,,,,,,,,,,,,,,,,,,,,,,,,,,,,,,,,,,,,,,,,,,,,,,,,,,,,,,,,,,,,,,,,,,,,,30301
302,SPZOZ Szpital Specjalistyczny,,Puławy,,24-100,,51.420449,21.9724068,False,,,,,,,,,,,,,,,,,,,,,,,,,,,,,,,,,,,,,,,,,,,,,,,,,,,,,,,,,,,,,,,,,,,,,,,,,,,,,,,,30302
303,SPZOZ Szpital im. dr. Z. Patryna,,Wieluń,,98-300,+48 43 84-06-700,51.2142758,18.5649571,False,,,,,,,,,,,,,,,,,,,,,,,,,,,,,,,,,,,,,,,,,,,,,,,,,,,,,,,,,,,,,,,,,,,,,,,,,,,,,,,,30303
304,"SPZOZ w Kępnie, Oddział Leczniczo-Rehabilitacyjny",nan 97,Baranów,,63-604,,51.2454292,17.9716837,False,,,,,,,,,,,,,,,,,,,,,,,,,,,,,,,,,,,,,,,,,,,,,,,,,,,,,,,,,,,,,,,,,,,,,,,,,,,,,,,,30304
305,SPZZOZ Wyszków,Komisji Edukacji Narodowej nan,Wyszków,,07-200,,52.5858871,21.4421565,False,,,,,,,,,,,,,,,,,,,,,,,,,,,,,,,,,,,,,,,,,,,,,,,,,,,,,,,,,,,,,,,,,,,,,,,,,,,,,,,,30305
306,SZPITAL SPECJALISTA Sp. z o.o.,29 Listopada 37,Kutno,,99-300,,52.2349356,19.3503165,False,,,,,,,,,,,,,,,,,,,,,,,,,,,,,,,,,,,,,,,,,,,,,,,,,,,,,,,,,,,,,,,,,,,,,,,,,,,,,,,,30306
307,SZPZOZ im. Dzieci Warszawy,,Łomianki,,05-092,,52.3391835,20.8466111,False,,,,,,,,,,,,,,,,,,,,,,,,,,,,,,,,,,,,,,,,,,,,,,,,,,,,,,,,,,,,,,,,,,,,,,,,,,,,,,,,30307
308,Samodzielne Publiczne Sanatorium Rehabilitacyjne im. Janusza Korczaka,Sanatoryjna 1,,,,,50.5496739,23.1982075,False,,,,,,,,,,,,,,,,,,,,,,,,,,,,,,,,,,,,,,,,,,,,,,,,,,,,,,,,,,,,,,,,,,,,,,,,,,,,,,,,30308
309,Samodzielnego Publicznego Zakładu Opieki Zdrowotnej Nr 1 w Bełżycach,Lubelska 90,Bełżyce,,24-200,,51.1771078,22.2930923,False,,,,,,,,,,,,,,,,,,,,,,,,,,,,,,,,,,,,,,,,,,,,,,,,,,,,,,,,,,,,,,,,,,,,,,,,,,,,,,,,30309
310,Samodzielny Gminny Ośrodek Zdrowia,Nadstawie 28,Oleśnica,,28-220,,50.4521589,21.0603546,False,,,,,,,,,,,,,,,,,,,,,,,,,,,,,,,,,,,,,,,,,,,,,,,,,,,,,,,,,,,,,,,,,,,,,,,,,,,,,,,,30310
311,Samodzielny Ośrodek Rehabilitacyjno-Oświatowy dla Dzieci Niepełnosprawnych,,Katowice,,40-022,,50.2839681,18.9709738,False,,,,,,,,,,,,,,,,,,,,,,,,,,,,,,,,,,,,,,,,,,,,,,,,,,,,,,,,,,,,,,,,,,,,,,,,,,,,,,,,30311
312,Samodzielny Publiczny Centralny Szpital Kliniczny,Stefana Banacha 1a,Warszawa,,02-106,,52.2102165,20.9833578,False,,,,,,,,,,,,,,,,,,,,,,,,,,,,,,,,,,,,,,,,,,,,,,,,,,,,,,,,,,,,,,,,,,,,,,,,,,,,,,,,30312
313,Samodzielny Publiczny Centralny Szpital Kliniczny im. prof. Kornela Gibińskiego,Medyków 14,Katowice,,40-752,+ 48 32 7894000,50.2238808,18.952676,False,,,,,,,,,,,,,,,,,,,,,,,,,,,,,,,,,,,,,,,,,,,,,,,,,,,,,,,,,,,,,,,,,,,,,,,,,,,,,,,,30313
314,Samodzielny Publiczny Gminny Ośrodek Zdrowia,Szkolna 26,Puńsk,,16-515,,54.2486944,23.1863287,False,,,,,,,,,,,,,,,,,,,,,,,,,,,,,,,,,,,,,,,,,,,,,,,,,,,,,,,,,,,,,,,,,,,,,,,,,,,,,,,,30314
315,Samodzielny Publiczny Kliniczny Szpital Okulistyczny,Józefa Sierakowskiego 13,Warszawa,,03-701,22 511 62 00,52.2512824,21.029883,False,,,,,,,,,,,,,,,,,,,,,,,,,,,,,,,,,,,,,,,,,,,,,,,,,,,,,,,,,,,,,,,,,,,,,,,,,,,,,,,,30315
316,Samodzielny Publiczny Psychiatryczny Zakład Opiekuńczo-Leczniczy w Celejowie,nan 68,Wąwolnica,,24-160,+48 81 881 02 11,51.3299041,22.0695156,False,,,,,,,,,,,,,,,,,,,,,,,,,,,,,,,,,,,,,,,,,,,,,,,,,,,,,,,,,,,,,,,,,,,,,,,,,,,,,,,,30316
317,Samodzielny Publiczny Specjalistyczny  Zakład Opieki Zdrowotnej “ZDROJE”,,Szczecin,,70-560,,53.4282456,14.5485841,False,,,,,,,,,,,,,,,,,,,,,,,,,,,,,,,,,,,,,,,,,,,,,,,,,,,,,,,,,,,,,,,,,,,,,,,,,,,,,,,,30317
318,Samodzielny Publiczny Specjalistyczny Szpital Zachodni imienia Jana Pawła II,Daleka 11,Grodzisk Mazowiecki,,05-825,,52.0942318,20.6171621,False,,,,,,,,,,,,,,,,,,,,,,,,,,,,,,,,,,,,,,,,,,,,,,,,,,,,,,,,,,,,,,,,,,,,,,,,,,,,,,,,30318
319,Samodzielny Publiczny Specjalistyczny Zakład Opieki Zdrowotnej w Białobrzegach,Spacerowa 10,Białobrzegi,,26-800,,51.6467501,20.9629098,False,,,,,,,,,,,,,,,,,,,,,,,,,,,,,,,,,,,,,,,,,,,,,,,,,,,,,,,,,,,,,,,,,,,,,,,,,,,,,,,,30319
320,Samodzielny Publiczny Specjalistyczny Zakład Opieki Zdrowotnej w Lęborku,Juliana Węgrzynowicza 13,Lębork,,84-300,+48 59 863 52 83,54.5387619,17.7531523,False,,,,,,,,,,,,,,,,,,,,,,,,,,,,,,,,,,,,,,,,,,,,,,,,,,,,,,,,,,,,,,,,,,,,,,,,,,,,,,,,30320
321,Samodzielny Publiczny Specjalistyczny Zakład Opieki Zdrowotnej “Zdroje”,Mączna nan,Szczecin,,70-560,,53.3699484,14.6446647,False,,,,,,,,,,,,,,,,,,,,,,,,,,,,,,,,,,,,,,,,,,,,,,,,,,,,,,,,,,,,,,,,,,,,,,,,,,,,,,,,30321
322,Samodzielny Publiczny Szpital Kliniczny Nr 1,,Wrocław,,50-381,,51.1096818,17.0659648,False,,,,,,,,,,,,,,,,,,,,,,,,,,,,,,,,,,,,,,,,,,,,,,,,,,,,,,,,,,,,,,,,,,,,,,,,,,,,,,,,30322
323,Samodzielny Publiczny Szpital Kliniczny Nr 4 w Lublinie,,Lublin,Lublin,20-115,,51.2573959,22.5630442,False,,,,,,,,,,,,,,,,,,,,,,,,,,,,,,,,,,,,,,,,,,,,,,,,,,,,,,,,,,,,,,,,,,,,,,,,,,,,,,,,30323
324,Samodzielny Publiczny Szpital Kliniczny im. Andrzeja Mielęckiego Śląskiego Uniwersytetu Medycznego,Francuska 20-24,Katowice,,40-022,+48 32 259-12-00,50.2534912,19.0300849,False,,,,,,,,,,,,,,,,,,,,,,,,,,,,,,,,,,,,,,,,,,,,,,,,,,,,,,,,,,,,,,,,,,,,,,,,,,,,,,,,30324
325,Samodzielny Publiczny Szpital Kliniczny im. Prof. Adama Grucy,Konarskiego 13,Otwock,,05-400,,52.1231919,21.2789552,False,,,,,,,,,,,,,,,,,,,,,,,,,,,,,,,,,,,,,,,,,,,,,,,,,,,,,,,,,,,,,,,,,,,,,,,,,,,,,,,,30325
326,Samodzielny Publiczny Szpital Kliniczny nr 1 Pomorskiego Uniwersytetu Medycznego,,Szczecin,,71-252,+48 91 425-3000,53.4470522,14.5038663,False,,,,,,,,,,,,,,,,,,,,,,,,,,,,,,,,,,,,,,,,,,,,,,,,,,,,,,,,,,,,,,,,,,,,,,,,,,,,,,,,30326
327,Samodzielny Publiczny Szpital Kliniczny nr 1 Pomorskiego Uniwersytetu Medycznego w Szczecinie,,Police,,72-009,+48 91 425 38 00,53.5464916,14.5605168,False,,,,,,,,,,,,,,,,,,,,,,,,,,,,,,,,,,,,,,,,,,,,,,,,,,,,,,,,,,,,,,,,,,,,,,,,,,,,,,,,30327
328,Samodzielny Publiczny Szpital Kliniczny nr 1 imienia Prof. Stanisława Szyszko Śląskiego Uniwersytetu Medycznego w Katowicach,,Zabrze,,41-800,,50.3022595,18.7833181,False,,,,,,,,,,,,,,,,,,,,,,,,,,,,,,,,,,,,,,,,,,,,,,,,,,,,,,,,,,,,,,,,,,,,,,,,,,,,,,,,30328
329,Samodzielny Publiczny Szpital Kliniczny nr 2 Pomorskiego Uniwersytetu Medycznego,,Szczecin,,70-560,,53.4093126,14.5326808,False,,,,,,,,,,,,,,,,,,,,,,,,,,,,,,,,,,,,,,,,,,,,,,,,,,,,,,,,,,,,,,,,,,,,,,,,,,,,,,,,30329
330,Samodzielny Publiczny Szpital Kliniczny nr 2 Śląskiego Uniwersytetu Medycznego,Marii Curie-Skłodowskiej 10,Zabrze,,41-800,,50.3142347,18.7799887,False,,,,,,,,,,,,,,,,,,,,,,,,,,,,,,,,,,,,,,,,,,,,,,,,,,,,,,,,,,,,,,,,,,,,,,,,,,,,,,,,30330
331,Samodzielny Publiczny Szpital Kliniczny nr 3 Śląskiego Uniwersytetu Medycznego,Księdza Karola Koziołka 1,Zabrze,,41-800,,50.3217493,18.8085059,False,,,,,,,,,,,,,,,,,,,,,,,,,,,,,,,,,,,,,,,,,,,,,,,,,,,,,,,,,,,,,,,,,,,,,,,,,,,,,,,,30331
332,Samodzielny Publiczny Szpital Rejonowy,Wojska Polskiego 7,Nowogard,,72-200,,53.6728563,15.1104861,False,,,,,,,,,,,,,,,,,,,,,,,,,,,,,,,,,,,,,,,,,,,,,,,,,,,,,,,,,,,,,,,,,,,,,,,,,,,,,,,,30332
333,Samodzielny Publiczny Szpital Wojewódzki im. Papieża Jana Pawła II,Aleje Jana Pawła II 10,Zamość,,22-400,,50.7121299,23.2872282,False,,,,,,,,,,,,,,,,,,,,,,,,,,,,,,,,,,,,,,,,,,,,,,,,,,,,,,,,,,,,,,,,,,,,,,,,,,,,,,,,30333
334,Samodzielny Publiczny Szpital dla Nerwowo i Psychicznie Chorych,,Międzyrzecz,,66-300,,52.4512583,15.6167411,False,,,,,,,,,,,,,,,,,,,,,,,,,,,,,,,,,,,,,,,,,,,,,,,,,,,,,,,,,,,,,,,,,,,,,,,,,,,,,,,,30334
335,Samodzielny Publiczny Szpital w Sulęcinie,Wincentego Witosa 4,Sulęcin,,69-200,,52.4370979,15.116881,False,,,,,,,,,,,,,,,,,,,,,,,,,,,,,,,,,,,,,,,,,,,,,,,,,,,,,,,,,,,,,,,,,,,,,,,,,,,,,,,,30335
336,Samodzielny Publiczny Wojewódzki Szpital Zespolony - Zdunowo,,Szczecin,,70-560,,53.3770738,14.7707011,False,,,,,,,,,,,,,,,,,,,,,,,,,,,,,,,,,,,,,,,,,,,,,,,,,,,,,,,,,,,,,,,,,,,,,,,,,,,,,,,,30336
337,Samodzielny Publiczny Wojewódzki Szpital Zespolony w Szczecinie,Arkońska nan,Szczecin,,70-560,+48 91 813 90 00; +48 91 813 90 10; +48 91 813 90 21,53.4525619,14.5250212,False,,,,,,,,,,,,,,,,,,,,,,,,,,,,,,,,,,,,,,,,,,,,,,,,,,,,,,,,,,,,,,,,,,,,,,,,,,,,,,,,30337
338,Samodzielny Publiczny Zakład Opieki Zdrowotnej,nan 12,Zakrzew,,26-652,,51.4394615,20.9970847,False,,,,,,,,,,,,,,,,,,,,,,,,,,,,,,,,,,,,,,,,,,,,,,,,,,,,,,,,,,,,,,,,,,,,,,,,,,,,,,,,30338
339,"Samodzielny Publiczny Zakład Opieki Zdrowotnej ""Szpital w Łowiczu""",,Łowicz,,99-400,,52.099051,19.9286569,False,,,,,,,,,,,,,,,,,,,,,,,,,,,,,,,,,,,,,,,,,,,,,,,,,,,,,,,,,,,,,,,,,,,,,,,,,,,,,,,,30339
340,Samodzielny Publiczny Zakład Opieki Zdrowotnej MSW,,Koszalin,,75-015,,54.1871181,16.186682,False,,,,,,,,,,,,,,,,,,,,,,,,,,,,,,,,,,,,,,,,,,,,,,,,,,,,,,,,,,,,,,,,,,,,,,,,,,,,,,,,30340
341,Samodzielny Publiczny Zakład Opieki Zdrowotnej MSW,Kronikarza Galla nan,Kraków,,30-074,,50.0723088,19.9136062,False,,,,,,,,,,,,,,,,,,,,,,,,,,,,,,,,,,,,,,,,,,,,,,,,,,,,,,,,,,,,,,,,,,,,,,,,,,,,,,,,30341
342,Samodzielny Publiczny Zakład Opieki Zdrowotnej MSWiA,,Opole,,45-077,,50.6635686,17.9253597,False,,,,,,,,,,,,,,,,,,,,,,,,,,,,,,,,,,,,,,,,,,,,,,,,,,,,,,,,,,,,,,,,,,,,,,,,,,,,,,,,30342
343,Samodzielny Publiczny Zakład Opieki Zdrowotnej MSWiA w Zielonej Górze,Wazów 42,Zielona Góra,,65-052,,51.942115,15.5197628,False,,,,,,,,,,,,,,,,,,,,,,,,,,,,,,,,,,,,,,,,,,,,,,,,,,,,,,,,,,,,,,,,,,,,,,,,,,,,,,,,30343
344,Samodzielny Publiczny Zakład Opieki Zdrowotnej Ministerstwa Spraw Wewnętrznych i Administracji,,Łódź,,90-318,,51.7825301,19.4727054,False,,,,,,,,,,,,,,,,,,,,,,,,,,,,,,,,,,,,,,,,,,,,,,,,,,,,,,,,,,,,,,,,,,,,,,,,,,,,,,,,30344
345,Samodzielny Publiczny Zakład Opieki Zdrowotnej Ministerstwa Spraw Wewnętrznych w Katowicach im. sierżanta Grzegorza Załogi,Bartosza Głowackiego 10,Katowice,,40-022,,50.2501383,19.0096093,False,,,,,,,,,,,,,,,,,,,,,,,,,,,,,,,,,,,,,,,,,,,,,,,,,,,,,,,,,,,,,,,,,,,,,,,,,,,,,,,,30345
346,Samodzielny Publiczny Zakład Opieki Zdrowotnej Rypin,3 Maja 2,Rypin,,87-500,,53.0665903,19.4149246,False,,,,,,,,,,,,,,,,,,,,,,,,,,,,,,,,,,,,,,,,,,,,,,,,,,,,,,,,,,,,,,,,,,,,,,,,,,,,,,,,30346
347,Samodzielny Publiczny Zakład Opieki Zdrowotnej Szpital Powiatowy,Fabryczna 18,Poniatowa,,24-320,,51.1744477,22.0742837,False,,,,,,,,,,,,,,,,,,,,,,,,,,,,,,,,,,,,,,,,,,,,,,,,,,,,,,,,,,,,,,,,,,,,,,,,,,,,,,,,30347
348,Samodzielny Publiczny Zakład Opieki Zdrowotnej Szpital im. św. Elżbiety,Warszawska 52,Katowice,,40-022,+48 32 253-08-31,50.2575648,19.0335066,False,,,,,,,,,,,,,,,,,,,,,,,,,,,,,,,,,,,,,,,,,,,,,,,,,,,,,,,,,,,,,,,,,,,,,,,,,,,,,,,,30348
349,Samodzielny Publiczny Zakład Opieki Zdrowotnej im. dr. E.Jelskiego - Przychodnia Rejonowa w Knyszynie - Poradnia ogólna,Grodzieńska 96,Knyszyn,,19-120,857167026,53.3196835,22.9217608,False,,,,,,,,,,,,,,,,,,,,,,,,,,,,,,,,,,,,,,,,,,,,,,,,,,,,,,,,,,,,,,,,,,,,,,,,,,,,,,,,30349
350,Samodzielny Publiczny Zakład Opieki Zdrowotnej w Janowcu Wielkopolskim,,Janowiec Wielkopolski,,88-430,,52.7545817,17.4888556,False,,,,,,,,,,,,,,,,,,,,,,,,,,,,,,,,,,,,,,,,,,,,,,,,,,,,,,,,,,,,,,,,,,,,,,,,,,,,,,,,30350
351,Samodzielny Publiczny Zakład Opieki Zdrowotnej w Myślenicach,ulica Szpitalna 2,Myślenice,,32-400,,49.8283622,19.9470668,False,,,,,,,,,,,,,,,,,,,,,,,,,,,,,,,,,,,,,,,,,,,,,,,,,,,,,,,,,,,,,,,,,,,,,,,,,,,,,,,,30351
352,Samodzielny Publiczny Zakład Opieki Zdrowotnej w Mławie,Anny Dobrskiej 1,Mława,,06-500,,53.123571,20.3727912,False,,,,,,,,,,,,,,,,,,,,,,,,,,,,,,,,,,,,,,,,,,,,,,,,,,,,,,,,,,,,,,,,,,,,,,,,,,,,,,,,30352
353,Samodzielny Publiczny Zakład Opieki Zdrowotnej w Szamotułach,Sukiennicza 13,Szamotuły,,64-500,612927100,52.6115613,16.5807703,False,,,,,,,,,,,,,,,,,,,,,,,,,,,,,,,,,,,,,,,,,,,,,,,,,,,,,,,,,,,,,,,,,,,,,,,,,,,,,,,,30353
354,Samodzielny Publiczny Zakład Opieki Zdrowotnej w Łapach,Janusza Korczaka 23,Łapy,,18-100,+48 85 814 24 39,52.9882429,22.866529,False,,,,,,,,,,,,,,,,,,,,,,,,,,,,,,,,,,,,,,,,,,,,,,,,,,,,,,,,,,,,,,,,,,,,,,,,,,,,,,,,30354
355,Samodzielny Publiczny Zakład Opieki Zdrowotnej w Świdniku,,Świdnik,,21-040,,51.2214212,22.6937381,False,,,,,,,,,,,,,,,,,,,,,,,,,,,,,,,,,,,,,,,,,,,,,,,,,,,,,,,,,,,,,,,,,,,,,,,,,,,,,,,,30355
356,Samodzielny Publiczny Zakład Opieki Zdrowotnej w Świdniku,Bolesława Leśmiana 4,Świdnik,,21-040,,51.2212665,22.6978187,False,,,,,,,,,,,,,,,,,,,,,,,,,,,,,,,,,,,,,,,,,,,,,,,,,,,,,,,,,,,,,,,,,,,,,,,,,,,,,,,,30356
357,Samodzielny Publiczny Zakład Opieki Zdrowotnej w Świdniku,Aleja Lotników Polskich 22,Świdnik,,21-040,,51.2201087,22.6940406,False,,,,,,,,,,,,,,,,,,,,,,,,,,,,,,,,,,,,,,,,,,,,,,,,,,,,,,,,,,,,,,,,,,,,,,,,,,,,,,,,30357
358,"Samodzielny Publiczny Zespół Gruźlicy i Chorób Płuc, Szpital Położniczo-Ginekologiczny",,Olsztyn,,10-118,,53.8007959,20.5113861,False,,,,,,,,,,,,,,,,,,,,,,,,,,,,,,,,,,,,,,,,,,,,,,,,,,,,,,,,,,,,,,,,,,,,,,,,,,,,,,,,30358
359,Samodzielny Publiczny Zespół Opieki Zdrowotnej,ulica Poduchowne 1,Turek,,62-700,,52.0110459,18.4900049,False,,,,,,,,,,,,,,,,,,,,,,,,,,,,,,,,,,,,,,,,,,,,,,,,,,,,,,,,,,,,,,,,,,,,,,,,,,,,,,,,30359
360,Samodzielny Publiczny Zespół Opieki Zdrowotnej w Gostyniu,Karola Marcinkowskiego 8,Gostyń,,63-800,,51.8827174,17.0102171,False,,,,,,,,,,,,,,,,,,,,,,,,,,,,,,,,,,,,,,,,,,,,,,,,,,,,,,,,,,,,,,,,,,,,,,,,,,,,,,,,30360
361,Samodzielny Publiczny Zespół Opieki Zdrowotnej w Leżajsku,Leśna 22,Leżajsk,,37-300,,50.2718713,22.4013373,False,,,,,,,,,,,,,,,,,,,,,,,,,,,,,,,,,,,,,,,,,,,,,,,,,,,,,,,,,,,,,,,,,,,,,,,,,,,,,,,,30361
362,Samodzielny Publiczny Zespół Opieki Zdrowotnej we Włodawie,Aleja Marszałka Józefa Piłsudskiego 64,Włodawa,,22-200,797 702 705,51.557595,23.5531399,False,,,,,,,,,,,,,,,,,,,,,,,,,,,,,,,,,,,,,,,,,,,,,,,,,,,,,,,,,,,,,,,,,,,,,,,,,,,,,,,,30362
363,Samodzielny Publiczny Zespół Szpitali Pulmonologiczno - Reumatologicznych,Karola Miarki 14,,,,,50.8037059,17.8846005,False,,,,,,,,,,,,,,,,,,,,,,,,,,,,,,,,,,,,,,,,,,,,,,,,,,,,,,,,,,,,,,,,,,,,,,,,,,,,,,,,30363
364,Samodzielny Publiczny Zespół Zakładów Opieki Zdrowotnej,Jana Zamoyskiego 149,Janów Lubelski,,23-300,,50.7013106,22.436027,False,,,,,,,,,,,,,,,,,,,,,,,,,,,,,,,,,,,,,,,,,,,,,,,,,,,,,,,,,,,,,,,,,,,,,,,,,,,,,,,,30364
365,Samodzielny Publiczny Zespół Zakładów Opieki Zdrowotnej,Wschodnia 23,Szydłowiec,,26-500,,51.2259467,20.8629514,False,,,,,,,,,,,,,,,,,,,,,,,,,,,,,,,,,,,,,,,,,,,,,,,,,,,,,,,,,,,,,,,,,,,,,,,,,,,,,,,,30365
366,Samodzielny Publiczny Zespół Zakładów Opieki Zdrowotnej,,Przasnysz,,06-300,,53.0273904,20.8933352,False,,,,,,,,,,,,,,,,,,,,,,,,,,,,,,,,,,,,,,,,,,,,,,,,,,,,,,,,,,,,,,,,,,,,,,,,,,,,,,,,30366
367,Samodzielny Publiczny Zespół Zakładów Opieki Zdrowotnej,Niechorska 27,Gryfice,,72-300,+48 91 3842061,53.9222028,15.1768073,False,,,,,,,,,,,,,,,,,,,,,,,,,,,,,,,,,,,,,,,,,,,,,,,,,,,,,,,,,,,,,,,,,,,,,,,,,,,,,,,,30367
368,Samodzielny Publiczny Zespół Zakładów Opieki Zdrowotnej im. Stefana Niewirowicza w Staszowie,11 Listopada 78,Staszów,,28-200,+48 15 864 85 39,50.5618995,21.1904322,False,,,,,,,,,,,,,,,,,,,,,,,,,,,,,,,,,,,,,,,,,,,,,,,,,,,,,,,,,,,,,,,,,,,,,,,,,,,,,,,,30368
369,Samodzielny Specjalistyczny Zespół Zakładów Opieki Zdrowotnej w Rudce,aleja Teodora Dunina 1,Mrozy,,05-320,,52.1540833,21.8265658,False,,,,,,,,,,,,,,,,,,,,,,,,,,,,,,,,,,,,,,,,,,,,,,,,,,,,,,,,,,,,,,,,,,,,,,,,,,,,,,,,30369
370,Samodzielny Szpital Kliniczny im. prof. Witolda Orłowskiego,,Warszawa,,00-419,22 628-30-11,52.2298559,21.031173,False,,,,,,,,,,,,,,,,,,,,,,,,,,,,,,,,,,,,,,,,,,,,,,,,,,,,,,,,,,,,,,,,,,,,,,,,,,,,,,,,30370
371,Samodzielny Szpital Miejski im. PCK,Henryka Sienkiewicza 79,Białystok,,15-007,,53.1404235,23.171534,False,,,,,,,,,,,,,,,,,,,,,,,,,,,,,,,,,,,,,,,,,,,,,,,,,,,,,,,,,,,,,,,,,,,,,,,,,,,,,,,,30371
372,Samodzielny Szpital Wojewódzki im. Mikołaja Kopernika w Piotrkowie Trybunalskim,Rakowska 15,Piotrków Trybunalski,,97-300,,51.4167109,19.7126295,False,,,,,,,,,,,,,,,,,,,,,,,,,,,,,,,,,,,,,,,,,,,,,,,,,,,,,,,,,,,,,,,,,,,,,,,,,,,,,,,,30372
373,Samodzielny Wojewódzki Publiczny Zespół Zakładów Psychiatrycznej Opieki Zdrowotnej im. dr Barbary Borzym,Krychnowicka 1,Radom,,26-610,,51.3598209,21.0849058,False,,,,,,,,,,,,,,,,,,,,,,,,,,,,,,,,,,,,,,,,,,,,,,,,,,,,,,,,,,,,,,,,,,,,,,,,,,,,,,,,30373
374,Samodzielny Wojewódzki Szpital dla Nerwowo i Psychicznie Chorych im. Ks. Biskupa Nathana w Branicach,Szpitalna 18A,Branice,,48-140,+48774868140,50.054209,17.7959403,False,,,,,,,,,,,,,,,,,,,,,,,,,,,,,,,,,,,,,,,,,,,,,,,,,,,,,,,,,,,,,,,,,,,,,,,,,,,,,,,,30374
375,Samorządowy Zakład Podstawowej Opieki Zdrowotnej,Osiedle Północ 10,Chęciny,,26-060,,50.8030391,20.4684241,False,,,,,,,,,,,,,,,,,,,,,,,,,,,,,,,,,,,,,,,,,,,,,,,,,,,,,,,,,,,,,,,,,,,,,,,,,,,,,,,,30375
376,"Sanatorium ""Leśnik""",23 Marca 105,,,,,54.4489182,18.5264537,False,,,,,,,,,,,,,,,,,,,,,,,,,,,,,,,,,,,,,,,,,,,,,,,,,,,,,,,,,,,,,,,,,,,,,,,,,,,,,,,,30376
377,Sanatorium Eskulap,Parkowa 5,Rymanów,,38-481,+4813 43 574 64,49.547092,21.8516989,False,,,,,,,,,,,,,,,,,,,,,,,,,,,,,,,,,,,,,,,,,,,,,,,,,,,,,,,,,,,,,,,,,,,,,,,,,,,,,,,,30377
378,Sanatorium Polonia,Anny i Jana Potockich 1,Rymanów,,38-481,+4813 43 574 18,49.5429381,21.8470554,False,,,,,,,,,,,,,,,,,,,,,,,,,,,,,,,,,,,,,,,,,,,,,,,,,,,,,,,,,,,,,,,,,,,,,,,,,,,,,,,,30378
379,Sanatorium Uzdrowiskowe Zimowit,Parkowa 4,Rymanów,,38-481,+4813 43 572 31,49.5429072,21.8529441,False,,,,,,,,,,,,,,,,,,,,,,,,,,,,,,,,,,,,,,,,,,,,,,,,,,,,,,,,,,,,,,,,,,,,,,,,,,,,,,,,30379
380,Silesia-Med S.A,,Miedźna,,43-227,,49.9671731,19.0456292,False,,,,,,,,,,,,,,,,,,,,,,,,,,,,,,,,,,,,,,,,,,,,,,,,,,,,,,,,,,,,,,,,,,,,,,,,,,,,,,,,30380
381,Specjalistyczny Psychiatryczny Zespół Opieki Zdrowotnej,Aleksandrowska 159,Łódź,,90-132,,51.8098992,19.350014,False,,,,,,,,,,,,,,,,,,,,,,,,,,,,,,,,,,,,,,,,,,,,,,,,,,,,,,,,,,,,,,,,,,,,,,,,,,,,,,,,30381
382,Specjalistyczny Szpital Ginekologiczno - Położniczy im. E. Biernackiego,,Wałbrzych,,58-302,,50.7714434,16.2891021,False,,,,,,,,,,,,,,,,,,,,,,,,,,,,,,,,,,,,,,,,,,,,,,,,,,,,,,,,,,,,,,,,,,,,,,,,,,,,,,,,30382
383,Specjalistyczny Szpital Miejski im. M. Kopernika,Stefana Batorego 17/19,,,,,53.023324,18.620197,False,,,,,,,,,,,,,,,,,,,,,,,,,,,,,,,,,,,,,,,,,,,,,,,,,,,,,,,,,,,,,,,,,,,,,,,,,,,,,,,,30383
384,Specjalistyczny Szpital Wojewódzki,Powstańców Wielkopolskich 2,Ciechanów,,06-413,,52.8839764,20.6342488,False,,,,,,,,,,,,,,,,,,,,,,,,,,,,,,,,,,,,,,,,,,,,,,,,,,,,,,,,,,,,,,,,,,,,,,,,,,,,,,,,30384
385,Specjalistyczny Szpital im. dra Alfreda Sokołowskiego,Stefana Batorego 4,Wałbrzych,,58-302,,50.7764121,16.2768952,False,,,,,,,,,,,,,,,,,,,,,,,,,,,,,,,,,,,,,,,,,,,,,,,,,,,,,,,,,,,,,,,,,,,,,,,,,,,,,,,,30385
386,Specjalistyczny Szpital im.dra A. Sokołowskiego,,Wałbrzych,,58-302,,50.8021038,16.2790434,False,,,,,,,,,,,,,,,,,,,,,,,,,,,,,,,,,,,,,,,,,,,,,,,,,,,,,,,,,,,,,,,,,,,,,,,,,,,,,,,,30386
387,Specjalistyczny Zespół Gruźlicy I Chorób Płuc,,Koszalin,,75-007,,54.195031,16.175293,False,,,,,,,,,,,,,,,,,,,,,,,,,,,,,,,,,,,,,,,,,,,,,,,,,,,,,,,,,,,,,,,,,,,,,,,,,,,,,,,,30387
388,Specjalistyczny Zespół Opieki Zdrowotnej nad Matką: Zespół Poradni Specjalistycznych,,Poznań,,61-747,,52.4159056,16.9206168,False,,,,,,,,,,,,,,,,,,,,,,,,,,,,,,,,,,,,,,,,,,,,,,,,,,,,,,,,,,,,,,,,,,,,,,,,,,,,,,,,30388
389,Stacja Pogotowia Ratunkowego w Mońkach,Aleja Wojska Polskiego 56,Mońki,,19-100,,53.4044533,22.8108279,False,,,,,,,,,,,,,,,,,,,,,,,,,,,,,,,,,,,,,,,,,,,,,,,,,,,,,,,,,,,,,,,,,,,,,,,,,,,,,,,,30389
390,Stacja Ratownictwa Medycznego,,Chełm,,22-100,,51.1442836,23.4581796,False,,,,,,,,,,,,,,,,,,,,,,,,,,,,,,,,,,,,,,,,,,,,,,,,,,,,,,,,,,,,,,,,,,,,,,,,,,,,,,,,30390
391,Stacja dializ BBraun,,Garwolin,,08-400,,51.872182,21.6363499,False,,,,,,,,,,,,,,,,,,,,,,,,,,,,,,,,,,,,,,,,,,,,,,,,,,,,,,,,,,,,,,,,,,,,,,,,,,,,,,,,30391
392,Stomatologi Protetyka,,Pabianice,,95-200,,51.6603029,19.350338,False,,,,,,,,,,,,,,,,,,,,,,,,,,,,,,,,,,,,,,,,,,,,,,,,,,,,,,,,,,,,,,,,,,,,,,,,,,,,,,,,30392
393,Stomotolog,,Żelechów,,08-430,,51.8104807,21.9132567,False,,,,,,,,,,,,,,,,,,,,,,,,,,,,,,,,,,,,,,,,,,,,,,,,,,,,,,,,,,,,,,,,,,,,,,,,,,,,,,,,30393
394,Strzelińskie Centrum Medyczne,,Strzelin,,57-100,,50.7891929,17.0697816,False,,,,,,,,,,,,,,,,,,,,,,,,,,,,,,,,,,,,,,,,,,,,,,,,,,,,,,,,,,,,,,,,,,,,,,,,,,,,,,,,30394
395,Szpital,,Nowa Dęba,,39-460,,50.41915,21.7545081,False,,,,,,,,,,,,,,,,,,,,,,,,,,,,,,,,,,,,,,,,,,,,,,,,,,,,,,,,,,,,,,,,,,,,,,,,,,,,,,,,30395
396,Szpital,Lubańska 11/12,Zgorzelec,,59-900,,51.1581783,15.0109046,False,,,,,,,,,,,,,,,,,,,,,,,,,,,,,,,,,,,,,,,,,,,,,,,,,,,,,,,,,,,,,,,,,,,,,,,,,,,,,,,,30396
397,Szpital,Armii Krajowej 8,Biskupiec,,11-300,,53.8658572,20.9565281,False,,,,,,,,,,,,,,,,,,,,,,,,,,,,,,,,,,,,,,,,,,,,,,,,,,,,,,,,,,,,,,,,,,,,,,,,,,,,,,,,30397
398,Szpital,Stanisława Staszica 4,Stalowa Wola,,37-450,,50.563739,22.0676054,False,,,,,,,,,,,,,,,,,,,,,,,,,,,,,,,,,,,,,,,,,,,,,,,,,,,,,,,,,,,,,,,,,,,,,,,,,,,,,,,,30398
399,Szpital,,Kościelisko,,34-511,,49.2915186,19.8930496,False,,,,,,,,,,,,,,,,,,,,,,,,,,,,,,,,,,,,,,,,,,,,,,,,,,,,,,,,,,,,,,,,,,,,,,,,,,,,,,,,30399
400,Szpital,,Leżajsk,,37-300,,50.2720699,22.4012835,False,,,,,,,,,,,,,,,,,,,,,,,,,,,,,,,,,,,,,,,,,,,,,,,,,,,,,,,,,,,,,,,,,,,,,,,,,,,,,,,,30400
401,Szpital,,Nowy Tomyśl,,64-300,,52.3161305,16.1405484,False,,,,,,,,,,,,,,,,,,,,,,,,,,,,,,,,,,,,,,,,,,,,,,,,,,,,,,,,,,,,,,,,,,,,,,,,,,,,,,,,30401
402,Szpital,Czesława Stęszewskiego 9,Koźmin Wielkopolski,,63-720,,51.8259181,17.4478644,False,,,,,,,,,,,,,,,,,,,,,,,,,,,,,,,,,,,,,,,,,,,,,,,,,,,,,,,,,,,,,,,,,,,,,,,,,,,,,,,,30402
403,Szpital,Ogrodowa nan,Szubin,,89-200,,53.0084871,17.7301524,False,,,,,,,,,,,,,,,,,,,,,,,,,,,,,,,,,,,,,,,,,,,,,,,,,,,,,,,,,,,,,,,,,,,,,,,,,,,,,,,,30403
404,Szpital,,Tomaszów Lubelski,,22-600,,50.4429847,23.4140112,False,,,,,,,,,,,,,,,,,,,,,,,,,,,,,,,,,,,,,,,,,,,,,,,,,,,,,,,,,,,,,,,,,,,,,,,,,,,,,,,,30404
405,Szpital,,Bogatynia,,59-920,,50.9071331,14.96977,False,,,,,,,,,,,,,,,,,,,,,,,,,,,,,,,,,,,,,,,,,,,,,,,,,,,,,,,,,,,,,,,,,,,,,,,,,,,,,,,,30405
406,Szpital,Bodzentyńska 17,Iłża,,27-100,,51.1611994,21.2338809,False,,,,,,,,,,,,,,,,,,,,,,,,,,,,,,,,,,,,,,,,,,,,,,,,,,,,,,,,,,,,,,,,,,,,,,,,,,,,,,,,30406
407,Szpital,"Danuty Siedzikówny ""Inki"" 4",Iłża,,27-100,,51.1657819,21.2329656,False,,,,,,,,,,,,,,,,,,,,,,,,,,,,,,,,,,,,,,,,,,,,,,,,,,,,,,,,,,,,,,,,,,,,,,,,,,,,,,,,30407
408,Szpital,Mossego 1,Grodzisk Wielkopolski,,62-065,,52.2288544,16.3663534,False,,,,,,,,,,,,,,,,,,,,,,,,,,,,,,,,,,,,,,,,,,,,,,,,,,,,,,,,,,,,,,,,,,,,,,,,,,,,,,,,30408
409,"Szpital ""Biały Orzeł""",Parkowa 5,Mieroszów,,58-351,,50.6847205,16.2364506,False,,,,,,,,,,,,,,,,,,,,,,,,,,,,,,,,,,,,,,,,,,,,,,,,,,,,,,,,,,,,,,,,,,,,,,,,,,,,,,,,30409
410,"Szpital ""Mikulicz""",,Świebodzice,,58-160,,50.8545309,16.3212257,False,,,,,,,,,,,,,,,,,,,,,,,,,,,,,,,,,,,,,,,,,,,,,,,,,,,,,,,,,,,,,,,,,,,,,,,,,,,,,,,,30410
411,Szpital - Oddział 1,nan 61,,,,,52.146956,15.409603,False,,,,,,,,,,,,,,,,,,,,,,,,,,,,,,,,,,,,,,,,,,,,,,,,,,,,,,,,,,,,,,,,,,,,,,,,,,,,,,,,30411
412,Szpital - Oddział 10(ZOL X),nan 54,,,,,52.1458154,15.4067629,False,,,,,,,,,,,,,,,,,,,,,,,,,,,,,,,,,,,,,,,,,,,,,,,,,,,,,,,,,,,,,,,,,,,,,,,,,,,,,,,,30412
413,Szpital - Oddział 14B,nan 50,,,,,52.144819,15.4058215,False,,,,,,,,,,,,,,,,,,,,,,,,,,,,,,,,,,,,,,,,,,,,,,,,,,,,,,,,,,,,,,,,,,,,,,,,,,,,,,,,30413
414,Szpital - Oddział 15,nan 48,,,,,52.1443115,15.4057532,False,,,,,,,,,,,,,,,,,,,,,,,,,,,,,,,,,,,,,,,,,,,,,,,,,,,,,,,,,,,,,,,,,,,,,,,,,,,,,,,,30414
415,Szpital - Oddział 16C,nan 47,,,,,52.1445268,15.404977,False,,,,,,,,,,,,,,,,,,,,,,,,,,,,,,,,,,,,,,,,,,,,,,,,,,,,,,,,,,,,,,,,,,,,,,,,,,,,,,,,30415
416,Szpital - Oddział 17,nan 46,,,,,52.1438298,15.404753,False,,,,,,,,,,,,,,,,,,,,,,,,,,,,,,,,,,,,,,,,,,,,,,,,,,,,,,,,,,,,,,,,,,,,,,,,,,,,,,,,30416
417,Szpital - Oddział 18,nan 44,,,,,52.1443113,15.4041351,False,,,,,,,,,,,,,,,,,,,,,,,,,,,,,,,,,,,,,,,,,,,,,,,,,,,,,,,,,,,,,,,,,,,,,,,,,,,,,,,,30417
418,Szpital - Oddział 19,nan 45,,,,,52.1436556,15.4037793,False,,,,,,,,,,,,,,,,,,,,,,,,,,,,,,,,,,,,,,,,,,,,,,,,,,,,,,,,,,,,,,,,,,,,,,,,,,,,,,,,30418
419,Szpital - Oddział 2,nan 60,,,,,52.1464782,15.4095451,False,,,,,,,,,,,,,,,,,,,,,,,,,,,,,,,,,,,,,,,,,,,,,,,,,,,,,,,,,,,,,,,,,,,,,,,,,,,,,,,,30419
420,Szpital - Oddział 3,nan 59,,,,,52.1459771,15.409676,False,,,,,,,,,,,,,,,,,,,,,,,,,,,,,,,,,,,,,,,,,,,,,,,,,,,,,,,,,,,,,,,,,,,,,,,,,,,,,,,,30420
421,Szpital - Oddział 4,nan 58,,,,,52.1456575,15.4094296,False,,,,,,,,,,,,,,,,,,,,,,,,,,,,,,,,,,,,,,,,,,,,,,,,,,,,,,,,,,,,,,,,,,,,,,,,,,,,,,,,30421
422,Szpital - Oddział 6,nan 56,,,,,52.1449971,15.4085676,False,,,,,,,,,,,,,,,,,,,,,,,,,,,,,,,,,,,,,,,,,,,,,,,,,,,,,,,,,,,,,,,,,,,,,,,,,,,,,,,,30422
423,Szpital - Oddział 7,nan 66,,,,,52.1470011,15.4074744,False,,,,,,,,,,,,,,,,,,,,,,,,,,,,,,,,,,,,,,,,,,,,,,,,,,,,,,,,,,,,,,,,,,,,,,,,,,,,,,,,30423
424,Szpital - Oddział 8,nan 65,,,,,52.1466539,15.4075006,False,,,,,,,,,,,,,,,,,,,,,,,,,,,,,,,,,,,,,,,,,,,,,,,,,,,,,,,,,,,,,,,,,,,,,,,,,,,,,,,,30424
425,Szpital - Oddział 9,nan 55,,,,,52.1461213,15.4072962,False,,,,,,,,,,,,,,,,,,,,,,,,,,,,,,,,,,,,,,,,,,,,,,,,,,,,,,,,,,,,,,,,,,,,,,,,,,,,,,,,30425
426,Szpital Asklepios,,Rzeszów,,35-074,,50.0245487,22.0061156,False,,,,,,,,,,,,,,,,,,,,,,,,,,,,,,,,,,,,,,,,,,,,,,,,,,,,,,,,,,,,,,,,,,,,,,,,,,,,,,,,30426
427,Szpital Barlinek sp. z o.o.,ulica Szpitalna 10,Barlinek,,74-320,,52.9976806,15.2238067,False,,,,,,,,,,,,,,,,,,,,,,,,,,,,,,,,,,,,,,,,,,,,,,,,,,,,,,,,,,,,,,,,,,,,,,,,,,,,,,,,30427
428,Szpital Barska,,Włocławek,,87-800,,52.6506765,19.0922702,False,,,,,,,,,,,,,,,,,,,,,,,,,,,,,,,,,,,,,,,,,,,,,,,,,,,,,,,,,,,,,,,,,,,,,,,,,,,,,,,,30428
429,Szpital Bielański,Cegłowska 80,Warszawa,,01-834,,52.2862057,20.9521796,False,,,,,,,,,,,,,,,,,,,,,,,,,,,,,,,,,,,,,,,,,,,,,,,,,,,,,,,,,,,,,,,,,,,,,,,,,,,,,,,,30429
430,Szpital Chirurgii Małoinwazjnej i Rekonstrukcyjnej,,Bielsko-Biała,,43-300,,49.7851035,19.0301854,False,,,,,,,,,,,,,,,,,,,,,,,,,,,,,,,,,,,,,,,,,,,,,,,,,,,,,,,,,,,,,,,,,,,,,,,,,,,,,,,,30430
431,Szpital Chirurgii Urazowej,Bytomska 62,Piekary Śląskie,,41-940,,50.3719431,18.9470183,False,,,,,,,,,,,,,,,,,,,,,,,,,,,,,,,,,,,,,,,,,,,,,,,,,,,,,,,,,,,,,,,,,,,,,,,,,,,,,,,,30431
432,Szpital Chorób Płuc,Dworcowa 20,Orzesze,,43-187,+48 32 2213661,50.1527347,18.7727436,False,,,,,,,,,,,,,,,,,,,,,,,,,,,,,,,,,,,,,,,,,,,,,,,,,,,,,,,,,,,,,,,,,,,,,,,,,,,,,,,,30432
433,Szpital Chorób Płuc im. K. Dłuskiego,,Wrocław,,53-229,,51.1020157,17.0069466,False,,,,,,,,,,,,,,,,,,,,,,,,,,,,,,,,,,,,,,,,,,,,,,,,,,,,,,,,,,,,,,,,,,,,,,,,,,,,,,,,30433
434,Szpital Chorób Płuc w Pilchowicach,Dworcowa 31,Pilchowice,,44-145,,50.2147421,18.5628605,False,,,,,,,,,,,,,,,,,,,,,,,,,,,,,,,,,,,,,,,,,,,,,,,,,,,,,,,,,,,,,,,,,,,,,,,,,,,,,,,,30434
435,Szpital Czerniakowski,ulica Stępińska 19,Warszawa,,00-739,,52.205929,21.0369934,False,,,,,,,,,,,,,,,,,,,,,,,,,,,,,,,,,,,,,,,,,,,,,,,,,,,,,,,,,,,,,,,,,,,,,,,,,,,,,,,,30435
436,Szpital Dziecięcy Polanki,Polanki 119,,,,,54.3951194,18.5595638,False,,,,,,,,,,,,,,,,,,,,,,,,,,,,,,,,,,,,,,,,,,,,,,,,,,,,,,,,,,,,,,,,,,,,,,,,,,,,,,,,30436
437,Szpital Dziecięcy im. Bolesława Krysiewicza,,Poznań,,61-758,,52.404163,16.9294335,False,,,,,,,,,,,,,,,,,,,,,,,,,,,,,,,,,,,,,,,,,,,,,,,,,,,,,,,,,,,,,,,,,,,,,,,,,,,,,,,,30437
438,Szpital Dziecięcy im. J. Korczaka,Ignacego Krasickiego 21,Jastrzębie-Zdrój,,44-335,,49.9602288,18.573874,False,,,,,,,,,,,,,,,,,,,,,,,,,,,,,,,,,,,,,,,,,,,,,,,,,,,,,,,,,,,,,,,,,,,,,,,,,,,,,,,,30438
439,Szpital Dziecięcy imienia profesora doktora Jana Bogdanowicza,,Warszawa,,04-158,,52.2350116,21.0615426,False,,,,,,,,,,,,,,,,,,,,,,,,,,,,,,,,,,,,,,,,,,,,,,,,,,,,,,,,,,,,,,,,,,,,,,,,,,,,,,,,30439
440,Szpital ESKULAP,Koperkowa 2,Osielsko,,86-031,+48523265800,53.1772909,18.0616861,False,,,,,,,,,,,,,,,,,,,,,,,,,,,,,,,,,,,,,,,,,,,,,,,,,,,,,,,,,,,,,,,,,,,,,,,,,,,,,,,,30440
441,Szpital Geriatryczny im. Jana Pawła II w Katowicach,,Katowice,,40-022,,50.2678355,19.0928538,False,,,,,,,,,,,,,,,,,,,,,,,,,,,,,,,,,,,,,,,,,,,,,,,,,,,,,,,,,,,,,,,,,,,,,,,,,,,,,,,,30441
442,Szpital Ginekologiczno-Położniczy im. Świętej Rodziny,Kazimierza Jarochowskiego 18,Poznań,,60-289,,52.3955189,16.893848,False,,,,,,,,,,,,,,,,,,,,,,,,,,,,,,,,,,,,,,,,,,,,,,,,,,,,,,,,,,,,,,,,,,,,,,,,,,,,,,,,30442
443,Szpital Ginekologiczno-Położniczy im. Świętej Rodziny,Antoniego Józefa Madalińskiego 25,Warszawa,,02-554,,52.2043311,21.0163991,False,,,,,,,,,,,,,,,,,,,,,,,,,,,,,,,,,,,,,,,,,,,,,,,,,,,,,,,,,,,,,,,,,,,,,,,,,,,,,,,,30443
444,Szpital Grochowski,,Warszawa,,04-083,,52.2426462,21.0774323,False,,,,,,,,,,,,,,,,,,,,,,,,,,,,,,,,,,,,,,,,,,,,,,,,,,,,,,,,,,,,,,,,,,,,,,,,,,,,,,,,30444
445,Szpital HCP,28 Czerwca 1956 roku 194,Poznań,,61-485,,52.3834867,16.9125033,False,,,,,,,,,,,,,,,,,,,,,,,,,,,,,,,,,,,,,,,,,,,,,,,,,,,,,,,,,,,,,,,,,,,,,,,,,,,,,,,,30445
446,Szpital Kardiologiczno-Onkologiczny Magodent,,Warszawa,,03-982,,52.2331948,21.0988984,False,,,,,,,,,,,,,,,,,,,,,,,,,,,,,,,,,,,,,,,,,,,,,,,,,,,,,,,,,,,,,,,,,,,,,,,,,,,,,,,,30446
447,Szpital Kardiologiczny,Aleja Jordana 2,Rabka-Zdrój,,34-700,(18) 267 65 16,49.6070643,19.9571175,False,,,,,,,,,,,,,,,,,,,,,,,,,,,,,,,,,,,,,,,,,,,,,,,,,,,,,,,,,,,,,,,,,,,,,,,,,,,,,,,,30447
448,Szpital Kliniczny Nr 7 Górnośląskie Centrum Medyczne,Ziołowa 45/47,Katowice,,40-022,,50.2094867,19.0011789,False,,,,,,,,,,,,,,,,,,,,,,,,,,,,,,,,,,,,,,,,,,,,,,,,,,,,,,,,,,,,,,,,,,,,,,,,,,,,,,,,30448
449,Szpital Kliniczny Przemienienia Pańskiego oddział ul. Długa,Długa 1/2,Poznań,,61-747,+48 61 854 90 00,52.4026579,16.9362603,False,,,,,,,,,,,,,,,,,,,,,,,,,,,,,,,,,,,,,,,,,,,,,,,,,,,,,,,,,,,,,,,,,,,,,,,,,,,,,,,,30449
450,Szpital Kliniczny Przemienienia Pańskiego oddział ul. Szamarzewskiego,Augustyna Szamarzewskiego 82/84,Poznań,,60-584,+48 61 854 90 00,52.4139182,16.8813899,False,,,,,,,,,,,,,,,,,,,,,,,,,,,,,,,,,,,,,,,,,,,,,,,,,,,,,,,,,,,,,,,,,,,,,,,,,,,,,,,,30450
451,Szpital Kliniczny im. Heliodora Święcickiego,Stanisława Przybyszewskiego 49,Poznań,,60-289,,52.4046017,16.8855051,False,,,,,,,,,,,,,,,,,,,,,,,,,,,,,,,,,,,,,,,,,,,,,,,,,,,,,,,,,,,,,,,,,,,,,,,,,,,,,,,,30451
452,Szpital Kliniczny im. Karola Jonschera,Szpitalna 27/33,Poznań,,60-584,+48 61 849 12 00,52.4131916,16.8782285,False,,,,,,,,,,,,,,,,,,,,,,,,,,,,,,,,,,,,,,,,,,,,,,,,,,,,,,,,,,,,,,,,,,,,,,,,,,,,,,,,30452
453,Szpital Kliniczny im. ks. Anny Mazowieckiej,,Warszawa,,00-390,,52.2456727,21.0222826,False,,,,,,,,,,,,,,,,,,,,,,,,,,,,,,,,,,,,,,,,,,,,,,,,,,,,,,,,,,,,,,,,,,,,,,,,,,,,,,,,30453
454,Szpital Kolejowy,,Wilkowice,,43-365,,49.7718594,19.090354,False,,,,,,,,,,,,,,,,,,,,,,,,,,,,,,,,,,,,,,,,,,,,,,,,,,,,,,,,,,,,,,,,,,,,,,,,,,,,,,,,30454
455,Szpital Kolejowy im. Włodzimierza Roeflera,Warsztatowa 1,Pruszków,,05-800,,52.1745009,20.8068768,False,,,,,,,,,,,,,,,,,,,,,,,,,,,,,,,,,,,,,,,,,,,,,,,,,,,,,,,,,,,,,,,,,,,,,,,,,,,,,,,,30455
456,Szpital MSW,,Wrocław,,50-217,,51.1247198,17.0359335,False,,,,,,,,,,,,,,,,,,,,,,,,,,,,,,,,,,,,,,,,,,,,,,,,,,,,,,,,,,,,,,,,,,,,,,,,,,,,,,,,30456
457,Szpital MSWiA,,Gdańsk,,80-142,,54.3508918,18.6348426,False,,,,,,,,,,,,,,,,,,,,,,,,,,,,,,,,,,,,,,,,,,,,,,,,,,,,,,,,,,,,,,,,,,,,,,,,,,,,,,,,30457
458,Szpital MSWiA,,Rzeszów,,35-074,,50.0477065,21.98277,False,,,,,,,,,,,,,,,,,,,,,,,,,,,,,,,,,,,,,,,,,,,,,,,,,,,,,,,,,,,,,,,,,,,,,,,,,,,,,,,,30458
459,Szpital MSWiA,Grenadierów 3,Lublin,Lublin,20-115,,51.228263,22.6127864,False,,,,,,,,,,,,,,,,,,,,,,,,,,,,,,,,,,,,,,,,,,,,,,,,,,,,,,,,,,,,,,,,,,,,,,,,,,,,,,,,30459
460,Szpital Medicover,,Warszawa,,02-972,,52.1547566,21.0763184,False,,,,,,,,,,,,,,,,,,,,,,,,,,,,,,,,,,,,,,,,,,,,,,,,,,,,,,,,,,,,,,,,,,,,,,,,,,,,,,,,30460
461,Szpital Miejski,3 Maja nan,Gniezno,,62-200,,52.5418021,17.5985952,False,,,,,,,,,,,,,,,,,,,,,,,,,,,,,,,,,,,,,,,,,,,,,,,,,,,,,,,,,,,,,,,,,,,,,,,,,,,,,,,,30461
462,Szpital Miejski,,Przemyśl,,37-700,,49.776767,22.7825713,False,,,,,,,,,,,,,,,,,,,,,,,,,,,,,,,,,,,,,,,,,,,,,,,,,,,,,,,,,,,,,,,,,,,,,,,,,,,,,,,,30462
463,Szpital Miejski,Świętego Jana nan,Gniezno,,62-200,,52.5385706,17.5961309,False,,,,,,,,,,,,,,,,,,,,,,,,,,,,,,,,,,,,,,,,,,,,,,,,,,,,,,,,,,,,,,,,,,,,,,,,,,,,,,,,30463
464,Szpital Miejski,,Piekary Śląskie,,41-940,,50.3749495,18.9537067,False,,,,,,,,,,,,,,,,,,,,,,,,,,,,,,,,,,,,,,,,,,,,,,,,,,,,,,,,,,,,,,,,,,,,,,,,,,,,,,,,30464
465,Szpital Miejski,,Olsztyn,,10-118,,53.7708314,20.4797983,False,,,,,,,,,,,,,,,,,,,,,,,,,,,,,,,,,,,,,,,,,,,,,,,,,,,,,,,,,,,,,,,,,,,,,,,,,,,,,,,,30465
466,Szpital Miejski,Konstytucji 3 Maja 35,Międzyrzecz,,66-300,,52.4398176,15.5842469,False,,,,,,,,,,,,,,,,,,,,,,,,,,,,,,,,,,,,,,,,,,,,,,,,,,,,,,,,,,,,,,,,,,,,,,,,,,,,,,,,30466
467,Szpital Miejski,Oleśnicka 25,Syców,,56-500,,51.3031947,17.7052742,False,,,,,,,,,,,,,,,,,,,,,,,,,,,,,,,,,,,,,,,,,,,,,,,,,,,,,,,,,,,,,,,,,,,,,,,,,,,,,,,,30467
468,Szpital Miejski,Krakowska 77,Dębica,,39-200,,50.0389644,21.3930595,False,,,,,,,,,,,,,,,,,,,,,,,,,,,,,,,,,,,,,,,,,,,,,,,,,,,,,,,,,,,,,,,,,,,,,,,,,,,,,,,,30468
469,Szpital Miejski,Szpitalna 1,Sosnowiec,,41-214,,50.2974959,19.1818419,False,,,,,,,,,,,,,,,,,,,,,,,,,,,,,,,,,,,,,,,,,,,,,,,,,,,,,,,,,,,,,,,,,,,,,,,,,,,,,,,,30469
470,Szpital Miejski Nr 4 z Przychodnią,Zygmunta Starego 20,Gliwice,,44-100,,50.2916425,18.6573571,False,,,,,,,,,,,,,,,,,,,,,,,,,,,,,,,,,,,,,,,,,,,,,,,,,,,,,,,,,,,,,,,,,,,,,,,,,,,,,,,,30470
471,Szpital Miejski Specjalistyczny imienia Gabriela Narutowicza,,Kraków,,31-262,,50.0834433,19.9379781,False,,,,,,,,,,,,,,,,,,,,,,,,,,,,,,,,,,,,,,,,,,,,,,,,,,,,,,,,,,,,,,,,,,,,,,,,,,,,,,,,30471
472,Szpital Miejski im. Jana Garduły,,Świnoujście,,72-602,,53.910197,14.2568593,False,,,,,,,,,,,,,,,,,,,,,,,,,,,,,,,,,,,,,,,,,,,,,,,,,,,,,,,,,,,,,,,,,,,,,,,,,,,,,,,,30472
473,Szpital Miejski im. Jana Pawła II,Rycerska 4,Rzeszów,,35-074,,50.0474761,22.0014772,False,,,,,,,,,,,,,,,,,,,,,,,,,,,,,,,,,,,,,,,,,,,,,,,,,,,,,,,,,,,,,,,,,,,,,,,,,,,,,,,,30473
474,Szpital Miejski im. Świętego Aleksandra - ArtMedik,Generała Tadeusza Kościuszki 25,Kielce,,25-316,+48 41 341 78 00,50.8737142,20.6383903,False,,,,,,,,,,,,,,,,,,,,,,,,,,,,,,,,,,,,,,,,,,,,,,,,,,,,,,,,,,,,,,,,,,,,,,,,,,,,,,,,30474
475,Szpital Miejski nr.1,,Sosnowiec,,41-214,,50.2699867,19.1310267,False,,,,,,,,,,,,,,,,,,,,,,,,,,,,,,,,,,,,,,,,,,,,,,,,,,,,,,,,,,,,,,,,,,,,,,,,,,,,,,,,30475
476,Szpital Miejski w Proszowicach,ulica Mikołaja Kopernika 13,Proszowice,,32-100,,50.1861862,20.2979416,False,,,,,,,,,,,,,,,,,,,,,,,,,,,,,,,,,,,,,,,,,,,,,,,,,,,,,,,,,,,,,,,,,,,,,,,,,,,,,,,,30476
477,Szpital Miejski w Siedlcach,,Siedlce,,08-110,,52.1691536,22.284419,False,,,,,,,,,,,,,,,,,,,,,,,,,,,,,,,,,,,,,,,,,,,,,,,,,,,,,,,,,,,,,,,,,,,,,,,,,,,,,,,,30477
478,Szpital Miejski w Tychach,,Tychy,,43-100,,50.1194672,18.9820598,False,,,,,,,,,,,,,,,,,,,,,,,,,,,,,,,,,,,,,,,,,,,,,,,,,,,,,,,,,,,,,,,,,,,,,,,,,,,,,,,,30478
479,Szpital Miejski w Zabrzu,Zamkowa 4,Zabrze,,41-800,,50.3267322,18.8255014,False,,,,,,,,,,,,,,,,,,,,,,,,,,,,,,,,,,,,,,,,,,,,,,,,,,,,,,,,,,,,,,,,,,,,,,,,,,,,,,,,30479
480,Szpital Morski im. PCK,Powstania Styczniowego 1,Gdynia,,81-518,,54.4893523,18.5506582,False,,,,,,,,,,,,,,,,,,,,,,,,,,,,,,,,,,,,,,,,,,,,,,,,,,,,,,,,,,,,,,,,,,,,,,,,,,,,,,,,30480
481,Szpital Murcki,Alfreda Sokołowskiego 2,,,,+48 32 255 61 62,50.1978764,19.0390448,False,,,,,,,,,,,,,,,,,,,,,,,,,,,,,,,,,,,,,,,,,,,,,,,,,,,,,,,,,,,,,,,,,,,,,,,,,,,,,,,,30481
482,Szpital Na Wyspie,Pszenna 2,Żary,,68-200,,51.6444345,15.1522807,False,,,,,,,,,,,,,,,,,,,,,,,,,,,,,,,,,,,,,,,,,,,,,,,,,,,,,,,,,,,,,,,,,,,,,,,,,,,,,,,,30482
483,Szpital Na Wyspie,Pokoju 1a,Lubsko,,68-300,,51.7935232,14.9745175,False,,,,,,,,,,,,,,,,,,,,,,,,,,,,,,,,,,,,,,,,,,,,,,,,,,,,,,,,,,,,,,,,,,,,,,,,,,,,,,,,30483
484,Szpital Neuropsychiatryczny,Abramowicka 2,Lublin,Lublin,20-115,,51.2046306,22.5873647,False,,,,,,,,,,,,,,,,,,,,,,,,,,,,,,,,,,,,,,,,,,,,,,,,,,,,,,,,,,,,,,,,,,,,,,,,,,,,,,,,30484
485,Szpital Neuropsychiatryczny imienia Doktora Józefa Babińskiego,,Kraków,,30-394,,50.0054078,19.8878965,False,,,,,,,,,,,,,,,,,,,,,,,,,,,,,,,,,,,,,,,,,,,,,,,,,,,,,,,,,,,,,,,,,,,,,,,,,,,,,,,,30485
486,Szpital Obserwacyjno Zakaźny i Hepatologii Zakaźnej,,Bytom,,41-902,,50.3535226,18.9122842,False,,,,,,,,,,,,,,,,,,,,,,,,,,,,,,,,,,,,,,,,,,,,,,,,,,,,,,,,,,,,,,,,,,,,,,,,,,,,,,,,30486
487,Szpital Ogólny,Szpitalna 5,Wysokie Mazowieckie,,18-200,,52.9156947,22.5214749,False,,,,,,,,,,,,,,,,,,,,,,,,,,,,,,,,,,,,,,,,,,,,,,,,,,,,,,,,,,,,,,,,,,,,,,,,,,,,,,,,30487
488,Szpital Ogólny im. dr Edmunda Wojtyły,,Bielsko-Biała,,43-300,,49.82274,19.033113,False,,,,,,,,,,,,,,,,,,,,,,,,,,,,,,,,,,,,,,,,,,,,,,,,,,,,,,,,,,,,,,,,,,,,,,,,,,,,,,,,30488
489,Szpital Pediatryczny,,Bielsko-Biała,,43-300,,49.819438,19.0266807,False,,,,,,,,,,,,,,,,,,,,,,,,,,,,,,,,,,,,,,,,,,,,,,,,,,,,,,,,,,,,,,,,,,,,,,,,,,,,,,,,30489
490,Szpital Powiatowy,Jana III Sobieskiego 9,Lubliniec,,42-700,+48 34 350 63 80,50.6650156,18.6818683,False,,,,,,,,,,,,,,,,,,,,,,,,,,,,,,,,,,,,,,,,,,,,,,,,,,,,,,,,,,,,,,,,,,,,,,,,,,,,,,,,30490
491,Szpital Powiatowy,Jana Kochanowskiego 2,Lesko,,38-600,,49.4749346,22.3340372,False,,,,,,,,,,,,,,,,,,,,,,,,,,,,,,,,,,,,,,,,,,,,,,,,,,,,,,,,,,,,,,,,,,,,,,,,,,,,,,,,30491
492,Szpital Powiatowy,,Dzierżoniów,,58-200,,50.7287569,16.6569057,False,,,,,,,,,,,,,,,,,,,,,,,,,,,,,,,,,,,,,,,,,,,,,,,,,,,,,,,,,,,,,,,,,,,,,,,,,,,,,,,,30492
493,Szpital Powiatowy,Józefa Chełmońskiego 1,Śrem,,63-100,,52.0893181,17.0057831,False,,,,,,,,,,,,,,,,,,,,,,,,,,,,,,,,,,,,,,,,,,,,,,,,,,,,,,,,,,,,,,,,,,,,,,,,,,,,,,,,30493
494,Szpital Powiatowy,Piastowska 64,Prudnik,,48-200,,50.3229392,17.5682856,False,,,,,,,,,,,,,,,,,,,,,,,,,,,,,,,,,,,,,,,,,,,,,,,,,,,,,,,,,,,,,,,,,,,,,,,,,,,,,,,,30494
495,Szpital Powiatowy,,Brodnica,,87-300,,53.2619072,19.3918758,False,,,,,,,,,,,,,,,,,,,,,,,,,,,,,,,,,,,,,,,,,,,,,,,,,,,,,,,,,,,,,,,,,,,,,,,,,,,,,,,,30495
496,Szpital Powiatowy,Szpitalna nan,Lwówek Śląski,,59-600,,51.1111792,15.5834118,False,,,,,,,,,,,,,,,,,,,,,,,,,,,,,,,,,,,,,,,,,,,,,,,,,,,,,,,,,,,,,,,,,,,,,,,,,,,,,,,,30496
497,Szpital Powiatowy,,Rawicz,,63-900,,51.6142868,16.8433772,False,,,,,,,,,,,,,,,,,,,,,,,,,,,,,,,,,,,,,,,,,,,,,,,,,,,,,,,,,,,,,,,,,,,,,,,,,,,,,,,,30497
498,Szpital Powiatowy,,Starachowice,,27-200,,51.0653471,21.0723237,False,,,,,,,,,,,,,,,,,,,,,,,,,,,,,,,,,,,,,,,,,,,,,,,,,,,,,,,,,,,,,,,,,,,,,,,,,,,,,,,,30498
499,Szpital Powiatowy,,Żywiec,,34-300,+48 33 861-40-31,49.6932754,19.2031152,False,,,,,,,,,,,,,,,,,,,,,,,,,,,,,,,,,,,,,,,,,,,,,,,,,,,,,,,,,,,,,,,,,,,,,,,,,,,,,,,,30499
500,Szpital Powiatowy,Inwalidów Wojennych 26,Wołów,,56-100,,51.3405759,16.6392728,False,,,,,,,,,,,,,,,,,,,,,,,,,,,,,,,,,,,,,,,,,,,,,,,,,,,,,,,,,,,,,,,,,,,,,,,,,,,,,,,,30500
501,Szpital Powiatowy,,Szczytno,,12-100,,53.557599,20.9872388,False,,,,,,,,,,,,,,,,,,,,,,,,,,,,,,,,,,,,,,,,,,,,,,,,,,,,,,,,,,,,,,,,,,,,,,,,,,,,,,,,30501
502,"Szpital Powiatowy ""Zespół Opieki Zdrowotnej""",,Świętochłowice,,41-605,,50.3068235,18.9152631,False,,,,,,,,,,,,,,,,,,,,,,,,,,,,,,,,,,,,,,,,,,,,,,,,,,,,,,,,,,,,,,,,,,,,,,,,,,,,,,,,30502
503,Szpital Powiatowy - Oddział Chorób Wewnętrznych,Ignacego Jana Paderewskiego 11,Tczew,,83-100,,54.0851851,18.798579,False,,,,,,,,,,,,,,,,,,,,,,,,,,,,,,,,,,,,,,,,,,,,,,,,,,,,,,,,,,,,,,,,,,,,,,,,,,,,,,,,30503
504,Szpital Powiatowy - Oddział Zakaźny,Grunwaldzka 64,Lubliniec,,42-700,+48 34 356 24 15,50.6623443,18.6800192,False,,,,,,,,,,,,,,,,,,,,,,,,,,,,,,,,,,,,,,,,,,,,,,,,,,,,,,,,,,,,,,,,,,,,,,,,,,,,,,,,30504
505,Szpital Powiatowy SPZOZ,Stanisława Duboisa 68,Ostrów Mazowiecka,,07-300,,52.7989672,21.9120662,False,,,,,,,,,,,,,,,,,,,,,,,,,,,,,,,,,,,,,,,,,,,,,,,,,,,,,,,,,,,,,,,,,,,,,,,,,,,,,,,,30505
506,Szpital Powiatowy SPZZOZ. Oddział Psychiatryczny,,Czeladź,,41-250,,50.3266315,19.0766701,False,,,,,,,,,,,,,,,,,,,,,,,,,,,,,,,,,,,,,,,,,,,,,,,,,,,,,,,,,,,,,,,,,,,,,,,,,,,,,,,,30506
507,Szpital Powiatowy ZZOZ,Aleja Wolności 4,Ostrzeszów,,63-500,,51.4256626,17.9278189,False,,,,,,,,,,,,,,,,,,,,,,,,,,,,,,,,,,,,,,,,,,,,,,,,,,,,,,,,,,,,,,,,,,,,,,,,,,,,,,,,30507
508,Szpital Powiatowy im. Aleksandra Majkowskiego w Kartuzach,Floriana Ceynowy 7,Kartuzy,,83-300,+48 58 685 48 00,54.3368137,18.1977338,False,,,,,,,,,,,,,,,,,,,,,,,,,,,,,,,,,,,,,,,,,,,,,,,,,,,,,,,,,,,,,,,,,,,,,,,,,,,,,,,,30508
509,Szpital Powiatowy im. Edmunda Biernackiego w Opocznie,Partyzantów 30,Opoczno,,26-300,44 754 48 04,51.3783074,20.277828,False,,,,,,,,,,,,,,,,,,,,,,,,,,,,,,,,,,,,,,,,,,,,,,,,,,,,,,,,,,,,,,,,,,,,,,,,,,,,,,,,30509
510,Szpital Powiatowy im. Jana Pawła II,Kardynała Stefana Wyszyńskiego 11,Bartoszyce,,11-200,,54.258791,20.7916239,False,,,,,,,,,,,,,,,,,,,,,,,,,,,,,,,,,,,,,,,,,,,,,,,,,,,,,,,,,,,,,,,,,,,,,,,,,,,,,,,,30510
511,Szpital Powiatowy im. Jana Pawła II w Gryfinie,Parkowa 5,Gryfino,,74-100,+48 91 416 90 98;+48 91 416 23 54;+48 91 416 21 09,53.2548607,14.4912841,False,,,,,,,,,,,,,,,,,,,,,,,,,,,,,,,,,,,,,,,,,,,,,,,,,,,,,,,,,,,,,,,,,,,,,,,,,,,,,,,,30511
512,Szpital Powiatowy im. Jana Pawła II w Wadowicach,,Wadowice,,34-100,,49.8810345,19.4918789,False,,,,,,,,,,,,,,,,,,,,,,,,,,,,,,,,,,,,,,,,,,,,,,,,,,,,,,,,,,,,,,,,,,,,,,,,,,,,,,,,30512
513,Szpital Powiatowy im. M. Kajki,Wolności 3,Mrągowo,,11-700,,53.8797395,21.303158,False,,,,,,,,,,,,,,,,,,,,,,,,,,,,,,,,,,,,,,,,,,,,,,,,,,,,,,,,,,,,,,,,,,,,,,,,,,,,,,,,30513
514,Szpital Powiatowy im. Marcela Nenckiego,,Krotoszyn,,63-700,,51.6983523,17.4325824,False,,,,,,,,,,,,,,,,,,,,,,,,,,,,,,,,,,,,,,,,,,,,,,,,,,,,,,,,,,,,,,,,,,,,,,,,,,,,,,,,30514
515,Szpital Powiatowy im. Polskiego Czerwonego Krzyża,,Nisko,,37-400,,50.5199659,22.1426908,False,,,,,,,,,,,,,,,,,,,,,,,,,,,,,,,,,,,,,,,,,,,,,,,,,,,,,,,,,,,,,,,,,,,,,,,,,,,,,,,,30515
516,Szpital Powiatowy im. Prałata J.Glowatzkiego w Strzelcach Opolskich,,Strzelce Opolskie,,47-100,,50.5153433,18.2928621,False,,,,,,,,,,,,,,,,,,,,,,,,,,,,,,,,,,,,,,,,,,,,,,,,,,,,,,,,,,,,,,,,,,,,,,,,,,,,,,,,30516
517,Szpital Powiatowy im. Zbigniewa Koprowskiego,,Sokołów Podlaski,,08-300,,52.4036237,22.2394627,False,,,,,,,,,,,,,,,,,,,,,,,,,,,,,,,,,,,,,,,,,,,,,,,,,,,,,,,,,,,,,,,,,,,,,,,,,,,,,,,,30517
518,Szpital Powiatowy imienia doktora Tytusa Chałubińskiego w Zakopanem,,Zakopane,,34-500,,49.3052848,19.9548294,False,,,,,,,,,,,,,,,,,,,,,,,,,,,,,,,,,,,,,,,,,,,,,,,,,,,,,,,,,,,,,,,,,,,,,,,,,,,,,,,,30518
519,Szpital Powiatowy imienia świętego Maksymiliana,Wysokie Brzegi 4,Oświęcim,,32-600,,50.0394198,19.2389987,False,,,,,,,,,,,,,,,,,,,,,,,,,,,,,,,,,,,,,,,,,,,,,,,,,,,,,,,,,,,,,,,,,,,,,,,,,,,,,,,,30519
520,Szpital Powiatowy w Białogardzie,,Białogard,,78-200,,54.0076179,16.006636,False,,,,,,,,,,,,,,,,,,,,,,,,,,,,,,,,,,,,,,,,,,,,,,,,,,,,,,,,,,,,,,,,,,,,,,,,,,,,,,,,30520
521,Szpital Powiatowy w Białogardzie (stary szpital),,Białogard,,78-200,,54.0070473,15.9697401,False,,,,,,,,,,,,,,,,,,,,,,,,,,,,,,,,,,,,,,,,,,,,,,,,,,,,,,,,,,,,,,,,,,,,,,,,,,,,,,,,30521
522,Szpital Powiatowy w Chrzanowie,,Chrzanów,,32-500,,50.1344407,19.4292324,False,,,,,,,,,,,,,,,,,,,,,,,,,,,,,,,,,,,,,,,,,,,,,,,,,,,,,,,,,,,,,,,,,,,,,,,,,,,,,,,,30522
523,Szpital Powiatowy w Kolbuszowej,,Kolbuszowa,,36-100,,50.2434871,21.7628199,False,,,,,,,,,,,,,,,,,,,,,,,,,,,,,,,,,,,,,,,,,,,,,,,,,,,,,,,,,,,,,,,,,,,,,,,,,,,,,,,,30523
524,Szpital Powiatowy w Kozienicach,aleja gen. Władysława Sikorskiego 10,Kozienice,,26-900,,51.5910192,21.5249765,False,,,,,,,,,,,,,,,,,,,,,,,,,,,,,,,,,,,,,,,,,,,,,,,,,,,,,,,,,,,,,,,,,,,,,,,,,,,,,,,,30524
525,Szpital Powiatowy w Kraśniku,Fryderyka Chopina 13,Kraśnik,,23-200,,50.9326736,22.2218654,False,,,,,,,,,,,,,,,,,,,,,,,,,,,,,,,,,,,,,,,,,,,,,,,,,,,,,,,,,,,,,,,,,,,,,,,,,,,,,,,,30525
526,Szpital Powiatowy w Kętrzynie,Marii Skłodowskiej-Curie 2,Kętrzyn,,11-400,,54.0825414,21.3755694,False,,,,,,,,,,,,,,,,,,,,,,,,,,,,,,,,,,,,,,,,,,,,,,,,,,,,,,,,,,,,,,,,,,,,,,,,,,,,,,,,30526
527,Szpital Powiatowy w Międzyrzecu Podlaskim,Warszawska 2-4,Międzyrzec Podlaski,,21-560,+48833714011,51.9851536,22.7871129,False,,,,,,,,,,,,,,,,,,,,,,,,,,,,,,,,,,,,,,,,,,,,,,,,,,,,,,,,,,,,,,,,,,,,,,,,,,,,,,,,30527
528,Szpital Powiatowy w Mińsku Mazowieckim,,Mińsk Mazowiecki,,05-300,+48 25 758 30 01,52.1738692,21.580234,False,,,,,,,,,,,,,,,,,,,,,,,,,,,,,,,,,,,,,,,,,,,,,,,,,,,,,,,,,,,,,,,,,,,,,,,,,,,,,,,,30528
529,Szpital Powiatowy w Oleśnie,,,,,,50.8814855,18.4134058,False,,,,,,,,,,,,,,,,,,,,,,,,,,,,,,,,,,,,,,,,,,,,,,,,,,,,,,,,,,,,,,,,,,,,,,,,,,,,,,,,30529
530,Szpital Powiatowy w Otwocku,,Otwock,,05-400,,52.0990462,21.260687,False,,,,,,,,,,,,,,,,,,,,,,,,,,,,,,,,,,,,,,,,,,,,,,,,,,,,,,,,,,,,,,,,,,,,,,,,,,,,,,,,30530
531,Szpital Powiatowy w Oławie,,Oława,,55-200,,50.9510646,17.2839605,False,,,,,,,,,,,,,,,,,,,,,,,,,,,,,,,,,,,,,,,,,,,,,,,,,,,,,,,,,,,,,,,,,,,,,,,,,,,,,,,,30531
