,id,name,address,city,state,zip,county,phone,type,ownership,emergency,quality,LAT,LON
0,20000,13 - LFI-Gebäude,Kerpener Straße 62,Köln,Köln,50937,,,,,,,50.9244879,6.9166819
1,20001,ACURA Kliniken Albstadt GmbH,Robert-Koch-Straße 26,Albstadt,Zollernalbkreis,72461,,,,,,,48.2374484,9.0335627
2,20002,AGAPLESION Bethesda Klinik Ulm,,Ulm,Ulm,89073,,,,,,,48.4019156,10.0072453
3,20003,AHG Klinik,Ferndorfstraße 14,,Siegen-wittgenstein,,,,,,,,50.9986983,8.1151191
4,20004,AHG Klinik Hardberg,,,Hessen,,,,,,No,,49.8314615,9.0152812
5,20005,AHG Klinik Römhild,,Römhild,Hildburghausen,98630,,,,,,,50.3897749,10.5642372
6,20006,AHG Klinik und Moorbad,Gesundbrunnenstraße 33,Bad Freienwalde (Oder),Brandenburg,16259,,,,,No,,52.7737526,14.0211734
7,20007,AMEOS Innere Kliniken,Am Gradierwerk 3,Schönebeck (Elbe),Salzlandkreis,39218,,,,,,,51.9964337,11.7158944
8,20008,AMEOS Klinikum,Tiroler Ring 621-623,Kiel,Kiel,24146,,+49 431 780530,,,No,,54.2966377,10.1850872
9,20009,AMEOS Klinikum,,Hildesheim,Niedersachsen,31134,,,,,,,52.1424746,9.9802635
10,20010,AMEOS Klinikum Alfeld,Landrat-Beushausen-Straße 26,Alfeld (Leine),Niedersachsen,31061,,,,,Yes,,51.9941487,9.8336998
11,20011,AMEOS Klinikum Heiligenhafen,Friedrich-Ebert-Straße 100,Heiligenhafen,Ostholstein,23774,,,,,,,54.3729246,10.963551
12,20012,AMEOS Klinikum Inntal,Jakob-Weindler-Straße 1,Simbach am Inn,Bayern,84359,,,,,,,48.262761,13.0146051
13,20013,AMEOS Klinikum Kaiserstuhl,Brunngasse 1,Vogtsburg im Kaiserstuhl,Breisgau-hochschwarzwald,79235,,,,,No,,48.1049675,7.6309155
14,20014,AMEOS Klinikum Mitte Bremerhaven,Wiener Straße 1,Bremerhaven,Bremen,27568,,+49 471 4805 0,,,,,53.5521666,8.576482
15,20015,AMEOS Klinikum Neustadt,Wiesenhof nan,Neustadt in Holstein,Ostholstein,23730,,+49 4561 6110,,,,,54.1075131,10.7927989
16,20016,AMEOS Klinikum Preetz,Am Krankenhaus 5a,Preetz,Plön,24211,,,,,,,54.2389886,10.2761173
17,20017,AMEOS Klinikum Schönebeck,,Schönebeck (Elbe),Salzlandkreis,39218,,,,,,,52.0130586,11.7400112
18,20018,AMEOS Klinikum Seepark Geestland,Langener Straße 66,Geestland,Niedersachsen,27607,,+49 4743 893 0,,,,,53.6166664,8.6279875
19,20019,AMEOS Klinikum St. Salvator Halberstadt,Gleimstraße 5,Halberstadt,Harz,38820,,,,,Yes,,51.9009511,11.0533717
20,20020,AMEOS Klinikum ehem. Sana-Klinkum,Kiefholzstraße 27,Haldensleben,Börde,39340,,,,,,,52.2861988,11.3784845
21,20021,ASB Rettungshundestaffel Hattingen,,Hattingen,Ennepe-ruhr-kreis,45527,,,,,No,,51.4134547,7.2003187
22,20022,ASKLEPIOS Klinik Schaufling,Hausstein 2,Schaufling,Bayern,94571,,+49 9904 770,,,,,48.8623668,13.0649632
23,20023,ATOS Klinik,Bismarckstraße 9-15,Heidelberg,Heidelberg,69115,,+49 6221 983-0,,,,,49.4101697,8.6917653
24,20024,ATOS-Klinik,Effnerstraße 38,München,Bayern,81925,,,,,No,,48.1545022,11.6165521
25,20025,AWO Krankenhaus Calbe,,Calbe (Saale),Salzlandkreis,39240,,,,,,,51.9034601,11.7672402
26,20026,AWO Psychiatriezentrum,Vor dem Kaiserdom 10,Königslutter am Elm,Niedersachsen,38154,,,,,,,52.2468005,10.8108312
27,20027,Aatalklinik,,Bad Wünnenberg,Paderborn,33181,,,,,No,,51.5177884,8.7005009
28,20028,Abtseeklinik,,Laufen,Bayern,83410,,,,,,,47.9145093,12.907351
29,20029,Achenbach Krankenhaus,Köpenicker Straße 29,Königs Wusterhausen,Brandenburg,15711,,,,,,,52.3020087,13.6266279
30,20030,Achertalklinik für Psychiatrie und Psychotherapie,Markgraf-Bernhard-Straße 2,Ottenhöfen im Schwarzwald,Ortenaukreis,77883,,,,,,,48.565932,8.1551233
31,20031,Agaplesion Allgemeines Krankenhaus Hagen,,Hagen,Hagen,58095,,+49 2331 201 0,,,,,51.3547053,7.4654817
32,20032,Agaplesion Diakonieklinikum Rotenburg,Elise-Averdieck-Straße 17,Rotenburg (Wümme),Niedersachsen,27356,,,,,Yes,,53.1057597,9.4115161
33,20033,Agaplesion Evangelisches Klinikum Schaumburg gGmbH,Zum Schaumburger Klinikum 1,Obernkirchen,Niedersachsen,31683,,+49 5724 95800,,,Yes,,52.2657349,9.1030571
34,20034,Agaplesion Neu-Bethlehem,Humboldtallee 8,Göttingen,Niedersachsen,37073,,,,,,,51.5403849,9.9427453
35,20035,Agaplesion evangelisches Krankenhaus Holzminden,Forster Weg 34,Holzminden,Niedersachsen,37603,,+49 5531 7050,,,Yes,,51.8350038,9.4554437
36,20036,Aggertalklinik Engelskirchen,,Engelskirchen,Oberbergischer Kreis,51766,,,,,,,50.9873842,7.3828234
37,20037,Albert-Schweitzer-Therapeutikum Holzminden,Pipping 5,Holzminden,Niedersachsen,37603,,,,,No,,51.8247852,9.4832008
38,20038,Albertinen-HausZentrum für Geriatrie und Gerontologie,,Hamburg,Hamburg,22457,,,,,,,53.6282975,9.9247635
39,20039,Albklinik Münsingen,,Münsingen,Reutlingen,72525,,,,,Yes,,48.404206,9.4903384
40,20040,Alexianer Krankenhaus,,Aachen,Aachen,52062,,,,,No,,50.7715719,6.0812264
41,20041,"Alexianer Krankenhaus, Tagesklinik",Mörgensstraße 17,Aachen,Aachen,52062,,,,,,,50.7711244,6.081369
42,20042,Alexianer Münster GmbH,Alexianerweg 9,Münster,Münster,48143,,,,,,,51.8774938,7.563717
43,20043,Alexianer St. Joseph Krankenhaus Berlin-Weißensee,,Berlin,Berlin,13088,,,,,Yes,,52.5515022,13.4681057
44,20044,Alexianer-Krankenhaus Köln,,Köln,Köln,51149,,,,,,,50.8975184,7.0387132
45,20045,Alfried-Krupp-Krankenhaus,,Essen,Essen,45130,,,,,,,51.4242048,7.0064736
46,20046,Alice-Hospital,,Darmstadt,Hessen,64283,,,,,,,49.8770681,8.6665289
47,20047,Aller-Weser-Klinik Verden,Eitzer Straße 20,Verden (Aller),Niedersachsen,27283,,,,,,,52.9131391,9.2309496
48,20048,Allgemeines Krankenhaus,Krankenhausstraße 2,Bad Segeberg,Segeberg,23795,,,,,,,53.9419702,10.3094344
49,20049,Allgemeines Krankenhaus Viersen,Hoserkirchweg 63,Viersen,Viersen,41747,,,,,,,51.249686,6.3816752
50,20050,Allgemeinspychatrische Tagesklinik,Allerstraße 1,Dortmund,Dortmund,44287,,,,,,,51.5046925,7.5479277
51,20051,Altbau Feuerwehrstraße,Humboldtstraße 5,Hannover,Niedersachsen,30169,,,,,,,52.3710635,9.7257221
52,20052,Altenzentrum Bethesda,,Bad Salzuflen,Lippe,32105,,,,,,,52.0894959,8.7455478
53,20053,Alter Marienbau,Böheimstraße 37,Stuttgart,Stuttgart,70178,,,,,,,48.7613172,9.1628345
54,20054,Altmark-Klinikum,Brunnenstraße 1,Salzwedel,Altmarkkreis Salzwedel,29410,,,,,,,52.8558422,11.1454543
55,20055,Altmark-Klinikum Gardelegen,,Gardelegen,Altmarkkreis Salzwedel,39638,,,,,,,52.5230508,11.3819077
56,20056,Altonaer Kinderkrankenhaus,,Hamburg,Hamburg,22765,,+49 40 88908-0,,,Yes,,53.551203,9.9127621
57,20057,Amalie-Sieveking-Krankenhaus,Haselkamp 33,Hamburg,Hamburg,22359,,,,,Yes,,53.641079,10.1523153
58,20058,Ambulanz,Humboldtstraße 5,Hannover,Niedersachsen,30169,,,,,,,52.3705849,9.7246299
59,20059,Ameos Klinikum Anklam,Hospitalstraße 19,Anklam,Vorpommern-greifswald,17389,,+49 3971 834 0,,,Yes,,53.8485829,13.6994424
60,20060,Ameos Klinikum Dr. Heines,Rockwinkeler Landstraße 110,Bremen,Bremen,28355,,,,,,,53.0773621,8.9412687
61,20061,Ameos-Klinikum,Eislebener Straße 7a,Aschersleben,Salzlandkreis,06449,,+49 3473 970,,,,,51.745516,11.458327
62,20062,Anmeldung,,Freiburg im Breisgau,Freiburg Im Breisgau,79104,,,,,,,48.0079003,7.8574535
63,20063,Annastift,,Hannover,Niedersachsen,30625,,,,,,,52.3692491,9.8094516
64,20064,Arona Klinik für Altersmedizin,Blumberger Damm 26,Berlin,Berlin,12683,,,,,,,52.5148157,13.5643894
65,20065,Artemed Fachklinik,,Bad Oeynhausen,Minden-lübbecke,32545,,,,,,,52.2042841,8.8044855
66,20066,Arztgruppe,,Meßstetten,Zollernalbkreis,72469,,,,,,,48.187097,8.9982136
67,20067,Arztpraxi Michael Stegherr,Hauptstraße 56,Holzheim,Bayern,89438,,,,,,,48.5122176,10.5184662
68,20068,Asklepios Burgseekliniken (Parkklinik),Burgseestraße 5,Bad Salzungen,Wartburgkreis,36433,,,,,Yes,,50.8078264,10.2387531
69,20069,Asklepios Fachklinikum Brandenburg,Anton-Saefkow-Allee 2,Brandenburg an der Havel,Brandenburg,14776,,+49 3381 780,,,,,52.4188683,12.4790432
70,20070,Asklepios Fachklinikum Göttingen,Rosdorfer Weg 70,Göttingen,Niedersachsen,37073,,,,,,,51.5224448,9.9197306
71,20071,Asklepios Fachklinikum Lübben,Luckauer Straße 17,Lübben (Spreewald),Brandenburg,15907,,+49 3546 290,,,,,51.9361274,13.8887415
72,20072,Asklepios Fachklinikum Stadtroda,Bahnhofstraße 1a,Stadtroda,Saale-holzland-kreis,07646,,,,,,,50.8602592,11.7246536
73,20073,Asklepios Fachklinikum Teupitz,,Teupitz,Brandenburg,15755,,,,,,,52.1305598,13.6202631
74,20074,Asklepios Fachklinikum Tiefenbrunn,Tiefenbrunn nan,Rosdorf,Niedersachsen,37124,,,,,,,51.4976353,9.8775047
75,20075,Asklepios Harzklinik Bad Harzburg,Ilsenburger Straße 95,Bad Harzburg,Niedersachsen,38667,,,,,,,51.8861171,10.5773992
76,20076,Asklepios Harzklinik Clausthal-Zellerfeld,Windmühlenstraße 1,,Niedersachsen,,,,,,,,51.8081658,10.3334135
77,20077,Asklepios Harzklinik Goslar,Kösliner Straße 12,Goslar,Niedersachsen,38640,,,,,,,51.9296304,10.4421415
78,20078,Asklepios Klinik,,Bad Abbach,Bayern,93077,,,,,,,48.9333299,12.038881
79,20079,Asklepios Klinik,Lindenstraße 12,Alsbach-Hähnlein,Hessen,64665,,,,,,,49.740714,8.6284636
80,20080,Asklepios Klinik Altona,Paul-Ehrlich-Straße 1,Hamburg,Hamburg,22605,,,,,Yes,,53.5539937,9.9038601
81,20081,Asklepios Klinik Barmbek,Rübenkamp 220,Hamburg,Hamburg,22307,,+49 40 181882 0,,,,,53.6075958,10.0345707
82,20082,Asklepios Klinik Birkenwerder,Hubertusstraße 12-22,Birkenwerder,Brandenburg,16547,,+49 3303 5220,,,,,52.6908789,13.2973136
83,20083,Asklepios Klinik Harburg,Eißendorfer Pferdeweg 52,Hamburg,Hamburg,21075,,,,,Yes,,53.4588012,9.9513749
84,20084,Asklepios Klinik Langen,,Langen (Hessen),Hessen,63225,,,,,Yes,,49.9995557,8.6834252
85,20085,Asklepios Klinik Lich,,Lich,Hessen,35423,,,,,,,50.5259816,8.8063788
86,20086,Asklepios Klinik Melsungen,Kasseler Straße 80,Melsungen,Hessen,34212,,,,,Yes,,51.1376577,9.5399847
87,20087,Asklepios Klinik Nord Heidberg,,Hamburg,Hamburg,22415,,+49 40 1818870,,,Yes,,53.6773475,10.030166
88,20088,Asklepios Klinik Nord Ochsenzoll,,Hamburg,Hamburg,22415,,,,,,,53.6756023,10.0060852
89,20089,Asklepios Klinik Pasewalk,Prenzlauer Chaussee 30,Pasewalk,Vorpommern-greifswald,17309,,+49 3973 230,,,Yes,,53.4903734,13.9832746
90,20090,Asklepios Klinik Sankt Augustin,,Sankt Augustin,Rhein-sieg-kreis,53757,,,,,,,50.7749165,7.1800886
91,20091,Asklepios Klinik Seligenstadt,,Seligenstadt,Hessen,63500,,,,,Yes,,50.0420353,8.9630013
92,20092,Asklepios Klinik St. Georg,Lohmühlenstraße 5,Hamburg,Hamburg,20099,,+49 40 181885 0,,,Yes,,53.5609367,10.0179546
93,20093,Asklepios Klinik Triberg,Ludwigstraße 1,Triberg im Schwarzwald,Schwarzwald-baar-kreis,78098,,+49 7722 9550,,,,,48.1284163,8.2311482
94,20094,Asklepios Klinik Wandsbek,Alphonsstraße 14,Hamburg,Hamburg,22043,,+49 40 181883-0,,,Yes,,53.5709778,10.0901034
95,20095,Asklepios Klinik am Kurpark,Am Kurpark 6-12,Bad Schwartau,Ostholstein,23611,,,,,,,53.9212932,10.7001866
96,20096,Asklepios Kliniken Schildautal,Karl-Herold-Straße 1,,Niedersachsen,,,,,,,,51.8828744,10.2146076
97,20097,Asklepios Neurologische Klinik Falkenstein,Asklepiosweg 15,Königstein im Taunus,Hessen,61462,,,,,No,,50.1909439,8.4838085
98,20098,Asklepios Nordseeklinik,Norderstraße 81,,Nordfriesland,,,+49 4651 84 0,,,Yes,,54.9259941,8.3161293
99,20099,Asklepios Privatklinik,Schützenstraße 17,Bad Tölz,Bayern,83646,,,,,No,,47.7574046,11.5495031
100,20100,Asklepios Stadtklinik,Schützenstraße 15,Bad Tölz,Bayern,83646,,+49 8041 507-01,,,Yes,,47.7572767,11.5516352
101,20101,Asklepios Stadtklinik,Schützenstraße 15,Bad Tölz,Bayern,83646,,+49 8041 507-01,,,Yes,,47.7572217,11.5515325
102,20102,Asklepios Stadtklinik Bad Wildungen,Brunnenallee nan,Bad Wildungen,Hessen,34537,,+49 5621 795 0,,,,,51.1180614,9.1148564
103,20103,Asklepios Südpfalzklinik Germersheim,,Germersheim,Germersheim,76726,,+49 7274 504 0,,,Yes,,49.220226,8.3650734
104,20104,Asklepios Südpfalzklinik Kandel,,Kandel,Germersheim,76870,,+49 7275 71-0,,,,,49.0855913,8.2000356
105,20105,Asklepios Tagesklinik,Friedländer Weg 55,Göttingen,Niedersachsen,37073,,,,,,,51.5285255,9.9466762
106,20106,Asklepios Westklinikum Hamburg,Suurheid 20,Hamburg,Hamburg,22559,,+49 40 8191 0,,,,,53.5822195,9.7729113
107,20107,Asklepios-Klinik Bad Oldesloe,Schützenstraße 55,Bad Oldesloe,Stormarn,23843,,,,,Yes,,53.8119651,10.3644108
108,20108,Asklepios-Paulinen-Klinik,Geisenheimer Straße 10,Wiesbaden,Hessen,65197,,,,,Yes,,50.0722682,8.2259214
109,20109,Augenklinik,,Brilon,Hochsauerlandkreis,59929,,,,,,,51.3843945,8.5832589
110,20110,Augenklinik,Doberaner Straße 140,Rostock,Rostock (stadt),18057,,,,,,,54.0902615,12.1184652
111,20111,Augenklinik Berlin Marzahn,Brebacher Weg 15,Berlin,Berlin,12683,,,,,,,52.5146269,13.5670486
112,20112,Augenklinik Herzog Carl Theodor,Nymphenburger Straße 43,München,Bayern,80333,,,,,,,48.1483651,11.5503431
113,20113,Augenklinik Universitätsallee Bremen,Parkallee 301,Bremen,Bremen,28213,,,,,,,53.1049502,8.841574
114,20114,Augenklinik der Universität München,Mathildenstraße 8,München,Bayern,80336,,,,,,,48.135674,11.5632237
115,20115,Augenklinik-Ambulanz,,Mannheim,Mannheim,68167,,,,,,,49.4930129,8.486602
116,20116,Augenklinik;Medizinische Klinik,Beurhausstraße 40,Dortmund,Dortmund,44137,,,,,,,51.5083699,7.456681
117,20117,August-Bier-Klinik,Diekseepromenade 7-11,Malente,Ostholstein,23714,,+49 4523 405 0,,,No,,54.1648167,10.5473668
118,20118,Augusta Krankenhaus,Amalienstraße 9,Düsseldorf,Düsseldorf,40472,,+49 211 90430,,,,,51.2669255,6.8256134
119,20119,Augusta-Klinik Bochum-Mitte,Bergstraße 26,Bochum,Bochum,44787,,+49 234 517-0,,,Yes,,51.4858641,7.2214815
120,20120,Augusta-Kranken-Anstalt Bochum-Linden,,Bochum,Bochum,44879,,,,,,,51.4233628,7.1579211
121,20121,Augustahospital Anholt,,Isselburg,Borken,46419,,,,,No,,51.8491321,6.4324034
122,20122,Auguste-Viktoria-Klinik,,Bad Oeynhausen,Minden-lübbecke,32545,,,,,,,52.2065095,8.7860134
123,20123,Auguste-Viktoria-Klinikum,Rubensstraße 125,Berlin,Berlin,12157,,+49 30 130200,,,Yes,,52.459274,13.348324
124,20124,Aussentreppe,,Stuttgart,Stuttgart,70178,,,,,,,48.7583364,9.1623642
125,20125,BDH-Klinik Hessisch Oldendorf,Greitstraße 18-28,Hessisch Oldendorf,Niedersachsen,31840,,+49 5152 781 0,,,,,52.1746079,9.2485358
126,20126,BDH-Klinik Vallendar,,Vallendar,Mayen-koblenz,56179,,,,,,,50.4001838,7.6112292
127,20127,BG Klinik Ludwigshafen,,Ludwigshafen am Rhein,Ludwigshafen Am Rhein,67059,,,,,Yes,,49.4867865,8.3907591
128,20128,BG Klinikum Bergmannstrost Halle,Merseburger Straße 165,Halle (Saale),Halle (saale),06130,,,,,Yes,,51.4611451,11.9839408
129,20129,BG Klinikum Duisburg,Großenbaumer Allee 260,Duisburg,Duisburg,47249,,+49 203 7688-0,,,Yes,,51.3795897,6.7817458
130,20130,BG Unfallklinik,Friedberger Landstraße 430,Frankfurt am Main,Hessen,60389,,,,,Yes,,50.1433208,8.7086977
131,20131,BRK Bereitschaft Großostheim,Wallstädter Weg 16,Großostheim,Bayern,63762,,,,,,,49.9160479,9.086654
132,20132,Balzerbornkliniken,Balzerbornweg 27,Bad Sooden-Allendorf,Hessen,37242,,,,,,,51.263076,9.9673599
133,20133,Barbarossa Klinik,Lange Straße 111,Kelbra (Kyffhäuser),Mansfeld-südharz,06537,,,,,,,51.4309115,11.0288662
134,20134,Barmherzige Brüder Saffig,,Saffig,Mayen-koblenz,56648,,,,,No,,50.3773691,7.4196877
135,20135,Baumholder Army Health Clinic,,Baumholder,Birkenfeld,55774,,,,,Yes,,49.6150147,7.3276666
136,20136,Benedictus Krankenhaus Feldafing,,Feldafing,Bayern,82340,,,,,,,47.9514315,11.2986639
137,20137,Benedictus Krankenhaus Tutzing,Bahnhofstraße 5,Tutzing,Bayern,82327,,+498158230,,,Yes,,47.9070843,11.2773086
138,20138,Bereich Bachstraße,,Jena,Jena,07743,,,,,,,50.9297313,11.5762497
139,20139,Bereich Dornburger Straße,,Jena,Jena,07743,,,,,,,50.9374977,11.5883953
140,20140,Bereich Erfurter Straße,,Jena,Jena,07743,,,,,,,50.9350952,11.5638731
141,20141,Bereich Landgrafengebiet,,Jena,Jena,07743,,,,,,,50.9335487,11.578504
142,20142,Bereich Stadtzentrum,,Jena,Jena,07743,,,,,,,50.9283432,11.5837448
143,20143,Berolina Klinik,,Löhne,Herford,32584,,,,,,,52.1982384,8.7839113
144,20144,Berolina Klinik,,Löhne,Herford,32584,,,,,,,52.1977202,8.7848645
145,20145,Berolina Klinik Haus 1,,Löhne,Herford,32584,,,,,,,52.1983983,8.7865856
146,20146,Berolina Klinik Haus 2,,Löhne,Herford,32584,,,,,,,52.1985944,8.7851357
147,20147,Berolina Klinik Haus 3,,Löhne,Herford,32584,,,,,,,52.1983536,8.7844949
148,20148,Bertha-Krankenhaus,Maiblumenstraße 5,Duisburg,Duisburg,47226,,+492065258461,,,No,,51.3967167,6.6993451
149,20149,Berufsgenossenschaftliche Klinikum Hamburg,,Hamburg,Hamburg,20354,,,,,Yes,,53.5053253,10.1754918
150,20150,Berufsgenossenschaftliche Unfallklinik,,Tübingen,Tübingen,72076,,,,,,,48.5345657,9.0356055
151,20151,Berufsgenossenschaftliches Universitätsklinikum Bergmannsheil GmbH,Bürkle de la Camp-Platz 1,Bochum,Bochum,44789,,+49 234 302-0,,,,,51.4696801,7.2114771
152,20152,Beta Klink,"Joseph-Schumpeter-Allee 13,15,17",Bonn,Bonn,53113,,,,,,,50.7190578,7.1513438
153,20153,Bethanien-Krankenhaus,Rohrbacher Straße 149,Heidelberg,Heidelberg,69126,,,,,,,49.3922528,8.6903374
154,20154,Bethanienkrankenhaus,,Frankfurt am Main,Hessen,60385,,,,,,,50.128852,8.7062318
155,20155,Bethesda Krankenhaus,Euelsbruchstraße 39,,Frankfurt Am Main,,,+49 2734 2790,,,,,50.8994284,7.8639519
156,20156,Bethesda Krankenhaus Bergedorf,,Hamburg,Hamburg,21029,,,,,Yes,,53.4851697,10.2378179
157,20157,Bethesda-Krankenhaus,Hainstraße 15-35,Wuppertal,Wuppertal,42275,,,,,Yes,,51.2689813,7.1295141
158,20158,Bethlehem Gesundheitszentrum,Steinfeldstraße 5,Stolberg (Rheinland),Aachen,52222,,,,,Yes,,50.7727373,6.2303564
159,20159,Betriebskindertagesstätte Bergmännchen,Charlottenstraße 72,Potsdam,Brandenburg,14467,,,,,,,52.4022846,13.0673356
160,20160,Bettenhaus Nord,Humboldtstraße 5,Hannover,Niedersachsen,30169,,,,,,,52.3713576,9.7250108
161,20161,Bettenhaus Ost,Humboldtstraße 5,Hannover,Niedersachsen,30169,,,,,,,52.3707083,9.7255153
162,20162,Bettenhaus St. Antonius Hospital,,Kleve,Kleve,47533,,,,,Yes,,51.7730845,6.1351993
163,20163,Bettenhaus Süd,Humboldtstraße 5,Hannover,Niedersachsen,30169,,,,,,,52.3703039,9.7250165
164,20164,Bettenhaus West,Humboldtstraße 5,Hannover,Niedersachsen,30169,,,,,,,52.3706834,9.7237339
165,20165,Bezirksklinikum Ansbach,Feuchtwanger Straße 38,Ansbach,Bayern,91522,,+49 981 46530,,,,,49.2923824,10.5463923
166,20166,Bezirksklinikum Mainkofen,nan A3,Deggendorf,Bayern,94469,,+49 9931 870,,,,,48.8092673,12.8987088
167,20167,Bezirksklinikum Passau,,Passau,Bayern,94032,,,,,,,48.5665395,13.4465949
168,20168,Bezirksklinikum Wöllershof,Wöllershof 1,Störnstein,Bayern,92721,,,,,,,49.7478858,12.1829473
169,20169,Bezirkskrankenhaus,Nordring 2,Bayreuth,Bayern,95444,,+49 921 2830,,,,,49.9560246,11.5664323
170,20170,Bezirkskrankenhaus Augsburg,Dr.-Mack-Straße 1,Augsburg,Bayern,86156,,+49 821 4803-0,,,No,,48.3872283,10.830702
171,20171,Bezirkskrankenhaus I,,Parsberg,Bayern,92331,,,,,,,49.1556975,11.7199042
172,20172,Bezirkskrankenhaus II,Pfarrer-Fischer-Straße 8,Parsberg,Bayern,92331,,,,,,,49.1543897,11.718213
173,20173,Bezirkskrankenhaus Landshut,Prof.-Buchner-Straße 22,Landshut,Bayern,84034,,,,,,,48.5369034,12.1340016
174,20174,Bezirkskrankenhaus Straubing Forensisch-psychiatrische Klinik,Lerchenhaid 32,Straubing,Bayern,94315,,+49 9421 8005 0,,,No,,48.881204,12.5316865
175,20175,BfA Kurklinik Lipperland,,Bad Salzuflen,Lippe,32105,,,,,,,52.0898202,8.755546
176,20176,BfA-Klinik,,Bad Schmiedeberg,Wittenberg,06905,,,,,,,51.6770602,12.7297437
177,20177,Birkle Klinik,Obere Sankt-Leonhard-Straße 55,Überlingen,Bodenseekreis,88662,,+4975518030,,,,,47.7662515,9.1816137
178,20178,Blutspende/ Transfusionsmedizin,Schillerstraße 8a,Erlangen,Bayern,91054,,,,,,,49.5992662,11.0162241
179,20179,Boddenklinik,Sandhufe 2,Ribnitz-Damgarten,Vorpommern-rügen,18311,,,,,,,54.2366408,12.4443286
180,20180,Bonifatius Hospital,Wilhelmstraße 13,Lingen (Ems),Niedersachsen,49808,,+49 591 910 0,,,,,52.5230787,7.3165927
181,20181,Borromäus Hospital,Kirchstraße 61-67,Leer (Ostfriesland),Niedersachsen,26789,,+49 491 85 0,,,,,53.2279729,7.443341
182,20182,Brohltal-Klinik St. Josef,,Burgbrohl,Ahrweiler,56659,,+49 2636 530,,,No,,50.4562327,7.2790297
183,20183,Bruder-Klaus-Krankenhaus,Heitereweg 10,Waldkirch,Emmendingen,79183,,+49 7681 2080,,,Yes,,48.0978363,7.9521019
184,20184,Brüderhaus Koblenz,Kardinal-Krementz-Straße 1-5,Koblenz,Koblenz,56068,,,,,,,50.3530251,7.5856822
185,20185,Brüderkrankenhaus Montabaur,,Montabaur,Westerwaldkreis,56410,,,,,Yes,,50.4315998,7.8315824
186,20186,Brüderkrankenhaus Sankt Josef,,Paderborn,Paderborn,33098,,,,,,,51.7112235,8.757529
187,20187,Buchberg-Klinik Bad Tölz,Wengleinstraße 20,Bad Tölz,Bayern,83646,,+49 8041 803–0,,,,,47.759948,11.5397137
188,20188,Buchinger Wilhelmi - Fachklinik für Heilfasten,Wilhelm-Beck-Straße 27,Überlingen,Bodenseekreis,88662,,,,,,,47.771722,9.1456908
189,20189,Bundeswehr Dienstelle - Facharztzentrum Amberg,Köferinger Straße 1,Amberg,Bayern,92224,,,,,,,49.4293458,11.8551821
190,20190,Bundeswehrkrankenhaus Berlin,Scharnhorststraße 13,Berlin,Berlin,10115,,,,,Yes,,52.5341693,13.3707029
191,20191,Bundeswehrkrankenhaus Ulm,Oberer Eselsberg 40,Ulm,Ulm,89081,,,,,Yes,,48.424998,9.9484704
192,20192,Burghof-Klinik Haus 1,Ritterstraße 19,Rinteln,Niedersachsen,31737,,,,,,,52.1846172,9.0812673
193,20193,Burghof-Klinik Haus 3,Virchowstraße 9,Rinteln,Niedersachsen,31737,,,,,No,,52.2044955,9.0731635
194,20194,Burghofklinik,Burgallee 22,Bad Nauheim,Hessen,61231,,,,,No,,50.3673789,8.7343993
195,20195,Bürgerhospital,,Frankfurt am Main,Hessen,60318,,,,,,,50.1309709,8.6860708
196,20196,Bürgerhospital Friedberg,,Friedberg (Hessen),Hessen,61169,,,,,Yes,,50.3353622,8.7508001
197,20197,CELENUS ALGOS-Klinik,Hermann-Sachse-Straße 36,Bad Klosterlausnitz,Saale-holzland-kreis,07639,,,,,,,50.9196823,11.8635389
198,20198,Caduceus Fachkrankenhaus,Niendorfer Weg 5,Bad Bevensen,Niedersachsen,29549,,+49 5821 9775 0,,,,,53.0906986,10.6023672
199,20199,Cantine / Cafeteria,Am Vogelherd 18,Wangen im Allgäu,Ravensburg,88239,,,,,,,47.6995815,9.8358592
200,20200,Capio Elbe-Jeetzel-Klinik,Hermann-Löns-Straße 2,Dannenberg (Elbe),Niedersachsen,29451,,,,,,,53.0835891,11.0801559
201,20201,Capio Franz von Prümmer Klinik,Bahnhofstraße 16,Bad Brückenau,Bayern,97769,,,,,,,50.3079623,9.7842837
202,20202,Capio Hofgartenklinik,Hofgartenstraße 6,Aschaffenburg,Bayern,63739,,,,,,,49.9754076,9.1549298
203,20203,Capio Klinik im Park,Hagelkreuzstraße 37,Hilden,Mettmann,40721,,,,,,,51.1642695,6.9372894
204,20204,Capio Krankenhaus Land Hadeln,Große Ortstraße 85,Otterndorf,Niedersachsen,21762,,+49 4751 908 0,,,,,53.8111681,8.8891192
205,20205,Capio Mathilden-Hospital,Am Schlag 9,Büdingen,Hessen,63654,,+49 6042 86 0,,,Yes,,50.2869378,9.1130517
206,20206,Caritas Zentrum Memmingen,,Memmingen,Bayern,87700,,,,,,,47.986839,10.1901462
207,20207,Caritas-Heim Maria am See,Am Stadion 14,Bad Salzungen,Wartburgkreis,36433,,,,,,,50.8070096,10.2375152
208,20208,Caritas-Krankenhaus Lebach,,Lebach,Saarland,66822,,+49 6881 501-0,,,,,49.4188158,6.8908661
209,20209,Caritas-Krankenhaus Sankt Josef,Landshuter Straße 65,Regensburg,Bayern,93053,,+49 941 782-0,,,Yes,,49.0066384,12.1193046
210,20210,CaritasKlinikum Saarbrücken St. Josef Dudweiler,Klosterstraße 14,Saarbrücken,Saarland,66125,,,,,Yes,,49.2773142,7.040423
211,20211,CaritasKlinikum Saarbrücken St. Theresia,Rheinstraße 2,Saarbrücken,Saarland,66113,,,,,Yes,,49.2484563,6.9576049
212,20212,Carl-Thiem-Klinikum,Thiemstraße 111,Cottbus,Brandenburg,03048,,,,,Yes,,51.7435854,14.3179285
213,20213,Carl-von-Basedow-Klinikum,,Querfurt,Saalekreis,06268,,,,,,,51.3708204,11.6055095
214,20214,Celenus Fachklinik Freiburg,An den Heilquellen 2,,Saalekreis,,,+49 761 888590,,,No,,47.982829,7.7667405
215,20215,Centralklinik Pforzheim,,Pforzheim,Pforzheim,75172,,,,,,,48.8906898,8.696982
216,20216,Charité Campus Virchow Klinikum,Augustenburger Platz 1,Berlin,Berlin,13353,,+49 30 45050,,,Yes,,52.5424688,13.3403456
217,20217,Charité Universitätsmedizin Berlin,,Berlin,Berlin,10178,,,,,Yes,,52.5256197,13.380129
218,20218,Charité-Campus Benjamin Franklin,Hindenburgdamm 30,Berlin,Berlin,12207,,,,,Yes,,52.4402845,13.3165958
219,20219,Charlottenhall,Mathilde-Wurm-Straße 7,Bad Salzungen,Wartburgkreis,36433,,+49 3695 6923-0,,,,,50.8130803,10.2306968
220,20220,Chiemgau Klinik Marquartstein,,Marquartstein,Bayern,83250,,,,,,,47.7473969,12.4586703
221,20221,Chirurgie/Neurologie,Beurhausstraße 40,Dortmund,Dortmund,44137,,,,,,,51.5087035,7.4569158
222,20222,Chirurgische Klinik,Beurhausstraße 45,Dortmund,Dortmund,44137,,,,,,,51.5093675,7.456279
223,20223,Chirurgische Klinik,Im Neuenheimer Feld 110-112,Heidelberg,Heidelberg,69120,,,,,,,49.4123309,8.673231
224,20224,Chirurgische Klinik der Universität München,Nußbaumstraße 20,München,Bayern,80336,,+49 89 5160-0,,,,,48.1341513,11.5613893
225,20225,Chirurgische Privatklinik Bogenhausen,Denninger Straße 44,München,Bayern,81675,,+49 89 92794 0,,,Yes,,48.1485219,11.6149055
226,20226,Chirurgische Tagesklinik,,Freyung,Bayern,94078,,,,,,,48.8182319,13.5480427
227,20227,Christliches Kinderhospital Osnabrück,Johannisfreiheit 1,Osnabrück,Niedersachsen,49074,,,,,,,52.2699029,8.0534697
228,20228,Christophorus Klink (Fachklinik für den Maßregelvollzug),,Münster,Münster,48143,,,,,,,51.8790907,7.5591791
229,20229,Christophorus-Kliniken,Vollenstraße 10,Dülmen,Coesfeld,48249,,,,,Yes,,51.827739,7.2796777
230,20230,Christophorushaus,,München,Bayern,81925,,,,,No,,48.1592973,11.6202391
231,20231,Christophorushaus,,München,Bayern,81925,,,,,No,,48.1593338,11.6200581
232,20232,Christophsbad,Faurndauer Straße 6-28,Göppingen,Göppingen,73033,,+49 7161 601-0,,,,,48.7000639,9.6408302
233,20233,Clemens Hospital,Düesbergweg 124,Münster,Münster,48143,,+49 251 9760,,,Yes,,51.932343,7.6120325
234,20234,Clementine Kinderhospital,Theobald-Christ-Straße 16,Frankfurt am Main,Hessen,60316,,,,,Yes,,50.1143798,8.6979707
235,20235,Cochlear Implant Centrum,,Hannover,Niedersachsen,30627,,,,,,,52.3933918,9.7862982
236,20236,Collm Klinik Oschatz,Parkstraße 1,Oschatz,Sachsen,04758,,,,,Yes,,51.2931808,13.1135045
237,20237,Curtius-Klinik,Neue Kampstraße 2,Malente,Ostholstein,23714,,,,,,,54.1720486,10.5651428
238,20238,Cusanus-Krankenhaus Bernkastel-Kues,Karl-Binz-Weg 12,Bernkastel-Kues,Bernkastel-wittlich,54470,,,,,Yes,,49.9158042,7.0627634
239,20239,DIAKO,Gröpelinger Heerstraße 406-408,Bremen,Bremen,28237,,+49 421 6102 0,,,,,53.1254478,8.7446065
240,20240,DIAKO Fachklinik für Psychiatrie und Psychosomatik,Gammeltoft 8-15,Breklum,Nordfriesland,25821,,,,,,,54.6149365,8.9844229
241,20241,DIAKOVERE Friederikenstift Humboldtstraße,Humboldtstraße 5,Hannover,Niedersachsen,30169,,,,,Yes,,52.3721461,9.7236825
242,20242,DONAUISAR Klinikum Deggendorf,,Deggendorf,Bayern,94469,,+49 991 3800,,,,,48.8398881,12.9718723
243,20243,DRK Dorndiel/Klein-Umstadt,Seewiese 12,Groß-Umstadt,Hessen,64823,,,,,No,,49.8660605,9.0163288
244,20244,DRK Görwihl,Mühleberg 4,Görwihl,Waldshut,79733,,,,,,,47.6419856,8.0753585
245,20245,DRK Heim,Am Edenhof 3a,Hage,Niedersachsen,26524,,,,,,,53.600328,7.2892062
246,20246,DRK Kamillus Klinik Asbach,Hospitalstraße 6,Asbach,Neuwied,53567,,+49 2683 59-0,,,,,50.6668938,7.4241542
247,20247,DRK Kliniken Berlin - Köpenick,,Berlin,Berlin,12559,,,,,Yes,,52.4413806,13.5966884
248,20248,DRK Kliniken Berlin | Mitte,Drontheimer Straße 39,Berlin,Berlin,13359,,,,,,,52.5567096,13.3767948
249,20249,DRK Kliniken Westend,Spandauer Damm 130,Berlin,Berlin,14050,,+49303035-0,,,Yes,,52.5192059,13.2747074
250,20250,DRK Krankenhaus,Klützer Straße 14,Grevesmühlen,Nordwestmecklenburg,23936,,+49 3881 7260,,,,,53.868551,11.1832783
251,20251,DRK Krankenhaus Alzey,,Alzey,Alzey-worms,55232,,,,,Yes,,49.7463593,8.1049004
252,20252,DRK Krankenhaus Chemnitz-Rabenstein,Unritzstraße 23,Chemnitz,Sachsen,09117,,,,,Yes,,50.8226419,12.8239605
253,20253,DRK Krankenhaus Hachenburg,,Hachenburg,Westerwaldkreis,57627,,+49 2662 85-0,,,Yes,,50.6574368,7.8320141
254,20254,DRK Krankenhaus Kirchen,Bahnhofstraße 24,Kirchen (Sieg),Altenkirchen (westerwald),57548,,,,,,,50.8064925,7.8794497
255,20255,DRK Krankenhaus Sondershausen,Hospitalstraße 2,Sondershausen,Kyffhäuserkreis,99706,,+49 3632 670,,,Yes,,51.3745949,10.8772694
256,20256,DRK Manniske-Krankenhaus gGmbH,An der Wipper 2,Bad Frankenhausen/Kyffhäuser,Kyffhäuserkreis,06567,,,,,,,51.3569215,11.0946861
257,20257,DRK Unterkunft Staufenberg,,Staufenberg,Hessen,35460,,,,,No,,50.6579792,8.7385159
258,20258,DRK-Fachklinik Hahnknüll,Hahnknüll 58,Neumünster,Neumünster,24534,,,,,,,54.0977021,9.9474956
259,20259,DRK-Kinderklinik,,Siegen,Siegen-wittgenstein,57072,,,,,,,50.8823647,8.0185374
260,20260,"DRK-Kliniken Nordhessen, Standort Kaufungen",,,Hessen,,,+49 5605 9450,,,No,,51.2845303,9.648158
261,20261,"DRK-Kliniken Nordhessen, Standort Wehlheiden",Hansteinstraße 29,Kassel,Hessen,34121,,,,,Yes,,51.3120738,9.4533138
262,20262,DRK-Krankenhaus Clementinenhaus,Lützerodestraße 1,Hannover,Niedersachsen,30163,,0511-33942500,,,,,52.3874017,9.7448222
263,20263,DRK-Krankenhaus Luckenwalde,Saarstraße 1A,Luckenwalde,Brandenburg,14943,,,,,Yes,,52.0989203,13.1793696
264,20264,DRK-Krankenhaus Mecklenburg-Strelitz,Penzliner Straße 56,Neustrelitz,Mecklenburgische Seenplatte,17235,,+49 3981 268 0,,,Yes,,53.3801943,13.0542694
265,20265,DRK-Krankenhaus Mölln-Ratzeburg,Röpersberg 2,Ratzeburg,Herzogtum Lauenburg,23909,,+49 4541 8840,,,,,53.6901514,10.7791837
266,20266,DRK-Ortsverein Bad Urach,Espachstraße 3,Bad Urach,Reutlingen,72574,,,,,,,48.4912166,9.4024092
267,20267,"DRK-Vorsorge- und Rehaeinrichtung für Mutter und Kind - ""Schloss Neuhaus""",Schloßbergring 1,Föritztal,Sonneberg,96524,,,,,No,,50.314658,11.2452089
268,20268,DRV Reha-Klinik Taubertal,Ketterberg 2,Bad Mergentheim,Main-tauber-kreis,97980,,,,,No,,49.5002001,9.7807419
269,20269,Danuvius Klinik,,Petershausen,Bayern,85238,,,,,,,48.4039486,11.4758497
270,20270,Darmklinik Exter,,Vlotho,Herford,32602,,,,,,,52.1335189,8.7766407
271,20271,Deegenbergklinik Bad Kissingen,Burgstraße 21,Bad Kissingen,Bayern,97688,,+49 971 8210,,,,,50.1938883,10.0885492
272,20272,Deutsche Klinik für Diagnostik,Aukammallee 33,Wiesbaden,Hessen,65183,,,,,,,50.0869645,8.2682465
273,20273,Deutsche Rentenversicherung BUND – Reha-Zentrum Bad Frankenhausen,Udersleber Weg 35,Bad Frankenhausen/Kyffhäuser,Kyffhäuserkreis,06567,,,,,,,51.3606285,11.1179173
274,20274,Deutsches Herzzentrum,Lazarettstraße 36,München,Bayern,80634,,+49 89 1218-0,,,,,48.1522636,11.5473842
275,20275,Deutsches Zentrum für Kinder- und Jugendrheumatologie,Gehfeldstraße 24,Garmisch-Partenkirchen,Bayern,82467,,,,,,,47.4875017,11.1024114
276,20276,DiaMed Centrum-Clinic,,Neuendettelsau,Bayern,91564,,,,,,,49.2930824,10.7909091
277,20277,Diabetes Zentrum Mergentheim,Theodor-Klotzbücher-Straße 12,Bad Mergentheim,Main-tauber-kreis,97980,,,,,,,49.4961171,9.7787233
278,20278,Diabeteszentrum Bad Lauterberg,Kirchberg 21,Bad Lauterberg im Harz,Niedersachsen,37431,,+49 5524 81 1,,,,,51.6274205,10.4723577
279,20279,Diagnose und Therapiezentrum / Kurmittelhaus,Kaiserstraße 16,Bad Sassendorf,Soest,59505,,,,,,,51.5876207,8.1691612
280,20280,Diakonie Kork,,Kehl,Ortenaukreis,77694,,+49 7851 840,,,,,48.5686843,7.8625335
281,20281,Diakonie Krankenhaus,Ringstraße 58,Bad Kreuznach,Bad Kreuznach,55543,,+49 671 6050,,,Yes,,49.8369634,7.8632992
282,20282,Diakonie Suchtklinik,Schellenberg 13,Oldenburg (Oldb.),Niedersachsen,26122,,,,,No,,53.1039946,8.2104199
283,20283,Diakonie-Kliniken Kassel,Herkulesstraße 34,Kassel,Hessen,34125,,,,,Yes,,51.3146839,9.4611192
284,20284,Diakonie-Klinikum Neunkirchen,,Neunkirchen,Saarland,66538,,+49 6821 18-0,,,Yes,,49.3410068,7.1819038
285,20285,Diakonie-Krankenhaus,,Kirn,Bad Kreuznach,55606,,,,,Yes,,49.7950885,7.4561521
286,20286,Diakonie-Krankenhaus Harz,Badestraße 23,Harztor,Nordhausen,99768,,+49 36331360,,,,,51.5606436,10.8398554
287,20287,Diakonie-Krankenhaus Harz,Brockenstraße 1,,Harz,,,,,,,,51.7718084,10.7892282
288,20288,Diakonie-Krankenhaus Wehrda,,Marburg,Hessen,35041,,,,,,,50.8302468,8.7607452
289,20289,Diakoniekrankenhaus Halle,Lafontainestraße 15,Halle (Saale),Halle (saale),06114,,,,,Yes,,51.4948888,11.9580653
290,20290,Diakoniekrankenhaus Mannheim,Speyerer Straße 91-93,Mannheim,Mannheim,68199,,+49 621 81020,,,Yes,,49.4646903,8.4694934
291,20291,Diakoniekrankenhaus Seehausen,,Seehausen (Altmark),Stendal,39615,,,,,,,52.881591,11.747698
292,20292,Diakonieverbund der Kirchengemeinden Freiamts und Sexau,Ernst-Bühler-Weg 1,Sexau,Emmendingen,79350,,+49 7641 913024,,,,,48.103486,7.9065325
293,20293,Diakoniewerk München-Maxvorstadt,Heßstraße 22,München,Bayern,80333,,+49 89 21220,,,,,48.1518,11.5686507
294,20294,Diakonische Stiftung Wittekindshof,,Bad Oeynhausen,Minden-lübbecke,32549,,,,,,,52.2557872,8.7847139
295,20295,Diakonissen-Stiftungs-Krankenhaus Speyer (Haus Hilgardstraße),Paul-Egell-Straße 33,Speyer,Speyer,67346,,+49 6232 221796,,,Yes,,49.3114571,8.4320548
296,20296,Diakonissenkrankenhaus Dessau,Gropiusallee 3,Dessau-Roßlau,Dessau-roßlau,06846,,,,,Yes,,51.8385048,12.2270694
297,20297,Diakonissenkrankenhaus Flensburg,Knuthstraße 1,Flensburg,Flensburg,24937,,+49 461 8120,,,Yes,,54.7911901,9.4242012
298,20298,Diakovere Henriettenstift Marienstraße,Marienstraße 72-90,Hannover,Niedersachsen,30171,,,,,,,52.3698508,9.7544734
299,20299,Dialyse Zentrum,,Hamm,Hamm,59065,,,,,,,51.6869175,7.8479426
300,20300,Dialyse-Zentrum,Rennbahn nan,Eisenach,Eisenach,99817,,,,,,,50.9794912,10.3255957
301,20301,Dialysezentrum,Annastraße 30,Moers,Wesel,47441,,,,,,,51.4453664,6.6413398
302,20302,"Dialysezentrum PHV-Der Dialysepartner, Patienten-Heimversorgung",Obernfelder Allee 2,Lübbecke,Minden-lübbecke,32312,,+49 5741 809092,,,,,52.2976013,8.6038321
303,20303,Die Filderklinik,,Filderstadt,Esslingen,70794,,,,,,,48.6471772,9.2016958
304,20304,Die Johanniter Waldkrankenhaus,Waldstraße 73,Bonn,Bonn,53177,,,,,Yes,,50.6824459,7.1290932
305,20305,Dietrich-Bonhoeffer-Klinikum,Salvador-Allende-Straße 30,Neubrandenburg,Mecklenburgische Seenplatte,17033,,,,,Yes,,53.5463295,13.2914862
306,20306,Dietrich-Bonhoeffer-Klinikum,Basedower Straße 33,Malchin,Mecklenburgische Seenplatte,17139,,,,,,,53.7365626,12.755465
307,20307,Dietrich-Bonhoeffer-Klinikum Altentreptow,Klosterberg 1a,Altentreptow,Mecklenburgische Seenplatte,17087,,,,,,,53.6970664,13.251358
308,20308,Dill-Klinikum,Rotebergstraße 2,Dillenburg,Hessen,35683,,+49 2771 / 396-0,,,,,50.7464545,8.2846436
309,20309,Diätschule,Eierstraße 53,Stuttgart,Stuttgart,70178,,,,,,,48.7595031,9.1637969
310,20310,Dominikus-Krankenhaus,Kurhausstraße 30,Berlin,Berlin,13467,,+4930 4092 0,,,Yes,,52.6257136,13.2915177
311,20311,Domus Mea in Bavaria,,Tittmoning,Bayern,84529,,,,,No,,48.0622978,12.7638952
312,20312,Donau-Isar Klinikum Landau,Bayerwaldring 17,Landau an der Isar,Bayern,94405,,+49 9951 75-1,,,Yes,,48.6662651,12.7012403
313,20313,Donauisar Klinikum Dingolfing,Teisbacher Straße 1,Dingolfing,Bayern,84130,,+49 8731 880,,,,,48.6210782,12.4888036
314,20314,Dr. Becker Burgklinik,Burgstraße 19,Dermbach,Wartburgkreis,36466,,,,,No,,50.782547,10.1271922
315,20315,Dr. Becker Kiliani-Klinik,Schwarzallee 10,Bad Windsheim,Bayern,91438,,,,,,,49.5086044,10.4107082
316,20316,Dr. Becker Klinik,Schnappweg 2,Möhnesee,Soest,59519,,,,,,,51.4924475,8.1185985
317,20317,Dr. Fontheim Mentale Gesundheit,Lindenstraße 15,Liebenburg,Niedersachsen,38704,,,,,,,52.0239338,10.4325786
318,20318,Dr. Horst Schmidt Kliniken,,Wiesbaden,Hessen,65183,,,,,Yes,,50.067161,8.1889093
319,20319,Dr. med. Volker Winkelmann,Rosenheimer Straße 23,Brannenburg,Bayern,83098,,+49 8034 8222,,,,,47.7364353,12.1052248
320,20320,Dr. v. Ehrenwall'sche Klinik,Walporzheimer Straße 2,Bad Neuenahr-Ahrweiler,Ahrweiler,53474,,+49 2641 3860,,,,,50.5397755,7.0908884
321,20321,Dreifaltigkeits Hospital,,Lippstadt,Soest,59557,,,,,Yes,,51.6739698,8.33892
322,20322,Dreifaltigkeits Hospital,,Lippstadt,Soest,59557,,,,,,,51.6736523,8.3376649
323,20323,Dreifaltigkeits Krankenhaus,Aachener Straße 445-449,Köln,Köln,50933,,,,,,,50.9367195,6.9053975
324,20324,Dreifaltigkeitskloster,,Krefeld,Krefeld,47807,,,,,,,51.3137768,6.5730389
325,20325,Dynamisch-Psychiatrische Klinik Menterschwaige,Geiselgasteigstraße 203,,Bayern,,,+49 89 642723 0,,,,,48.0796819,11.5566945
326,20326,Dynamisch-Psychiatrische Klinik Menterschwaige,Geiselgasteigstraße 203,,Bayern,,,,,,,,48.0800246,11.5562194
327,20327,EOS-Klinik für Psychotherapie,Hammer Straße 18,Münster,Münster,48143,,,,,No,,51.9538624,7.6255342
328,20328,Eduardus-Krankenhaus,Custodisstraße 3-17,Köln,Köln,50679,,,,,Yes,,50.9330883,6.9801316
329,20329,Eichsfeld Klinikum,Klosterstraße 7,Niederorschel,Eichsfeld,37355,,,,,,,51.3467977,10.3630221
330,20330,Eichsfeld Klinikum,,Leinefelde-Worbis,Eichsfeld,37339,,,,,Yes,,51.4240682,10.3603247
331,20331,Einbecker Bürgerspital,Andershäuser Straße 8,Einbeck,Niedersachsen,37574,,,,,,,51.833946,9.8676402
332,20332,Eisenmoorbad,Kurpromenade 1,Bad Schmiedeberg,Wittenberg,06905,,+49 34925 63037,,,No,,51.6839727,12.7311921
333,20333,Elbe Kliniken Stade,Bremervörder Straße 111,Stade,Niedersachsen,21682,,,,,,,53.598263,9.4434052
334,20334,Elblandklinikum Meißen,,Meißen,Sachsen,01662,,,,,Yes,,51.1748911,13.5065601
335,20335,Elblandklinikum Meißen,,Meißen,Sachsen,01662,,,,,Yes,,51.1751488,13.5045819
336,20336,Elblandklinikum Radebeul,Heinrich-Zille-Straße 13,Radebeul,Sachsen,01445,,,,,Yes,,51.1086682,13.6500442
337,20337,Elblandklinikum Riesa,,Riesa,Sachsen,01587,,,,,Yes,,51.2971446,13.3091237
338,20338,Eleonoren-Klinik,Am Kaiserturm 6,Lindenfels,Hessen,64678,,+49-6255-3020,,,,,49.7174115,8.7794682
339,20339,Elisabeth Klinikum Schmalkalden,Eichelbach 9,Schmalkalden,Schmalkalden-meiningen,98574,,,,,Yes,,50.7214792,10.4412883
340,20340,Elisabeth Krankenhaus,,Essen,Essen,45138,,,,,,,51.4462855,7.033934
341,20341,Elisabeth-Klinik,,Olsberg,Hochsauerlandkreis,59939,,,,,Yes,,51.3573333,8.4733196
342,20342,Elisabeth-Klinik,,Dortmund,Dortmund,44137,,,,,,,51.5029589,7.5459664
343,20343,Elisabeth-Krankenhaus,Klosterstraße 4,Thuine,Niedersachsen,49832,,,,,,,52.4974892,7.4881243
344,20344,Elisabeth-Krankenhaus,Weinbergstraße 7,Kassel,Hessen,34125,,+49 56172010,,,Yes,,51.3103563,9.4911173
345,20345,Ermstalklinik,Stuttgarter Straße 100,Bad Urach,Reutlingen,72574,,,,,,,48.4968956,9.3886871
346,20346,Ernst von Bergmann Gesundheitsakademie,,Potsdam,Brandenburg,14467,,,,,,,52.402678,13.0674792
347,20347,"Ernst von Bergmann Klinikum - Psychiatrie, Psychotherapie",,Potsdam,Brandenburg,14480,,,,,,,52.3842117,13.1363608
348,20348,Erste Hilfe Station,,Bottrop,Bottrop,46236,,,,,,,51.6130463,6.9786687
349,20349,Erste-Hilfe-Station,,Bottrop,Bottrop,46244,,,,,,,51.620163,6.976709
350,20350,Erzgebirgsklinikum,Chemnitzer Straße 15,Annaberg-Buchholz,Sachsen,09456,,,,,Yes,,50.5925943,13.0074538
351,20351,Eschenberg-Wildpark-Klinik,,,Rhein-sieg-kreis,,,,,,,,50.7688534,7.2769043
352,20352,Espan Klinik,Gartenstraße 9,Bad Dürrheim,Schwarzwald-baar-kreis,78073,,,,,,,48.0169039,8.5393265
353,20353,Ethianum,Voßstraße 6,Heidelberg,Heidelberg,69115,,,,,,,49.4094623,8.6840044
354,20354,Ev. Jung-Stilling Krankenhaus,,Siegen,Siegen-wittgenstein,57072,,+49 271/333-3,,,Yes,,50.850906,8.019931
355,20355,Ev. Krankenhaus Bethanien,,Iserlohn,Märkischer Kreis,58636,,,,,,,51.3704969,7.6934947
356,20356,Ev. Krankenhaus Bethesda,,Mönchengladbach,Mönchengladbach,41061,,,,,,,51.1983685,6.4237084
357,20357,Ev. Krankenhaus Hagen-Haspe,,Hagen,Hagen,58095,,,,,,,51.3480067,7.4118841
358,20358,Ev. Krankenhaus Kredenbach B.Weiss Klinik,Dr.-Stelbrink-Straße 47,,Siegen-wittgenstein,,,,,,,,50.9701731,8.0343662
359,20359,Ev. Krankenhaus Luckau,Berliner Straße 24,Luckau,Brandenburg,15926,,,,,Yes,,51.8532105,13.7026686
360,20360,Ev. Krankenhaus Lutherstift,,Frankfurt (Oder),Brandenburg,15230,,,,,,,52.3335812,14.5369165
361,20361,Ev. Krankenhaus Paul Gerhardt Stift,Paul-Gerhardt-Straße 42-45,"Wittenberg, Lutherstadt",Wittenberg,06886,,+49 3491 500,,,Yes,,51.8695373,12.6537918
362,20362,Ev. Lukas-Krankenhaus,Zum Lukas-Krankenhaus 1,Gronau (Westfalen),Borken,48599,,,,,Yes,,52.2173099,7.0304104
363,20363,Ev. Lukas-Krhs. Tagesklinik für Psychiatrie und Psychotherapie,Bentheimer Straße 16,Gronau (Westfalen),Borken,48599,,,,,No,,52.2161958,7.03048
364,20364,Evang. Krankenhaus Herne - Betriebsstelle Eickel,Hordeler Straße 7,Herne,Herne,44651,,+49 2323 4989 0,,,Yes,,51.5105288,7.174922
365,20365,Evang. Krankenhaus Hohenlimburg,Iserlohner Straße 43,Hagen,Hagen,58119,,,,,Yes,,51.3581964,7.5655943
366,20366,Evangelische Kliniken Luise-Henrietten-Stift Lehnin,Klosterkirchplatz 8a,Kloster Lehnin,Brandenburg,14797,,+49 3382 786138,,,,,52.3227514,12.7440347
367,20367,Evangelisches Diakoniekrankenhaus Freiburg,,Freiburg im Breisgau,Freiburg Im Breisgau,79110,,+49 761 1301-01,,,Yes,,48.0237992,7.8138552
368,20368,Evangelisches Diakonissenkrankenhaus Leipzig,Georg-Schwarz-Straße 59,Leipzig,Sachsen,04177,,,,,Yes,,51.3432039,12.3189279
369,20369,Evangelisches Geriatriezentrum Berlin,Reinickendorfer Straße 61,Berlin,Berlin,13353,,,,,,,52.5550558,13.3656992
370,20370,Evangelisches Klinikum Bethel (EvKB) - Haus Mosesberg - Klinik für Kinder- und Jugendpsychiatrie und Psychotherapie,Remterweg 13a,Bielefeld,Bielefeld,33604,,+49 521 772-76930,,,Yes,,52.0081306,8.5322284
371,20371,Evangelisches Krankenhaus,,Hamm,Hamm,59065,,,,,,,51.6710547,7.8268364
372,20372,Evangelisches Krankenhaus,Paul-Zipp-Straße 171,Gießen,Hessen,35390,,,,,Yes,,50.5927484,8.6489214
373,20373,Evangelisches Krankenhaus,,Zweibrücken,Zweibrücken,66482,,,,,No,,49.2450052,7.3727583
374,20374,Evangelisches Krankenhaus,Holbeinstraße 10,Unna,Unna,59423,,,,,Yes,,51.5330459,7.6773072
375,20375,Evangelisches Krankenhaus,Kirchfeldstraße 40,Düsseldorf,Düsseldorf,40219,,,,,Yes,,51.2124606,6.772365
376,20376,Evangelisches Krankenhaus Alsterdorf,Elisabeth-Flügge-Straße 1,Hamburg,Hamburg,22297,,+49 40 50773241,,,,,53.6140149,10.0227574
377,20377,Evangelisches Krankenhaus BETHESDA zu Duisburg GmbH,Heerstraße 219,Duisburg,Duisburg,47053,,,,,Yes,,51.4169293,6.7630012
378,20378,Evangelisches Krankenhaus Bad Dürkheim,,Bad Dürkheim,Bad Dürkheim,67098,,+49 6322 607-0,,,Yes,,49.4667235,8.1782967
379,20379,Evangelisches Krankenhaus Bethanien,Gützkower Landstraße 69,Greifswald,Vorpommern-greifswald,17489,,,,,,,54.0794713,13.3819997
380,20380,Evangelisches Krankenhaus Castrop-Rauxel,Grutholzallee 21,Castrop-Rauxel,Recklinghausen,44575,,+49 2305 1020,,,,,51.5669203,7.317758
381,20381,Evangelisches Krankenhaus Dierdorf,Hachenburger Straße 16,Dierdorf,Neuwied,56269,,,,,,,50.5477795,7.6622276
382,20382,Evangelisches Krankenhaus Dinslaken,Kreuzstraße 28,Dinslaken,Wesel,46535,,,,,,,51.5588832,6.7304487
383,20383,Evangelisches Krankenhaus Dinslaken,,Dinslaken,Wesel,46535,,+49 2064 42-0,,,,,51.5591722,6.7289656
384,20384,Evangelisches Krankenhaus Duisburg-Nord,Fahrner Straße 133,Duisburg,Duisburg,47169,,+4920350800,,,Yes,,51.5142918,6.7638662
385,20385,Evangelisches Krankenhaus Elisabethenstift,,Darmstadt,Hessen,64283,,,,,,,49.8742814,8.663683
386,20386,Evangelisches Krankenhaus Essen-Steele (ehemals Knappschafts-Krankenhaus),Am Deimelsberg 34a,Essen,Essen,45276,,,,,No,,51.4420494,7.0614174
387,20387,Evangelisches Krankenhaus Essen-Werden,Pattbergstraße 1-3,Essen,Essen,45239,,,,,Yes,,51.390402,7.0054682
388,20388,Evangelisches Krankenhaus Göttingen-Lengern,Pappelweg 5,Bovenden,Niedersachsen,37120,,,,,No,,51.5910231,9.8722116
389,20389,Evangelisches Krankenhaus Herne Mitte,Wiescherstraße 24,Herne,Herne,44623,,,,,Yes,,51.5333772,7.2298008
390,20390,Evangelisches Krankenhaus Herne-Eickel,,Herne,Herne,44651,,,,,,,51.5108526,7.176809
391,20391,Evangelisches Krankenhaus Hubertus,Spanische Allee 14,Berlin,Berlin,14129,,,,,,,52.4306744,13.2219935
392,20392,Evangelisches Krankenhaus Johannisstift,Wichernstraße 8,Münster,Münster,48143,,+4925127060,,,Yes,,51.9726367,7.6240452
393,20393,Evangelisches Krankenhaus Kalk,Buchforststraße 2,Köln,Köln,51103,,,,,Yes,,50.9406323,7.0089609
394,20394,Evangelisches Krankenhaus Königin Elisabeth Herzberge,Herzbergstraße 79,Berlin,Berlin,10367,,,,,Yes,,52.5255316,13.5116272
395,20395,Evangelisches Krankenhaus Ludwigsfelde-Teltow,Albert-Schweitzer-Straße 40-44,Ludwigsfelde,Brandenburg,14974,,,,,Yes,,52.3100431,13.2586355
396,20396,Evangelisches Krankenhaus Mettmann,Gartenstraße 4-8,Mettmann,Mettmann,40822,,+49 (0)2104 773-0,,,Yes,,51.250987,6.9704045
397,20397,Evangelisches Krankenhaus Mülheim,,Mülheim an der Ruhr,Mülheim An Der Ruhr,45468,,,,,Yes,,51.4234682,6.8822944
398,20398,Evangelisches Krankenhaus Oberhausen,,Oberhausen,Oberhausen,46045,,,,,,,51.4756656,6.8659723
399,20399,Evangelisches Krankenhaus Weende,An der Lutter 24,Göttingen,Niedersachsen,37073,,,,,Yes,,51.5558458,9.9414947
400,20400,Evangelisches Krankenhaus Witten,Pferdebachstraße 27,Witten,Ennepe-ruhr-kreis,58452,,,,,,,51.446035,7.3444445
401,20401,Evangelisches Krankenhaus Woltersdorf,Schleusenstraße 50,Woltersdorf,Brandenburg,15569,,,,,,,52.4485292,13.7609715
402,20402,Evangelisches Stadtkrankenhaus Saarbrücken,,Saarbrücken,Saarland,66111,,,,,Yes,,49.2330305,7.0033944
403,20403,Evangelisches Stift Sankt Martin,Johannes-Müller-Straße 7,Koblenz,Koblenz,56068,,,,,,,50.3491376,7.593191
404,20404,Evangelisches Waldkrankenhaus Spandau,Stadtrandstraße 555,Berlin,Berlin,13589,,,,,,,52.5596378,13.1566819
405,20405,Facharztzentrum Aalen,Weidenfelder Straße 1,Aalen,Ostalbkreis,73430,,+49 7361 68666,,,,,48.8397446,10.0922336
406,20406,Facharztzentrum Mediplus Hilden,Walder Straße 38,Hilden,Mettmann,40721,,,,,,,51.1686927,6.9433921
407,20407,Fachklinik Allgäu,Peter-Heel-Straße 29,Pfronten,Bayern,87459,,,,,,,47.5844035,10.5478047
408,20408,Fachklinik Bad Blankenburg,Georgstraße 40,Bad Blankenburg,Saalfeld-rudolstadt,07422,,+49 36741 41490,,,,,50.6760472,11.2660661
409,20409,Fachklinik Bad Heilbrunn,Wörnerweg 30,Bad Heilbrunn,Bayern,83670,,,,,No,,47.7498755,11.4609229
410,20410,Fachklinik Enzensberg,,Füssen,Bayern,87629,,,,,,,47.6135277,10.687036
411,20411,Fachklinik Falkenburg,Falkenburgweg 2,Bad Herrenalb,Calw,76332,,+49 7083 9260,,,,,48.8018968,8.4357566
412,20412,Fachklinik Fischer-Haus,Mönchkopfstraße 21,Gaggenau,Rastatt,76571,,,,,,,48.8210279,8.3598031
413,20413,Fachklinik Freudenholm-Ruhleben,Freudenholm 3,Schellhorn,Plön,24211,,,,,,,54.2177031,10.3099655
414,20414,Fachklinik Freudenholm-Ruhleben,Missionsweg 3,Bösdorf,Plön,24306,,,,,,,54.136312,10.4448578
415,20415,Fachklinik Friedrichshof,,Obersulm,Heilbronn (landkreis),74182,,,,,,,49.1160044,9.4138779
416,20416,Fachklinik Furth im Wald,Eichertweg 37,Furth im Wald,Bayern,93437,,,,,,,49.3157772,12.8223455
417,20417,Fachklinik Gaißach,,Gaißach,Bayern,83674,,+49 8041 798-0,,,No,,47.7458985,11.5807201
418,20418,Fachklinik Haus Immanuel,,Thurnau,Bayern,95349,,,,,,,50.0399818,11.4138274
419,20419,Fachklinik Heiligenfeld,Euerdorfer Straße 4-6,Bad Kissingen,Bayern,97688,,+49 971 840,,,,,50.1883153,10.0699541
420,20420,Fachklinik Herzogenaurach,In der Reuth 1,Herzogenaurach,Bayern,91074,,,,,,,49.577454,10.8692736
421,20421,Fachklinik Hornheide,,Münster,Münster,48143,,,,,No,,52.0142615,7.7096803
422,20422,Fachklinik Im Deerth,,Hagen,Hagen,58095,,,,,No,,51.3373968,7.4489801
423,20423,Fachklinik Kamillushaus,Heidhauser Straße 273,Essen,Essen,45239,,,,,,,51.3743384,7.0175305
424,20424,Fachklinik Klosterwald,Bahnhofstraße 33,Bad Klosterlausnitz,Saale-holzland-kreis,07639,,+493 66 01 859-0,,,,,50.9113478,11.8635086
425,20425,Fachklinik Langenberg,,Velbert,Mettmann,42555,,,,,,,51.3521104,7.1135877
426,20426,Fachklinik Oldenburger Land,Neerstedter Straße 9,Dötlingen,Niedersachsen,27801,,,,,No,,52.9632225,8.3933722
427,20427,Fachklinik Rusteberg,Rusteberger Straße 1,Marth,Eichsfeld,37318,,,,,,,51.3861464,10.0092849
428,20428,Fachklinik Schillerhöhe,Solitudestraße 18,Gerlingen,Ludwigsburg,70839,,,,,defibrillator,,48.7878042,9.0735798
429,20429,Fachklinik St. Camillus,Kirchstraße 12,Duisburg,Duisburg,47178,,+49203479070,,,No,,51.5312148,6.7071259
430,20430,Fachklinik St. Marien,,Wertach,Bayern,87497,,,,,,,47.6037555,10.4045568
431,20431,Fachklinik Stadtsteinach,,Stadtsteinach,Bayern,95346,,,,,,,50.1665447,11.5006833
432,20432,Fachklinik Weihersmühle,nan 1,Großhabersdorf,Bayern,90613,,+49 9105 9944 0,,,,,49.3865374,10.7893181
433,20433,Fachklinik Wigbertshöhe,,Bad Hersfeld,Hessen,36251,,,,,,,50.8600231,9.6934204
434,20434,Fachklinik Wilhelmsheim,,Oppenweiler,Rems-murr-kreis,71570,,,,,,,49.0073235,9.4564658
435,20435,Fachklinik für Neurologie Dietenbronn,nan 7,Schwendi,Biberach,88477,,,,,,,48.162357,9.9688806
436,20436,Fachklinikum Uchtspringe,,Stendal,Stendal,39576,,,,,,,52.5375992,11.5950392
437,20437,Fachkrankenhaus Coswig,,Coswig,Sachsen,01640,,,,,,,51.1312862,13.5964179
438,20438,Fachkrankenhaus Jerichow,Johannes-Lange-Straße 20,Jerichow,Jerichower Land,39319,,,,,No,,52.5012135,12.0353254
439,20439,Fachkrankenhaus für Psychiatrie und Neurologie,Eisfelder Straße 41,Hildburghausen,Hildburghausen,98646,,,,,,,50.4273799,10.7426581
440,20440,Fachkrankenhaus für neurologische Frührehabilitation Beelitz-Heilstätten,Paracelsusring 8,Beelitz,Brandenburg,14547,,,,,,,52.2663102,12.9260722
441,20441,Falkenstein-Klinik,Ostrauer Ring 35,Bad Schandau,Sachsen,01814,,,,,No,,50.9189996,14.1722899
442,20442,Fanny-Zahn-Haus,,Viersen,Viersen,41747,,,,,,,51.269309,6.3741773
443,20443,Feldberg-Klinik,Todtmooser Straße 48,Sankt Blasien,Waldshut,79837,,,,,,,47.7599454,8.121982
444,20444,Felsenland Klinik Dahn,Ingbert-Naab-Straße 6,,Waldshut,,,,,,,,49.1519023,7.7826003
445,20445,Ferdinand-Wahrendorff-Klinik,Rudolf-Wahrendorff-Straße 17,Sehnde,Niedersachsen,31319,,,,,,,52.3445535,9.9325543
446,20446,Fliedner Krankenhaus Neunkirchen,,Neunkirchen,Saarland,66538,,+49 6821 901-0,,,Yes,,49.3477631,7.1848193
447,20447,Fliedner Tagesklinik,Sudfeldstraße 1,Gevelsberg,Ennepe-ruhr-kreis,58285,,,,,,,51.3176628,7.3378135
448,20448,Fliedner-Krankenhaus,,Ratingen,Mettmann,40885,,,,,,,51.3342954,6.8177154
449,20449,Flora,,Haldensleben,Börde,39340,,,,,,,52.2913903,11.3830129
450,20450,Fontane-Klinik Motzen,Fontanestraße 5,Groß Köris,Brandenburg,15746,,,,,,,52.1801621,13.5973665
451,20451,Forensische Klinik,Akazienstraße 67-69,Düren,Düren,52353,,+49 2421 400,,,,,50.8205917,6.4802963
452,20452,Forensische Psychiatrie,,Riedstadt,Hessen,64560,,,,,No,,49.821302,8.499672
453,20453,Frankenalb-Klinik Engelthal,Reschenbergstraße 20,Engelthal,Bayern,91238,,+49 9158 9260,,,,,49.4764403,11.4054416
454,20454,Frankenland-Klinik,,Bad Windsheim,Bayern,91438,,,,,,,49.5087632,10.4127276
455,20455,Franziskus-Hospital Harderberg,Alte Rothenfelder Straße 23,Georgsmarienhütte,Niedersachsen,49124,,,,,Yes,,52.2384146,8.0701339
456,20456,Franziskushospital,Morillenhang 27,Aachen,Aachen,52062,,+49 241 7501 0,,,Yes,,50.7662917,6.0696083
457,20457,Frauenklinik,Beurhausstraße 40,Dortmund,Dortmund,44137,,,,,,,51.5077656,7.4591956
458,20458,Frauenklinik,Prittwitzstraße 43,Ulm,Ulm,89075,,,,,,,48.4100243,9.9927791
459,20459,Frauenklinik Dr. Hartog,Kiskerstraße 15,Bielefeld,Bielefeld,33604,,,,,,,52.023177,8.5214898
460,20460,Frauenklinik Maistraße,Maistraße 11,München,Bayern,80469,,+49 89 5160-0,,,,,48.1298555,11.5625494
461,20461,Frauenklinik München West,,München,Bayern,81241,,,,,,,48.146308,11.45747
462,20462,Frauenklinik/Ambulanz,,Mannheim,Mannheim,68167,,,,,,,49.4931676,8.4870569
463,20463,Frauenklinik/Kreißsaal,,Mannheim,Mannheim,68167,,,,,,,49.4934309,8.4860861
464,20464,Friederikenstift,,Hannover,Niedersachsen,30169,,,,,,,52.3709685,9.7236603
465,20465,Friedrich von Bodelschwingh-Klinik,,Berlin,Berlin,10713,,,,,No,,52.4892701,13.3289351
466,20466,Friedrich-Ebert-Krankenhaus,Friesenstraße 11,Neumünster,Neumünster,24534,,,,,,,54.0649868,9.9950427
467,20467,Friedrich-Husemann-Klinik,,Buchenbach,Breisgau-hochschwarzwald,79256,,,,,,,47.9671189,7.9957576
468,20468,Funktionstrakt,Humboldtstraße 5,Hannover,Niedersachsen,30169,,,,,,,52.3707117,9.725407
469,20469,Furtbachkrankenhaus,Furtbachstraße 6,Stuttgart,Stuttgart,70178,,,,,,,48.7705046,9.171909
470,20470,Föhrenbachklinik,Grüner Winkel 2,Bedburg-Hau,Kleve,47551,,,,,No,,51.7570852,6.1767116
471,20471,Földi Klinik,,Hinterzarten,Breisgau-hochschwarzwald,79856,,,,,,,47.9115411,8.1019648
472,20472,Fürst-Stirum-Klinik,Gutleutstraße 1-14,Bruchsal,Karlsruhe (landkreis),76646,,+49 7251 7080,,,Yes,,49.1331057,8.60431
473,20473,GFO Kliniken Troisdorf Betriebsstätte St. Johannes Sieglar,Wilhelm-Busch-Straße 9,Troisdorf,Rhein-sieg-kreis,53844,,,,,,,50.7972724,7.1177867
474,20474,GFO Kliniken Troisdorf Betriebsstätte St. Josef Troisdorf,,Troisdorf,Rhein-sieg-kreis,53840,,,,,,,50.8168579,7.159711
475,20475,GPR-Klinikum,August-Bebel-Straße 59,Rüsselsheim am Main,Hessen,65428,,+49 6142 88-0,,,Yes,,49.9834741,8.4230598
476,20476,GRN-Betreuungszentrum,Alte Waibstadter Straße 1,Sinsheim,Rhein-neckar-kreis,74889,,,,,,,49.2533137,8.8893532
477,20477,GRN-Klinik Eberbach,Scheuerbergstraße 3,Eberbach,Rhein-neckar-kreis,69412,,,,,,,49.4630548,8.989712
478,20478,GRN-Klinik Schwetzingen,Bodelschwinghstraße 10,Schwetzingen,Rhein-neckar-kreis,68723,,+49 6202 84-30,,,,,49.378052,8.5701193
479,20479,GRN-Klinik Sinsheim,Alte Waibstadter Straße 2,Sinsheim,Rhein-neckar-kreis,74889,,+49 (0) 7261 66-0,,,Yes,,49.251995,8.8899071
480,20480,GRN-Klinik Sinsheim,,Sinsheim,Rhein-neckar-kreis,74889,,,,,,,49.2513813,8.8896149
481,20481,GRN-Klinik Weinheim,Röntgenstraße 1,Weinheim,Rhein-neckar-kreis,69469,,+49 6201 890,,,,,49.5506231,8.6429317
482,20482,Geburtensaal und OP-Säle,,Chemnitz,Sachsen,09116,,,,,,,50.8438911,12.8830589
483,20483,Geburtshaus Werne,Heitkamp 3a,Werne,Unna,59368,,,,,,,51.661909,7.6147195
484,20484,Geburtshaus Werne,Heitkamp 3b,Werne,Unna,59368,,,,,,,51.6618814,7.6145074
485,20485,Gebäude-9 Bettenhaus,Kerpener Straße 62,Köln,Köln,50937,,,,,Yes,,50.9238001,6.9165491
486,20486,Gelderland-Klinik,Clemensstraße 10,Geldern,Kleve,47608,,,,,No,,51.5297585,6.3283402
487,20487,Gelenkzentrum München,,München,Bayern,80333,,,,,,,48.1458393,11.5804866
488,20488,Gemeindepsychiatrisches Zentrum (GPZ),,Detmold,Lippe,32756,,,,,,,51.9456021,8.8902398
489,20489,Gemeinschaftskrankenhaus Bonn Haus St. Elisabeth,,Bonn,Bonn,53113,,+49 228 5080,,,Yes,,50.7270288,7.1022896
490,20490,Gemeinschaftskrankenhaus Bonn Haus St. Petrus,Bonner Talweg 4-6,Bonn,Bonn,53113,,+49 228 5060,,,Yes,,50.7281092,7.0980697
491,20491,Gemeinschaftskrankenhaus Havelhöhe,Kladower Damm 221,Berlin,Berlin,14089,,,,,Yes,,52.4608469,13.1558075
492,20492,Gemeinschaftskrankenhaus Herdecke,,Herdecke,Ennepe-ruhr-kreis,58313,,,,,Yes,,51.4123339,7.3981532
493,20493,Geriatrische Rehaklinik Giengen,Hirschstraße 1,Giengen an der Brenz,Heidenheim,89537,,+49 (0)7322 954 0,,,No,,48.6238259,10.2506147
494,20494,Gerontopsychiatrischen Zentrum,,Viersen,Viersen,41747,,,,,,,51.2672539,6.3815467
495,20495,Gertrudis Hospital Westerholt,Kuhstraße 23,Herten,Recklinghausen,45701,,,,,Yes,,51.6006053,7.0853742
496,20496,Gesundheits- und Krankenpflegeschule,Eierstraße 55,Stuttgart,Stuttgart,70178,,,,,,,48.7593439,9.1636832
497,20497,Gesundheitstraße,,Solingen,Solingen,42651,,,,,,,51.1378283,7.014844
498,20498,Gesundheitszentrum,,Simmerath,Aachen,52152,,,,,,,50.6047808,6.3034287
499,20499,"Gesundheitszentrum ""Am Rennsteig""",Schanzweg 15,,Sonneberg,,,+49 36704 8820,,,,,50.4721914,11.0814908
500,20500,Gesundheitszentrum Engen,Hewenstraße 19,Engen,Konstanz,78234,,,,,Yes,,47.8538371,8.7669408
501,20501,Gesundheitszentrum Glantal,Liebfrauenberg 32,Meisenheim,Bad Kreuznach,55590,,+49 6753 910-0,,,,,49.7069963,7.6769113
502,20502,Gesundheitszentrum Hannover,Kestnerstraße 42,Hannover,Niedersachsen,30173,,,,,,,52.3718464,9.7551344
503,20503,Gesundheitszentrum Langenau,Karlstraße 45,Langenau,Alb-donau-kreis,89129,,,,,,,48.5003326,10.1161687
504,20504,Gesundheitszentrum Meiningen,Bergstraße 3,Meiningen,Schmalkalden-meiningen,98617,,,,,,,50.5578954,10.3994024
505,20505,Gesundheitszentrum Wildau,Freiheitstraße 98,Wildau,Brandenburg,15745,,+49 3375 525 63 10,,,,,52.3256155,13.6297592
506,20506,Ginsterhof Psychosomatische Klinik,Metzendorfer Weg 21,Rosengarten,Niedersachsen,21224,,+49 4108 598 107,,,,,53.4050375,9.9342527
507,20507,Goldberg-Klinik,Traubenweg 3,Kelheim,Bayern,93309,,+49 9441 702-0,,,Yes,,48.9238082,11.8845835
508,20508,Gollwitzer-Meier-Klinik,Herforder Straße 43,Bad Oeynhausen,Minden-lübbecke,32545,,+49 5731 - 249-0,,,,,52.2021937,8.7920191
509,20509,"Gotthard-Schettler-Klinik, Sigmund-Weil-Klinik",,Bad Schönborn,Karlsruhe (landkreis),76669,,,,,No,,49.2172842,8.6713935
510,20510,Gut Großer Neuenhof - Klinik für Kinder- und Jugendpsychiatrie,Neuenhofer Weg 21,Aachen,Aachen,52074,,,,,,,50.7724498,6.0426599
511,20511,Gästehaus Barmherzigen Brüder Trier,,Trier,Trier,54290,,+49 651 208 1026,,,,,49.7629159,6.637736
512,20512,HELIOS Albert-Schweitzer-Klinik Northeim,Albert-Schweitzer-Weg 1,Northeim,Niedersachsen,37154,,+49 5551 97 0,,,,,51.73088,9.979093
513,20513,HELIOS Bördeklinik,Kreiskrankenhaus 4,Oschersleben (Bode),Börde,39387,,,,,,,52.0649847,11.1883684
514,20514,HELIOS Hanseklinikum Stralsund Krankenhaus West,Rostocker Chaussee 70,Stralsund,Vorpommern-rügen,18439,,+49 3831 450,,,,,54.3038288,13.0386832
515,20515,HELIOS Klinik Attendorn,Hohler Weg 9,Attendorn,Olpe,57439,,,,,Yes,,51.1265147,7.8987388
516,20516,HELIOS Klinik Hohenstücken,,Brandenburg an der Havel,Brandenburg,14776,,+49 3381 79 0,,,,,52.4353069,12.5131957
517,20517,HELIOS Klinik Jerichower Land,,Burg,Jerichower Land,39288,,+49 3921 96 0,,,Yes,,52.2661578,11.8338643
518,20518,HELIOS Klinik Leisnig,Colditzer Straße 48,Leisnig,Sachsen,04703,,+49 34321 8-0,,,Yes,,51.1551885,12.9206013
519,20519,HELIOS Klinik Müllheim,Heliosweg 1,Müllheim,Breisgau-hochschwarzwald,79379,,+49 7631 880,,,,,47.8115373,7.6342272
520,20520,HELIOS Klinik Sangerhausen,Am Beinschuh 2a,Sangerhausen,Mansfeld-südharz,06526,,,,,Yes,,51.4710283,11.3098115
521,20521,HELIOS Klinik Wesermarsch,Mildred-Scheel-Straße 1,Nordenham,Niedersachsen,26954,,,,,,,53.4560572,8.442398
522,20522,HELIOS Klinik Wittingen,Gustav-Dobberkau-Straße 5,Wittingen,Niedersachsen,29378,,+49 5831 22 0,,,,,52.7305093,10.7402192
523,20523,HELIOS Kliniken,Schillerstraße 22,Hünfeld,Hessen,36088,,+49 66 52 9 87 0,,,,,50.663179,9.7665389
524,20524,HELIOS Kliniken Mittelweser Stolzenau,Holzhäuser Weg 28,Stolzenau,Niedersachsen,31592,,,,,Yes,,52.5157939,9.0673328
525,20525,HELIOS Klinikum Berlin Buch,Schwanebecker Chaussee 50,Berlin,Berlin,13125,,+49 30 94010,,,Yes,,52.6318307,13.501997
526,20526,HELIOS Klinikum München West,,München,Bayern,81241,,+49 89 8892 0,,,Yes,,48.1438406,11.4527506
527,20527,HELIOS Klinikum Niederberg,,Velbert,Mettmann,42549,,,,,Yes,,51.3512004,7.0134031
528,20528,HELIOS Klinikum Pforzheim,,Pforzheim,Pforzheim,75175,,+49 7231 9690,,,,,48.8889822,8.7108624
529,20529,HELIOS Klinikum Schleswig,Sankt-Jürgener-Straße 1-3,Schleswig,Schleswig-flensburg,24837,,+49 4621 8120,,,Yes,,54.5288164,9.5651914
530,20530,HELIOS Klinkum Wuppertal,Heusnerstraße 40,Wuppertal,Wuppertal,42283,,,,,Yes,,51.2731924,7.1740326
531,20531,HELIOS Mariahilf Klinik Hamburg,,Hamburg,Hamburg,21075,,,,,,,53.4708533,9.9368352
532,20532,HELIOS Marien Klinik,Grunewaldstraße 96,Duisburg,Duisburg,47053,,,,,Yes,,51.4127446,6.7560034
533,20533,HELIOS Seehospital Sahlenburg,Nordheimstraße 201,Cuxhaven,Niedersachsen,27476,,,,,,,53.8655322,8.6009753
534,20534,HELIOS-Klinik Elberfeld,,Wuppertal,Wuppertal,42117,,,,,,,51.2510532,7.1339398
535,20535,HNO-Ambulanz,,Mannheim,Mannheim,68167,,,,,,,49.4929433,8.4860358
536,20536,HNO-Klinik,Beurhausstraße 40,Dortmund,Dortmund,44137,,,,,,,51.5080943,7.4571058
537,20537,"HNO-Klinik, Uni-Klinikum",,Erlangen,Bayern,91054,,,,,,,49.5963574,11.0120328
538,20538,HNO-Praxis,Kanzlerstraße 2-6,Pforzheim,Pforzheim,75175,,,,,,,48.8894865,8.7134312
539,20539,HPH,,Viersen,Viersen,41749,,,,,,,51.2875298,6.3545405
540,20540,Habichtswald-Klinik,,Kassel,Hessen,34125,,,,,No,,51.3129123,9.4243101
541,20541,Hans Carossa Klinik,,Stühlingen,Waldshut,79780,,,,,,,47.7453323,8.446729
542,20542,Haranni Clinic,,Herne,Herne,44623,,,,,No,,51.5406144,7.225453
543,20543,Harzklinikum,,Quedlinburg,Harz,06484,,,,,,,51.794574,11.1642511
544,20544,Harzklinikum Dorothea Christiane Erxleben,Thiestraße 7-10,Blankenburg (Harz),Harz,38889,,+493944960,,,No,,51.7934279,10.9562512
545,20545,Harzklinikum Dorothea Christiane Erxleben GmbH,Ditfurter Weg 24,Quedlinburg,Harz,06484,,,,,Yes,,51.795379,11.1634281
546,20546,Harzklinikum Kinderklinik,Steinbergstraße 1,Wernigerode,Harz,38855,,,,,,,51.8163101,10.746937
547,20547,"Haupteingang, Notaufnahme",Rintelner Straße 85,Lemgo,Lippe,32657,,,,,Yes,,52.0377541,8.9011527
548,20548,Haus 22,,Herborn,Hessen,35745,,,,,,,50.6729552,8.3036284
549,20549,Haus Aggerblick,Marialindener Straße 25,Overath,Rheinisch-bergischer Kreis,51491,,,,,,,50.9382466,7.2982999
550,20550,Haus Burgwald,In der Mordach 3,,Hessen,,,,,,,,49.8063692,8.6812197
551,20551,Haus Dessauer,,Gera,Gera,07548,,,,,,,50.8704033,12.0463484
552,20552,Haus I,Römerweg 50,Schömberg,Calw,75328,,,,,,,48.7975466,8.650246
553,20553,Haus II,Römerweg 55,Schömberg,Calw,75328,,,,,,,48.7995601,8.6505302
554,20554,Haus III,Römerweg 50B,Schömberg,Calw,75328,,,,,,,48.7986555,8.6494325
555,20555,Haus Luftschloss,,Wangen im Allgäu,Ravensburg,88239,,,,,,,47.6994697,9.8349476
556,20556,Haus Seeblick,Hillersbach 8,Ortenberg,Hessen,63683,,,,,,,50.3962933,9.1186761
557,20557,Haus Siloah,,Ratingen,Mettmann,40878,,,,,,,51.3355615,6.8166556
558,20558,Haus St. Vincenz Heiligenstadt,Windische Gasse 112,Heilbad Heiligenstadt,Eichsfeld,37308,,,,,,,51.3772523,10.1418367
559,20559,Hautklinik,Beurhausstraße 40,Dortmund,Dortmund,44137,,,,,,,51.5083478,7.456354
560,20560,Havellandklinik,Ketziner Straße 21,Nauen,Brandenburg,14641,,+49 3321 421000,,,,,52.600373,12.8732525
561,20561,Haßberg-Kliniken Haus Ebern,Coburger Straße 21,Ebern,Bayern,96106,,+49-9531-628-0,,,Yes,,50.0966154,10.7976466
562,20562,Haßberg-Kliniken Haus Hassfurt,Hofheimer Straße 69,Haßfurt,Bayern,97437,,+49 9521 28-511,,,,,50.040715,10.5128431
563,20563,Heckscher-Kinder-Klinik,,München,Bayern,81539,,,,,No,,48.1141815,11.5827053
564,20564,Hegau-Bodensee-Klinikum,Virchowstraße 10,Singen (Hohentwiel),Konstanz,78224,,+49 07731 89 0,,,Yes,,47.7594537,8.8201309
565,20565,Hegau-Bodensee-Klinikum Loreto,,Stühlingen,Waldshut,79780,,,,,Yes,,47.7431983,8.4402732
566,20566,Heidekreis-Klinikum,,Walsrode,Niedersachsen,29664,,,,,,,52.8601756,9.5854339
567,20567,Heidekreis-Klinikum gGmbH,Oeninger Weg 30,Soltau,Niedersachsen,29614,,,,,Yes,,52.9882153,9.8574066
568,20568,Heidelberger Ionenstrahl-Therapiezentrum,Im Neuenheimer Feld 450,Heidelberg,Heidelberg,69117,,,,,,,49.4178461,8.6646134
569,20569,Heil- und Pflegeanstalt Karlshof,Karlshof 2,Lauterhofen,Bayern,92283,,,,,,,49.3698143,11.5956666
570,20570,Heilig Geist,,Boppard,Rhein-hunsrück-kreis,56154,,,,,,,50.2326287,7.5881271
571,20571,Heilig-Geist-Hospital,Rodensteinstraße 94,Bensheim,Hessen,64625,,+49 6251 1320,,,,,49.6782969,8.6204895
572,20572,Heilig-Geist-Hospital Bingen,Kapuzinerstraße 15-17,Bingen am Rhein,Mainz-bingen,55411,,,,,Yes,,49.9685055,7.8961748
573,20573,Heilig-Geist-Krankenhaus,Graseggerstraße 105,Köln,Köln,50667,,,,,Yes,,50.9928494,6.9246881
574,20574,Heiligenfeld Klinik,Krankenhausstraße 1,Uffenheim,Bayern,97215,,,,,,,49.5420245,10.2354979
575,20575,Heiligenfeld Klinik,Krankenhausstraße 3,Waldmünchen,Bayern,93449,,,,,,,49.3735836,12.7065694
576,20576,Heinrich Sengelmann Krankenhaus,Kayhuder Straße 65,Bargfeld-Stegen,Stormarn,23863,,,,,No,,53.7594174,10.1577519
577,20577,Heinrich-Braun-Klinikum Standort Kirchberg,Schneeberger Straße 36,Kirchberg,Sachsen,08107,,,,,Yes,,50.6264295,12.5608876
578,20578,Heinrich-Braun-Krankenhaus,Karl-Keil-Straße 35,Zwickau,Sachsen,08060,,,,,Yes,,50.7230036,12.427852
579,20579,Heinrich-Heine-Klinik,Am Stinthorn 42,Potsdam,Brandenburg,14476,,,,,,,52.4465519,13.0542809
580,20580,Heinrich-Mann-Klinik,,Bad Liebenstein,Wartburgkreis,36448,,,,,,,50.8107307,10.3531823
581,20581,Helfensteinklinik,,Geislingen an der Steige,Göppingen,73312,,,,,,,48.6250803,9.8435503
582,20582,Helios Agnes-Karll-Krankenhaus,Am Hochkamp 21,Bad Schwartau,Ostholstein,23611,,+49 451 20070,,,No,,53.9227184,10.6933696
583,20583,Helios Cäcilien-Hospital Hüls,,Krefeld,Krefeld,47839,,+49 2151 7391,,,Yes,,51.3756589,6.5157693
584,20584,Helios Frankenwaldklinik Kronach,Friesener Straße 41,Kronach,Bayern,96317,,,,,,,50.2447739,11.3328222
585,20585,Helios Klinik,,Blankenhain,Weimarer Land,99444,,,,,,,50.8614129,11.3381364
586,20586,Helios Klinik (Nebengebäude),Am Hagen 20,Hattingen,Ennepe-ruhr-kreis,45527,,+4923249660,,,,,51.3912443,7.2168953
587,20587,Helios Klinik Bleicherode,Barbarastraße 11,Bleicherode,Nordhausen,99752,,,,,Yes,,51.4432692,10.5653441
588,20588,Helios Klinik Erlenbach,,Erlenbach am Main,Bayern,63906,,,,,,,49.8109127,9.1653402
589,20589,Helios Klinik Erlenbach,Krankenhausstraße 41,Erlenbach am Main,Bayern,63906,,,,,Yes,,49.8115214,9.166118
590,20590,Helios Klinik Hattingen,Am Hagen 20,Hattingen,Ennepe-ruhr-kreis,45527,,+4923249660,,,,,51.3908771,7.2168185
591,20591,Helios Klinik Herzberg/Osterode,Dr.-Frössel-Allee nan,Herzberg am Harz,Niedersachsen,37412,,,,,,,51.6696924,10.3431272
592,20592,Helios Klinik Kipfenberg,Konrad-Regler-Straße 1,Kipfenberg,Bayern,85110,,,,,,,48.9525466,11.3945442
593,20593,Helios Klinik München Perlach,Schmidbauerstraße 44,München,Bayern,81737,,+49 89 67802-1,,,Yes,,48.1029388,11.6295521
594,20594,Helios Klinik Oberwald,,Grebenhain,Hessen,36355,,,,,,,50.4865658,9.3101667
595,20595,Helios Klinik Wipperfürth,Alte-Kölner-Straße 9,Wipperfürth,Oberbergischer Kreis,51688,,+49 2267 8890,,,,,51.1127161,7.3846061
596,20596,Helios Klinik Zerbst/Anhalt,Friedrich-Naumann-Straße 53,Zerbst/Anhalt,Anhalt-bitterfeld,39261,,,,,,,51.9599941,12.0933455
597,20597,Helios Kliniken,Lutherplatz 40,Krefeld,Krefeld,47805,,,,,,,51.3203427,6.5721022
598,20598,Helios Kliniken Mittelweser Nienburg,Ziegelkampstraße 39,Nienburg/Weser,Niedersachsen,31582,,,,,Yes,,52.6363217,9.2233123
599,20599,Helios Klinikum (Martfeld),,Schwelm,Ennepe-ruhr-kreis,58332,,,,,Yes,,51.2941272,7.3116887
600,20600,Helios Klinikum Bad Saarow,Pieskower Straße 33,Bad Saarow,Brandenburg,15526,,+49 33631 70,,,,,52.2820923,14.0648908
601,20601,Helios Klinikum Emil von Behring,Walterhöferstraße 11,Berlin,Berlin,14165,,+49 30 81020,,,,,52.4236929,13.2521175
602,20602,Helios Klinikum Erfurt,Nordhäuser Straße 74,Erfurt,Erfurt,99089,,,,,,,50.9895138,11.016718
603,20603,Helios Klinikum Kiel,Hamburger Chaussee 77,Kiel,Kiel,24103,,,,,Yes,,54.3048155,10.117266
604,20604,Helios Klinikum Salzgitter,Kattowitzer Straße 191,Salzgitter,Niedersachsen,38226,,+49 5341 835 0,,,,,52.1560899,10.320121
605,20605,Helios Klinikum Siegburg,Ringstraße 49,Siegburg,Rhein-sieg-kreis,53721,,,,,Yes,,50.7988185,7.2064523
606,20606,Helios OrthoClinic Hammelburg,Ofenthaler Weg 20,Hammelburg,Bayern,97762,,+49 9732 9000,,,,,50.120295,9.8963138
607,20607,Helios St. Elisabeth Klinik,,Oberhausen,Oberhausen,46045,,,,,Yes,,51.4620229,6.8537293
608,20608,Helios St. Johannes Klinik Duisburg,An der Abtei 7-11,Duisburg,Duisburg,47166,,+492035460,,,Yes,,51.4914891,6.7605886
609,20609,Helios-Klinik Idstein,Robert-Koch-Straße 2,Idstein,Hessen,65510,,,,,,,50.208032,8.2628351
610,20610,Helios-Rosmann-Klinik,Zeppelinstraße 37,Breisach am Rhein,Breisgau-hochschwarzwald,79206,,,,,,,48.0308277,7.5864501
611,20611,Hellmuth-Ulrici-Klinik,Waldhausstraße 44,Kremmen,Brandenburg,16766,,+493305550,,,No,,52.8088105,13.0421451
612,20612,Helmuth-G.-Walther Klinikum,,Lichtenfels,Bayern,96215,,,,,,,50.138128,11.0795456
613,20613,Hennebergklinik,,Schleusingen,Hildburghausen,98553,,,,,Yes,,50.5083452,10.7541923
614,20614,Henriettenstiftung,,Hannover,Niedersachsen,30559,,,,,,,52.3625533,9.8261336
615,20615,Hermann-Albrecht-Klinik,Strandbadstraße nan,Radolfzell am Bodensee,Konstanz,78315,,,,,No,,47.7284261,8.9957395
616,20616,Herz- & Gefäßzentrum Göttingen,,Göttingen,Niedersachsen,37073,,,,,,,51.5405608,9.9424663
617,20617,Herz- und Diabeteszentrum NRW,,Bad Oeynhausen,Minden-lübbecke,32545,,,,,,,52.1921042,8.7928049
618,20618,Herz-Jesu-Krankenhaus,Buttlarstraße 76,Fulda,Hessen,36037,,,,,Yes,,50.5634521,9.6727819
619,20619,Herz-Jesu-Krankenhaus,Am Weinberg 19,Bad Hersfeld,Hessen,36251,,,,,,,50.8560046,9.6902343
620,20620,Herz-Jesu-Krankenhaus Dernbach,,Dernbach (Westerwald),Westerwaldkreis,56428,,,,,,,50.4524005,7.7857152
621,20621,Herz-Kreislauf-Zentrum,Heinz-Meise-Straße 100,Rotenburg an der Fulda,Hessen,36199,,,,,,,51.004714,9.7376146
622,20622,Herz-Zentrum Bodensee,Luisenstraße 9a,Konstanz,Konstanz,78462,,+49 7531 8970,,,No,,47.6716095,9.185417
623,20623,Herzogin Elisabeth Hospital,Leipziger Straße 24,Braunschweig,Niedersachsen,38100,,,,,,,52.2334462,10.5250256
624,20624,Herzzentrum,Kerpener Straße 62,Köln,Köln,50937,,,,,,,50.9243442,6.9196364
625,20625,Hessenklinik Stadtkrankenhaus Korbach,,Korbach,Hessen,34497,,,,,,,51.2661228,8.8701234
626,20626,Hessing-Klinik,Hessingstraße 17,Augsburg,Bayern,86199,,+49 821 9090,,,Yes,,48.3403134,10.8660252
627,20627,Hessische Berglandklinik Koller GmbH,Landstraße 4,Bad Endbach,Hessen,35080,,+49 2776 803-0,,,,,50.7552879,8.4855266
628,20628,Hochgebirgsklinik Mittelberg,Alois-Wagner-Straße 45,Oy-Mittelberg,Bayern,87466,,+49 8366 9800,,,,,47.6352995,10.4211605
629,20629,Hochtaunus-Kliniken Bad Homburg,Zeppelinstraße 20,Bad Homburg vor der Höhe,Hessen,61352,,,,,Yes,,50.2127871,8.6182487
630,20630,Hochtaunus-Kliniken Usingen,,Usingen,Hessen,61250,,+49 6081 107-0,,,Yes,,50.3425416,8.5296739
631,20631,Hochwaldkrankenhaus,Chaumontplatz 1,Bad Nauheim,Hessen,61231,,+49 6032 7020,,,Yes,,50.3571559,8.7290376
632,20632,Hohenfeldklinik,Hohenfeldstraße 12-14,Bad Camberg,Hessen,65520,,,,,,,50.2958871,8.2748943
633,20633,Hohenloher Krankenhaus Öhringen,,Öhringen,Hohenlohekreis,74613,,,,,Yes,,49.2049613,9.4975178
634,20634,Hohenzollernklinik,Hohenzollernring 57,Münster,Münster,48143,,,,,,,51.9594437,7.6469747
635,20635,HolsingVital GmbH,Brunnenallee 3,Preußisch Oldendorf,Minden-lübbecke,32361,,,,,,,52.2911508,8.5531758
636,20636,Hospital zum Heiligen Geist,,Fritzlar,Hessen,34560,,+49 5622 9970,,,Yes,,51.1330124,9.2778307
637,20637,Hospital zum Heiligen Geist,Lange Straße 4 - 6,Frankfurt am Main,Hessen,60311,,,,,Yes,,50.1109738,8.6935976
638,20638,Hospital zum Hl. Geist,Von-Broichhausen-Allee 1,Kempen,Viersen,47906,,,,,,,51.3628913,6.4120356
639,20639,Hospital zum Hl. Geist Geseke,Bachstraße 76,Geseke,Soest,59590,,+49 2942 5900,,,,,51.6363523,8.5099102
640,20640,Hotelklinik Passauer Wolf,,Neustadt an der Donau,Bayern,93333,,,,,,,48.8205573,11.787405
641,20641,Hubschrauberlandeplatz Bundeswehrkrankenhaus Hamburg,,Hamburg,Hamburg,22041,,,,,,,53.5969226,10.0776472
642,20642,Hufeland Klinik,Taunusallee 5,Bad Ems,Rhein-lahn-kreis,56130,,,,,,,50.3339192,7.726904
643,20643,Hufeland Klinikum,Rudolf-Weiss-Straße 1-5,Bad Langensalza,Unstrut-hainich-kreis,99947,,,,,,,51.1047052,10.6496508
644,20644,Hufeland Klinikum GmbH,,Mühlhausen/Thüringen,Unstrut-hainich-kreis,99974,,,,,Yes,,51.2027956,10.466786
645,20645,Humboldt-Klinikum,Frohnauer Straße 74-80,Berlin,Berlin,13467,,,,,,,52.6223749,13.2931684
646,20646,Hunsrück Klinik,Holzbacher Straße 1,Simmern/Hunsrück,Rhein-hunsrück-kreis,55469,,,,,,,49.9802999,7.5166915
647,20647,Huyssens-Stiftung - Kliniken Essen-Mitte,,Essen,Essen,45138,,,,,,,51.4399843,7.0302189
648,20648,Hüttenhospital,Am Marksbach 28,Dortmund,Dortmund,44267,,,,,,,51.4808838,7.5091999
649,20649,Ida-Wolff-Krankenhaus,Juchaczweg 21,Berlin,Berlin,12351,,+49-30-600010,,,No,,52.4352408,13.4600934
650,20650,Illertalklinik,Krankenhausstraße 7,Illertissen,Bayern,89257,,+49 7303 177 0,,,,,48.225349,10.104664
651,20651,Ilm-Kreis-Kliniken Arnstadt-Ilmenau,Oehrenstöcker Straße 32,Ilmenau,Ilm-kreis,98693,,,,,Yes,,50.6793355,10.9177522
652,20652,Ilmtalklinik,,Pfaffenhofen an der Ilm,Bayern,85276,,,,,,,48.5195654,11.4960563
653,20653,Immanuel Klinik Rüdersdorf,,Rüdersdorf bei Berlin,Brandenburg,15562,,,,,,,52.4559687,13.7754748
654,20654,Immanuel Klinikum Bernau Herzzentrum Brandenburg,Ladeburger Chaussee nan,Bernau bei Berlin,Brandenburg,16321,,,,,,,52.6822832,13.5834379
655,20655,Immanuel Krankenhaus Berlin,Königstraße 63,Berlin,Berlin,14109,,,,,,,52.4197845,13.1628062
656,20656,Inn-Salzach-Klinikum,Gabersee 7,Wasserburg a. Inn,Bayern,83512,,+49 (0) 807171-0,,,,,48.0629962,12.20164
657,20657,Innenhof II,,Nümbrecht,Oberbergischer Kreis,51588,,,,,,,50.9075825,7.5494726
658,20658,Innenhof III,,Nümbrecht,Oberbergischer Kreis,51588,,,,,,,50.907406,7.5498326
659,20659,Innenhof IV,,Nümbrecht,Oberbergischer Kreis,51588,,,,,,,50.9077451,7.5496941
660,20660,Inselklinik Fehmarn,Mummendorfer Weg 12,Fehmarn,Ostholstein,23769,,+49 4371 5040,,,,,54.4417833,11.1757544
661,20661,Inselklinik Föhr-Amrum,Rebbelstieg 24,,Nordfriesland,,,+49 4681 480,,,Yes,,54.6852204,8.5638147
662,20662,Inselkrankenhaus Borkum,Gartenstraße 20,,Niedersachsen,,,,,,,,53.5859506,6.6704057
663,20663,Inselsberg Klinik,Fischbacher Straße 36,Bad Tabarz,Gotha,99891,,,,,,,50.8826167,10.4979954
664,20664,"Institut für Medizinische Psychologie, Psychologische Alternsforschung, Gerontologie",Bergheimer Straße 20,Heidelberg,Heidelberg,69115,,+49 6221 568151,,,,,49.4090559,8.6900063
665,20665,"Institut für Psychosomatische Kooperationsforschung und Familientherapie, Personalwohngebäude",Bergheimer Straße 54,Heidelberg,Heidelberg,69115,,+49 6221 56-4701,,,,,49.4081999,8.686338
666,20666,Institut für Transfusionsmedizin,Alexanderstraße 10,Dortmund,Dortmund,44137,,,,,,,51.5085743,7.4549343
667,20667,International Neuroscience Institute,Rudolf-Pichlmayr-Straße 4,Hannover,Niedersachsen,30627,,+49 511 270920,,,,,52.3902536,9.7972054
668,20668,Israelitisches Krankenhaus,Orchideenstieg 14,Hamburg,Hamburg,22297,,,,,,,53.6067567,9.9913386
669,20669,Jabbok Haus 1-3,Karl-Siebold-Weg 44,Bielefeld,Bielefeld,33604,,,,,No,,52.0027825,8.5333355
670,20670,Jakobi,,Rheine,Steinfurt,48431,,,,,,,52.2734261,7.4443704
671,20671,Johanna-Etienne Krankenhaus,Am Hasenberg 46,Neuss,Rhein-kreis Neuss,41460,,,,,Yes,,51.2138412,6.6608797
672,20672,Johannes Wesling Klinikum,Hans-Nolte-Straße 1,Minden,Minden-lübbecke,32423,,+49 571 - 7 90-0,,,Yes,,52.2606695,8.8866916
673,20673,Johanneum,Feldstraße 1,Wildeshausen,Niedersachsen,27793,,+49 4431 982 0,,,Yes,,52.8931932,8.4333743
674,20674,Johanniter Frauen- und Kinderklinik,,Stendal,Stendal,39576,,,,,,,52.5959153,11.8567703
675,20675,Johanniter Klinik am Rombergpark,Am Rombergpark 42,Dortmund,Dortmund,44225,,,,,No,,51.484367,7.4652285
676,20676,Johanniter Ordenshäuser,,Bad Oeynhausen,Minden-lübbecke,32545,,,,,,,52.2003886,8.7895123
677,20677,Johanniter-Krankenhaus,Steinbrinkstraße 96a,Oberhausen,Oberhausen,46149,,,,,Yes,,51.5100533,6.8541262
678,20678,Johanniter-Krankenhaus,,Bonn,Bonn,53113,,,,,Yes,,50.7125063,7.1308778
679,20679,Johanniter-Krankenhaus,Am Runden Berge 3,Geesthacht,Herzogtum Lauenburg,21502,,,,,Yes,,53.4327935,10.3838901
680,20680,Johanniter-Krankenhaus,Steinbrinkstraße 96a,Oberhausen,Oberhausen,46149,,,,,No,,51.5099913,6.8538553
681,20681,Johanniter-Krankenhaus Gronau,Johanniterstraße 1-3,Gronau (Leine),Niedersachsen,31028,,+49 5182 583 0,,,,,52.0830127,9.765899
682,20682,Johanniter-Krankenhaus Stendal,,Stendal,Stendal,39576,,+49 3931 660,,,Yes,,52.6108701,11.8547655
683,20683,Josef-Hospital Delmenhorst Deichhorst,Wildeshauser Straße 92,Delmenhorst,Niedersachsen,27753,,+49 4221 993,,,Yes,,53.0436337,8.5944319
684,20684,Josefinum,Kapellenstraße 30,Augsburg,Bayern,86154,,+49 821 2412 - 0,,,,,48.3849682,10.8739886
685,20685,Josefinum KJF Fachklinik,Haubensteigweg 40,Kempten (Allgäu),Bayern,87435,,,,,,,47.7257709,10.2982114
686,20686,Josephinum,,München,Bayern,80333,,+49 89 23688-0,,,,,48.1454904,11.5817219
687,20687,Josephs-Hospital,Am Krankenhaus 2,Warendorf,Warendorf,48231,,,,,Yes,,51.9607,8.000622
688,20688,Juliane-Wahrendorff-Klinik,Rudolf-Wahrendorff-Straße 11,Sehnde,Niedersachsen,31319,,,,,,,52.344167,9.9307974
689,20689,Juraklinik,Oberend 29,Scheßlitz,Bayern,96110,,,,,,,49.9796243,11.0373802
690,20690,Justizvollzugskrankenhaus NRW Fröndenberg,,Fröndenberg/Ruhr,Unna,58730,,,,,,,51.4787012,7.7817845
691,20691,Jüdisches Krankenhaus Berlin,Heinz-Galinski-Straße 1,Berlin,Berlin,13357,,+49 30 49940,,,,,52.5547557,13.3686182
692,20692,KBO Kinderzentrum München,Heiglhofstraße 63,München,Bayern,81375,,,,,,,48.1065428,11.4779121
693,20693,KH Merheim Notaufnahme,Ostmerheimer Straße 200,Köln,Köln,51109,,+49 221 8907-0,,,Yes,,50.9389659,7.0523631
694,20694,KJP Mariaberg,Burghaldenstraße 12,Gammertingen,Sigmaringen,72501,,,,,No,,48.2740229,9.2106605
695,20695,KMG Elbtalklinik,,Bad Wilsnack,Brandenburg,19336,,038791-30,,,No,,52.963626,11.9527069
696,20696,KMG Klinik Boizenburg,Vor dem Mühlentor 3,Boizenburg/Elbe,Ludwigslust-parchim,19258,,+49388476370,,,,,53.3775077,10.7181563
697,20697,KMG Klinikum AG Kyritz,,Kyritz,Brandenburg,16866,,,,,,,52.9485301,12.3872188
698,20698,KMG Klinikum Havelberg,Domherrnstraße 10,Havelberg,Stendal,39539,,+4939387710,,,Yes,,52.8272125,12.0781492
699,20699,KMG Klinikum Sömmerda,Bahnhofstraße 36,Sömmerda,Sömmerda,99610,,+49 3634 520,,,Yes,,51.1624825,11.1211724
700,20700,KMG Klinikum Wittstock,Meyenburger Chaussee 23,Wittstock/Dosse,Brandenburg,16909,,,,,Yes,,53.1701818,12.4867237
701,20701,KMG Rehabilitationszentrum Sülzhayn GmbH,Am Haidberg 1,Ellrich,Nordhausen,99755,,,,,,,51.6099732,10.6776949
702,20702,KMG-Klinikum,Friedrich-Trendelenburg-Allee 1,Güstrow,Rostock (landkreis),18273,,,,,,,53.8111424,12.198965
703,20703,KRH Klinikum Agnes Karll Laatzen,Hildesheimer Straße 158,Laatzen,Niedersachsen,30880,,,,,Yes,,52.3077477,9.7990215
704,20704,KRH Klinikum Großburgwedel,Fuhrberger Straße 8,Burgwedel,Niedersachsen,30938,,+49 5139 8011,,,,,52.4962816,9.8617403
705,20705,KRH Klinikum Neustadt am Rübenberge,Lindenstraße 75,Neustadt am Rübenberge,Niedersachsen,31535,,,,,Yes,,52.4939362,9.4650349
706,20706,KRH Klinikum Nordstadt,Haltenhoffstraße 41,Hannover,Niedersachsen,30167,,,,,,,52.3913745,9.7108095
707,20707,KRH Klinikum Robert Koch Gehrden,Von-Reden-Straße 1,Gehrden,Niedersachsen,30989,,+49 5108 69 0,,,Yes,,52.3030995,9.5947278
708,20708,KRH Klinikum Siloah,Stadionbrücke 4,Hannover,Niedersachsen,30449,,,,,,,52.3588608,9.7261499
709,20709,KRH Klinkum Lehrte,Manskestraße 22,Lehrte,Niedersachsen,31275,,+495132 5030,,,Yes,,52.381201,9.9843067
710,20710,KRH Psychiatrie Langenhagen,Rohdehof 3,Langenhagen,Niedersachsen,30853,,,,,,,52.4428834,9.7398701
711,20711,KRH Psychiatrie Langenhagen - Haus im Park,Rohdehof 3,Langenhagen,Niedersachsen,30853,,,,,,,52.4446862,9.7434395
712,20712,Kaiser-Trajan-Klinik,,Neustadt an der Donau,Bayern,93333,,,,,,,48.8266417,11.7801793
713,20713,Kaiserbergklinik,,Bad Nauheim,Hessen,61231,,,,,,,50.3696035,8.7313472
714,20714,Kaiserin-Auguste-Victoria Krankenhaus,Stegwiese 27,Ehringshausen,Hessen,35630,,,,,,,50.6047255,8.3843647
715,20715,Kapelle Friederikenstift,Humboldtstraße 5,Hannover,Niedersachsen,30169,,,,,,,52.3711849,9.724885
716,20716,Kapellenstraße,,Gailingen am Hochrhein,Konstanz,78262,,,,,,,47.6907874,8.7660203
717,20717,Kapellenstraße,,Gailingen am Hochrhein,Konstanz,78262,,,,,,,47.6898117,8.7680457
718,20718,Kapellenstraße,,Gailingen am Hochrhein,Konstanz,78262,,,,,,,47.6897648,8.7682389
719,20719,Karl-Hansen-Klinik,,Bad Lippspringe,Paderborn,33175,,,,,,,51.7831639,8.8258845
720,20720,Karl-Olga-Krankenhaus,Hackstraße 61,Stuttgart,Stuttgart,70188,,+49 711 2639 0,,,Yes,,48.7892312,9.2029576
721,20721,Karolinen Hospital,,Arnsberg,Hochsauerlandkreis,59759,,,,,,,51.4262172,7.997891
722,20722,Kassenärztlicher Notfalldienst,Nordhäuser Straße 74,Erfurt,Erfurt,99089,,,,,Yes,,50.9939352,11.0104558
723,20723,Katharinen-Hospital,Obere Husemannstraße 2,Unna,Unna,59423,,,,,,,51.5370786,7.6859099
724,20724,Katharinenhospital,Kriegsbergstraße 60,Stuttgart,Stuttgart,70174,,,,,Yes,,48.7842373,9.173697
725,20725,Katholisches Karl-Leisner-Klinikum Wilhelm-Anton-Hospital Goch,Voßheider Straße 214,Goch,Kleve,47574,,+49-2823-8910,,,,,51.6769252,6.1807538
726,20726,Katholisches Kinderkrankenhaus Wilhelmstift,,Hamburg,Hamburg,22143,,,,,,,53.5884586,10.1634489
727,20727,"Katholisches Klinikum Mainz, Standort St. Vincenz und Elisabeth Hospital",,Mainz,Mainz,55131,,,,,Yes,,49.9899487,8.2718987
728,20728,Katholisches Klinikum Marienhof Koblenz,Rudolf-Virchow-Straße 7,Koblenz,Koblenz,56068,,+49 261 4960,,,Yes,,50.3591676,7.5709153
729,20729,"Katholisches Krankenhaus ""St. Johann Nepomuk""",Haarbergstraße 72,Erfurt,Erfurt,99097,,,,,,,50.9480313,11.0828048
730,20730,Katholisches Krankenhaus Dortmund-West,Zollernstraße 40,Dortmund,Dortmund,44379,,,,,Yes,,51.5237097,7.3690051
731,20731,Kbo Isar-Amper-Klinikum Fürstenfeldbruck für Psychiatrie und Psychotherapie,Stadelbergerstraße 16-22,Fürstenfeldbruck,Bayern,82256,,+49 8141 53470,,,,,48.1826376,11.260428
732,20732,Kemperhof,Koblenzer Straße 115-155,Koblenz,Koblenz,56068,,,,,Yes,,50.3546819,7.5649059
733,20733,Ketteler Krankenhaus,,Offenbach am Main,Hessen,63065,,,,,,,50.0942602,8.7830988
734,20734,KfH Kuratorium für Dialyse und Nierentransplantation,Dorstener Straße 49,Oberhausen,Oberhausen,46149,,,,,,,51.5094194,6.8552613
735,20735,KfH-Nierenzentrum,Gautinger Straße 51,Neuried,Bayern,82061,,,,,,,48.0856302,11.4517457
736,20736,Kinder- und Jugendklinik,Loschgestraße 15,Erlangen,Bayern,91054,,,,,,,49.6000642,11.0074318
737,20737,Kinder- und Jugendklinik,Schillingallee 35,Rostock,Rostock (stadt),18057,,,,,Yes,,54.0830251,12.1035172
738,20738,Kinder- und Jugendmedizin,Kerpener Straße 62,Köln,Köln,50937,,,,,Yes,,50.9249256,6.9173129
739,20739,Kinder- und Jugendpsychiatrie,,Idar-Oberstein,Birkenfeld,55743,,,,,,,49.7170037,7.3209093
740,20740,Kinder- und Jugendpsychiatrie,,Ulm,Ulm,89073,,,,,,,48.4103743,10.0017133
741,20741,Kinder- und Jugendpsychiatrie,,Viersen,Viersen,41747,,,,,,,51.2948108,6.3484086
742,20742,"Kinder- und Jugendpsychiatrie (KJPP), St. Elisabethen Krankenhaus Lörrach",,Lörrach,Lörrach,79539,,,,,,,47.6172395,7.6631729
743,20743,Kinder- und Jugendpsychiatrie Helios Klinikum Schleswig,Friedrich-Ebert-Straße 5,Schleswig,Schleswig-flensburg,24837,,+49 4621 831713,,,,,54.520315,9.5494993
744,20744,Kinder- und Jugendpsychiatrie Marien Hospital Papenburg Aschendorf,Marienstraße 8,Papenburg,Niedersachsen,26871,,+49 4962 502 100,,,No,,53.051288,7.3297344
745,20745,Kinder- und Jugendpsychiatrie Spiel und Ergotherapie,,Wunstorf,Niedersachsen,31515,,,,,,,52.4252193,9.4395221
746,20746,Kinderheilstätte,,Nordkirchen,Coesfeld,59394,,,,,,,51.7391493,7.5253265
747,20747,Kinderhospital Osnabrück,Iburger Straße 187,Osnabrück,Niedersachsen,49074,,,,,No,,52.2515399,8.0632934
748,20748,Kinderklinik,,Bottrop,Bottrop,46236,,,,,Yes,,51.5334509,6.9178071
749,20749,Kinderklinik,,Ahlen,Warendorf,59227,,,,,,,51.7684029,7.8841763
750,20750,Kinderklinik Dritter Orden,Innstraße 76,Passau,Bayern,94032,,,,,,,48.5659963,13.4464037
751,20751,Kinderklinik und Poliklinik,,Bonn,Bonn,53113,,,,,Yes,,50.7247357,7.1138245
752,20752,Kinderkrankenhaus Amsterdamer Straße,Amsterdamer Straße 59,Köln,Köln,50733,,+49 221 8907-0,,,Yes,,50.9634747,6.9658462
753,20753,Kinderkrankenhaus Salzwedel,,Salzwedel,Altmarkkreis Salzwedel,29410,,,,,,,52.8564456,11.1460182
754,20754,Kinderkrankenhaus Sankt Marien,Grillparzerstraße 9,Landshut,Bayern,84028,,+49 871 8520,,,Yes,,48.5344648,12.164104
755,20755,Kinderkrankenhaus auf der Bult,,Hannover,Niedersachsen,30173,,,,,,,52.3612029,9.7778935
756,20756,Kinderpsychiatrie,Harfenstraße 22,Erlangen,Bayern,91054,,,,,,,49.6031928,11.0080453
757,20757,Kirchbergklinik,Kirchberg 7-11,Bad Lauterberg im Harz,Niedersachsen,37431,,+49 5524 859 0,,,,,51.6254558,10.4682322
758,20758,Kirnitzschtal-Klinik,Kirnitzschtalstraße 6,Bad Schandau,Sachsen,01814,,,,,No,,50.9239314,14.161942
759,20759,Klinik Achim,Bierdener Mühle 2,Achim,Niedersachsen,28832,,+49 4202 998 0,,,,,53.0174408,9.0058421
760,20760,Klinik Alpenhof,,Chieming,Bayern,83339,,,,,,,47.8948925,12.5292436
761,20761,Klinik Am Lerchenberg,,Heilbronn,Heilbronn (stadt),74072,,,,,,,49.1374187,9.2325876
762,20762,Klinik Amsee,Amsee 6,Waren (Müritz),Mecklenburgische Seenplatte,17192,,,,,,,53.542084,12.6881776
763,20763,Klinik Augustinum,Wolkerweg 16,München,Bayern,81375,,,,,,,48.1227778,11.4885985
764,20764,Klinik Bad Bergzabern,Danziger Straße 25,Bad Bergzabern,Südliche Weinstraße,76887,,,,,Yes,,49.1065653,7.9994313
765,20765,Klinik Bad Trissl,Bad-Trißl-Straße 73,Oberaudorf,Bayern,83080,,,,,,,47.6573073,12.1552115
766,20766,Klinik Bad Windsheim,,Bad Windsheim,Bayern,91438,,,,,,,49.515491,10.4087721
767,20767,Klinik Bavaria,Von-der-Tann-Straße 18-22,Bad Kissingen,Bayern,97688,,+49 971 829-0,,,,,50.198808,10.0840571
768,20768,Klinik Bavaria,,Freyung,Bayern,94078,,,,,,,48.7950535,13.5418251
769,20769,Klinik Bergwinkel,,Bad Soden-Salmünster,Hessen,63628,,,,,,,50.2856993,9.3532306
770,20770,Klinik Berlin,,Bad Driburg,Höxter,33014,,,,,No,,51.7375332,9.0439612
771,20771,Klinik Berlin,,Bad Driburg,Höxter,33014,,,,,No,,51.7372505,9.0445962
772,20772,Klinik Berlin,Brunnenstraße 11,Bad Driburg,Höxter,33014,,,,,No,,51.7364693,9.0433789
773,20773,Klinik Birkental,Zur Herche 2,Bad Wildungen,Hessen,34537,,+49 5621 760,,,,,51.1082256,9.0822488
774,20774,Klinik Blankenstein,,Hattingen,Ennepe-ruhr-kreis,45527,,,,,,,51.4048808,7.2213848
775,20775,Klinik Buching,,Halblech,Bayern,87642,,,,,No,,47.6362571,10.785555
776,20776,Klinik ChiemseeWinkel Seebruck GmbH,Römerstraße 17,Seeon-Seebruck,Bayern,83358,,,,,,,47.9328384,12.4755228
777,20777,Klinik Diepholz,Eschfeldstraße 8,Diepholz,Niedersachsen,49356,,,,,,,52.6102824,8.3753316
778,20778,Klinik Donaustauf,Ludwigstraße 68,Donaustauf,Bayern,93093,,+49 9403 80-0,,,No,,49.0366129,12.2077461
779,20779,Klinik Dr. Guth,Jürgensallee 46-48,Hamburg,Hamburg,22609,,,,,,,53.5574068,9.8534006
780,20780,Klinik Dr. Reiser,Münchener Straße 135,Ingolstadt,Bayern,85049,,+49 841 9733-0,,,Yes,,48.7392692,11.4358616
781,20781,Klinik Dr. Steib,Adelheidstraße 18,Königstein im Taunus,Hessen,61462,,,,,,,50.1845549,8.4708575
782,20782,Klinik Eichholz,Walkenhausweg 8,Lippstadt,Soest,59556,,,,,,,51.7156882,8.3399365
783,20783,Klinik Eichstätt,Ostenstraße 31,Eichstätt,Bayern,85072,,+49 8421 601 0,,,Yes,,48.8908022,11.1923395
784,20784,Klinik Eilenburg,Wilhelm-Grune-Straße 5-8,Eilenburg,Sachsen,04838,,,,,Yes,,51.459791,12.6198267
785,20785,Klinik Eschenburg,,Eschenburg,Hessen,35713,,+49 2774-9134-0,,,No,,50.7943794,8.3205629
786,20786,Klinik Fallingbostel,,Bad Fallingbostel,Niedersachsen,29683,,,,,,,52.8683699,9.707477
787,20787,Klinik Frühauf,Scheffelstraße 83,Offenbach am Main,Hessen,63065,,,,,,,50.0915036,8.7893435
788,20788,Klinik Füssen,,Füssen,Bayern,87629,,+49 8362 500-0,,,,,47.5666091,10.7085197
789,20789,Klinik Glotterbad,Badstraße 2,Glottertal,Breisgau-hochschwarzwald,79286,,,,,,,48.0548706,7.9637733
790,20790,Klinik Hohe Warte,Hohe Warte 8,,Bayern,,,+49 921 40001,,,Yes,,49.9666226,11.5823876
791,20791,Klinik Hohenlohe,Lothar-Daiker-Straße 1,Bad Mergentheim,Main-tauber-kreis,97980,,,,,,,49.4956926,9.7815282
792,20792,Klinik Hoher Meissner,Hardtstraße 36,Bad Sooden-Allendorf,Hessen,37242,,,,,,,51.2755546,9.9547832
793,20793,Klinik Höhenried,,Bernried am Starnberger See,Bayern,82347,,+49 8158 24-0,,,No,,47.8791401,11.2787225
794,20794,Klinik Kitzinger Land,,Kitzingen,Bayern,97318,,,,,,,49.7442661,10.1370601
795,20795,Klinik Königsfeld,Holthauser Talstraße 2,Ennepetal,Ennepe-ruhr-kreis,58256,,,,,,,51.27603,7.3319819
796,20796,Klinik Kösching,Krankenhausstraße 19,Kösching,Bayern,85092,,+49 8456 710,,,Yes,,48.8148969,11.5072794
797,20797,Klinik Köthen,Hallesche Straße 29,Köthen (Anhalt),Anhalt-bitterfeld,06366,,,,,Yes,,51.7477412,11.9720454
798,20798,Klinik Leezen,Wittgensteiner Platz 1,Leezen,Ludwigslust-parchim,19067,,+49 3866 60 0,,,No,,53.6601827,11.4909785
799,20799,Klinik Lilienthal,Moorhauser Landstraße 3c,Lilienthal,Niedersachsen,28865,,,,,,,53.1492836,8.9047394
800,20800,Klinik Lindenplatz,Weslarner Straße 29,Bad Sassendorf,Soest,59505,,,,,,,51.5953754,8.17623
801,20801,Klinik Lutherstadt Eisleben,Hohetorstraße 25,"Eisleben, Lutherstadt",Mansfeld-südharz,06295,,,,,Yes,,51.5335083,11.5433545
802,20802,Klinik Maingau vom Roten Kreuz,,Frankfurt am Main,Hessen,60318,,,,,No,,50.1201983,8.6881333
803,20803,Klinik Martinusquelle,,Bad Lippspringe,Paderborn,33175,,,,,,,51.7871709,8.8088665
804,20804,Klinik Mühldorf,,Mühldorf a. Inn,Bayern,84453,,,,,Yes,,48.2426617,12.5280679
805,20805,Klinik Nahetal,,Bad Kreuznach,Bad Kreuznach,55543,,+49 671 375-0,,,,,49.8257967,7.8446295
806,20806,Klinik Nette-Gut für Forensische Psychiatrie,,Andernach,Mayen-koblenz,56626,,,,,,,50.4256323,7.4356126
807,20807,Klinik Neumühle,Neumühle 3,Hollstadt,Bayern,97618,,,,,,,50.3505806,10.3056948
808,20808,Klinik Neustadt,,Neustadt an der Aisch,Bayern,91413,,,,,,,49.5812353,10.623742
809,20809,Klinik Nürtingen,,Nürtingen,Esslingen,72622,,,,,,,48.6303254,9.3558067
810,20810,"Klinik Oberammergau - Zentrum für Rheumatologie, Orthopädie und Schmerztherapie",Hubertusstraße 40,Oberammergau,Bayern,82487,,+49 8822 9140,,,No,,47.5911976,11.0740271
811,20811,Klinik Oberstdorf,Trettachstraße 16,Oberstdorf,Bayern,87561,,,,,Yes,,47.4110338,10.2821479
812,20812,Klinik Paradiese,,Soest,Soest,59494,,,,,,,51.5674235,8.0508396
813,20813,Klinik Parsberg,Lupburger Straße 11,Parsberg,Bayern,92331,,+49 9492 603-0,,,,,49.1591646,11.7253263
814,20814,Klinik Porta Westfalica,Steinstraße 65,Bad Oeynhausen,Minden-lübbecke,32545,,,,,No,,52.1984229,8.8073035
815,20815,Klinik Püttlingen,,Püttlingen,Saarland,66346,,+49 6898 55-0,,,Yes,,49.2769975,6.8710363
816,20816,Klinik Rabenstein,Kurstraße 34,Nidda,Hessen,63667,,,,,,,50.4194584,8.986043
817,20817,Klinik Rathenow,,Rathenow,Brandenburg,14712,,,,,,,52.6067583,12.3466855
818,20818,Klinik Reinhardstal,Ahornallee 1,Bad Wildungen,Hessen,34537,,,,,,,51.1117354,9.0790355
819,20819,Klinik Roseneck,,Prien a. Chiemsee,Bayern,83209,,,,,,,47.860086,12.3625859
820,20820,Klinik Roseneck,,Prien a. Chiemsee,Bayern,83209,,,,,,,47.860417,12.3612479
821,20821,Klinik Sankt Elisabeth,Furtwänglerstraße 5-7,Heidelberg,Heidelberg,69121,,,,,No,,49.4218882,8.682024
822,20822,Klinik Schkeuditz,Leipziger Straße 45,Schkeuditz,Sachsen,04435,,,,,Yes,,51.3955646,12.2337809
823,20823,Klinik Schloss Falkenhof,Nibelungenstraße 109,Bensheim,Hessen,64625,,,,,,,49.6849518,8.6401713
824,20824,Klinik Schwabenland,,Isny im Allgäu,Ravensburg,88316,,,,,,,47.709923,10.0356168
825,20825,Klinik Schöneck,Albertplatz 1,Schöneck/Vogtl.,Sachsen,08261,,,,,Yes,,50.3971976,12.3365891
826,20826,Klinik Seehalde,Scheffelstraße 14,Radolfzell am Bodensee,Konstanz,78315,,,,,No,,47.7349975,8.9773982
827,20827,Klinik Seehalde,Scheffelstraße 14/2,Radolfzell am Bodensee,Konstanz,78315,,,,,No,,47.7354707,8.9770573
828,20828,Klinik Seehalde,,Radolfzell am Bodensee,Konstanz,78315,,,,,No,,47.7347985,8.9777677
829,20829,Klinik Solequelle,Mühlenweg 13,Erwitte,Soest,59597,,,,,No,,51.6297963,8.3545894
830,20830,Klinik Sonnenalm,,Oberstaufen,Bayern,87534,,,,,,,47.533621,10.0239114
831,20831,Klinik Sonnenblick,Amöneburger Straße 1,,Hessen,,,,,,,,50.7992544,8.8012908
832,20832,Klinik St. Hedwig,Steinmetzstraße 1-3,Regensburg,Bayern,93049,,+49 941 369 98,,,Yes,,49.0174849,12.0791115
833,20833,Klinik St. Irmingard,,Prien a. Chiemsee,Bayern,83209,,,,,No,,47.8610702,12.3636695
834,20834,Klinik Sulingen,Schmelingstraße 47,Sulingen,Niedersachsen,27232,,,,,,,52.6833567,8.8046385
835,20835,Klinik Tecklenburger Land,Bahnhofstraße 32,Tecklenburg,Steinfurt,49545,,,,,,,52.2171924,7.8055133
836,20836,Klinik Tettnang,Emil-Münch-Straße 16,Tettnang,Bodenseekreis,88069,,+49 7542 5310,,,Yes,,47.6729145,9.5974494
837,20837,Klinik Walstedde,Nordholter Weg 3,Drensteinfurt,Warendorf,48317,,,,,,,51.7621587,7.7939978
838,20838,Klinik Wartenberg,Badstraße 43,Wartenberg,Bayern,85456,,,,,,,48.4048765,11.9999746
839,20839,Klinik Weißenfels,Naumburger Straße 76,Weißenfels,Burgenlandkreis,06667,,,,,Yes,,51.1938229,11.9530523
840,20840,Klinik Werraland,Balzerbornweg 2,Bad Sooden-Allendorf,Hessen,37242,,,,,,,51.266032,9.9639952
841,20841,Klinik Wetterau,Zanderstraße 30-32,Bad Nauheim,Hessen,61231,,,,,,,50.3594013,8.7450616
842,20842,Klinik Wiesengrund,Berliner Straße 100,Bad Sassendorf,Soest,59505,,,,,,,51.5921145,8.1727951
843,20843,Klinik Wiesengrund,Wiesenstraße 20,Bad Sassendorf,Soest,59505,,,,,,,51.5921145,8.1727951
844,20844,Klinik Wiesengrund,Mühlenweg 15,Erwitte,Soest,59597,,+49 (0) 29 43 - 899-00,,,No,,51.6302174,8.3560932
845,20845,Klinik Wollmarshöhe,,Bodnegg,Ravensburg,88285,,,,,,,47.7204706,9.6753087
846,20846,Klinik Zimmermann,Badstraße 46d,Badenweiler,Breisgau-hochschwarzwald,79410,,,,,No,,47.8029887,7.6874204
847,20847,Klinik Zissendorf,Gut Zissendorf 1-7,Hennef (Sieg),Rhein-sieg-kreis,53773,,,,,No,,50.7855815,7.262786
848,20848,Klinik am Bürgerpark,Schiffdorfer Chaussee 29,Bremerhaven,Bremen,27574,,+49 471 1820,,,Yes,,53.5322456,8.6061463
849,20849,Klinik am Greinberg,,Würzburg,Bayern,97080,,,,,,,49.8007959,9.9654556
850,20850,Klinik am Haussee,Buchenallee 1,Feldberger Seenlandschaft,Mecklenburgische Seenplatte,17258,,,,,,,53.3412028,13.432809
851,20851,Klinik am Hellweg,Bismarckstraße 2,Bad Sassendorf,Soest,59505,,,,,,,51.5875532,8.1679691
852,20852,Klinik am Hellweg,Friedrichstraße 6,Bad Sassendorf,Soest,59505,,,,,,,51.5875775,8.1703715
853,20853,Klinik am Kasinopark,Hospitalweg 1,Georgsmarienhütte,Niedersachsen,49124,,,,,,,52.2051815,8.0410464
854,20854,Klinik am Korso,,Bad Oeynhausen,Minden-lübbecke,32545,,,,,,,52.2018419,8.7985598
855,20855,Klinik am Kronsberg,Debberoder Straße 61,Hannover,Niedersachsen,30159,,,,,,,52.3106965,9.8354545
856,20856,Klinik am Kurpark,Ziergartenstraße 19,Bad Wildungen,Hessen,34537,,,,,,,51.1087966,9.0781609
857,20857,Klinik am Lietholz,,Bad Salzuflen,Lippe,32105,,,,,,,52.0925862,8.7561718
858,20858,Klinik am Osterbach,Am Osterbach 2,Bad Oeynhausen,Minden-lübbecke,32545,,+49 5731 159 0,,,,,52.198374,8.7877432
859,20859,Klinik am Park,Westkorso 14,Bad Oeynhausen,Minden-lübbecke,32545,,+49 5731 248 0,,,,,52.1996581,8.7914194
860,20860,Klinik am Park,Berliner Straße 9,Bad Sassendorf,Soest,59505,,,,,,,51.5900717,8.1726303
861,20861,Klinik am Rennsteig,,Bad Tabarz,Gotha,99891,,,,,,,50.8713204,10.5124571
862,20862,Klinik am Roseneck,,Berlin,Berlin,14199,,,,,,,52.4794178,13.2814811
863,20863,Klinik am Rosengarten,,Bad Oeynhausen,Minden-lübbecke,32545,,,,,,,52.2000289,8.7919924
864,20864,Klinik am Schlossgarten Dülmen GmbH,Am Schloßgarten 10,Dülmen,Coesfeld,48249,,,,,Yes,,51.8263703,7.2812479
865,20865,Klinik am See,,Rüdersdorf bei Berlin,Brandenburg,15562,,,,,,,52.4536412,13.7704824
866,20866,Klinik am Steigerwald,,Gerolzhofen,Bayern,97447,,,,,,,49.8895197,10.4091891
867,20867,Klinik am Südpark,Zanderstraße 26,Bad Nauheim,Hessen,61231,,,,,,,50.3600553,8.7442743
868,20868,Klinik am schönen Moos,Am Schönen Moos 7,Bad Saulgau,Sigmaringen,88348,,,,,,,48.0140351,9.4838875
869,20869,Klinik an der Weißenburg,,Uhlstädt-Kirchhasel,Saalfeld-rudolstadt,07407,,,,,,,50.7311813,11.4495
870,20870,Klinik der LMU,,München,Bayern,80336,,,,,,,48.1326573,11.5586706
871,20871,Klinik des Max-Planck-Instituts für Psychiatrie,Kraepelinstraße 10,München,Bayern,80802,,,,,,,48.1736806,11.5759568
872,20872,Klinik für Forensische Psychiatrie,Krawehlstraße 55,Essen,Essen,45130,,,,,No,,51.4389245,6.9987017
873,20873,Klinik für Frauenheilkunde und Geburtshilfe,Flemmingstraße 4,Chemnitz,Sachsen,09116,,,,,,,50.8438127,12.882701
874,20874,Klinik für Hals-Nasen-Ohrenheilkunde,Doberaner Straße 137,Rostock,Rostock (stadt),18057,,,,,,,54.0905486,12.1177959
875,20875,Klinik für Herzchirurgie,Franz-Lust-Straße 30,Karlsruhe,Karlsruhe (stadt),76149,,,,,,,49.0180358,8.3757419
876,20876,Klinik für Kinder- und Jugendmedizin,Humboldtstraße 52,Dortmund,Dortmund,44137,,,,,,,51.5096433,7.4554183
877,20877,Klinik für Kinder- und Jugendmedizin Eppendorf,,Hamburg,Hamburg,20251,,+49 40 7410-0,,,Yes,,53.5904073,9.9791028
878,20878,Klinik für Kinder- und Jugendpsychiatrie - Erweiterung,Neuenhofer Weg 22,Aachen,Aachen,52074,,,,,,,50.7729344,6.0435713
879,20879,Klinik für Kinder- und Jugendpsychiatrie - Tageszentrum für Jugendliche,Blumenstraße 8,Heidelberg,Heidelberg,69115,,+49 6221 56-4466,,,,,49.4045156,8.6909949
880,20880,Klinik für Kinder- und Jugendpsychiatrie und Psychotherapie (KJPP),,Schwarzach,Neckar-odenwald-kreis,74869,,,,,,,49.3797518,8.9852594
881,20881,"Klinik für Kinder- und Jugendpsychiatrie, Psychosomatik und Psychotherapie",Südliche Hildapromenade 7,Karlsruhe,Karlsruhe (stadt),76133,,,,,,,49.0117403,8.379687
882,20882,Klinik für Kinderneurologie und Sozialpädiatrie,Knittlinger Steige 21,Maulbronn,Enzkreis,75433,,+49 7043 160,,,No,,49.0004804,8.8004883
883,20883,Klinik für Manuelle Therapie Haus 2/3,Ostenallee 107,Hamm,Hamm,59065,,,,,,,51.6911658,7.8495814
884,20884,Klinik für Orthopädie,Doberaner Straße 142,Rostock,Rostock (stadt),18057,,,,,,,54.0899106,12.1199999
885,20885,Klinik für Pneumologie und Intensivmedizin,Nikolai-Rumjanzew-Straße 100,Leipzig,Sachsen,04207,,,,,Yes,,51.3185012,12.3019232
886,20886,Klinik für Psychiatrie & Psychotherapie,,Friedberg (Hessen),Hessen,61169,,,,,,,50.3337406,8.7413595
887,20887,Klinik für Psychiatrie und Psychotherapie,Knappenstraße 19,Hamm,Hamm,59065,,,,,,,51.6885307,7.8511977
888,20888,Klinik für Psychiatrie und Psychotherapie,,Schlüchtern,Hessen,36381,,,,,,,50.3537204,9.5265746
889,20889,Klinik für Psychiatrie und Psychotherapie Vitos - Standort Marburg,,Marburg,Hessen,35037,,,,,,,50.790191,8.7753081
890,20890,Klinik für Psychiatrie und psychotherapeutische Medizin,,Karlsruhe,Karlsruhe (stadt),76133,,,,,,,49.012336,8.3815059
891,20891,"Klinik für Psychiatrie, Psychotherapie und Psychosomatik",Hans-Böckler-Allee 155,Aachen,Aachen,52074,,,,,,,50.7735455,6.0433543
892,20892,Klinik für Psychsomatische Medizin und Psychotherapie,Klosterkamp 15,Bad Segeberg,Segeberg,23795,,,,,,,53.9424887,10.3094887
893,20893,Klinik im Park,Rudolf-Wahrendorff-Straße 21,Sehnde,Niedersachsen,31319,,,,,,,52.3434666,9.9328829
894,20894,Klinik Öschelbronn CIMK,,Niefern-Öschelbronn,Enzkreis,75223,,,,,,,48.9036815,8.8245267
895,20895,Kliniken Berg,,Tübingen,Tübingen,72070,,,,,,,48.5280326,9.0446431
896,20896,Kliniken Böblingen,,Böblingen,Böblingen,71032,,,,,,,48.6908988,9.031292
897,20897,Kliniken Calw,Eduard-Conz-Straße 6,Calw,Calw,75365,,,,,Yes,,48.7152591,8.7453999
898,20898,Kliniken Doberaner Straße,,Rostock,Rostock (stadt),18057,,,,,,,54.0903812,12.1177503
899,20899,Kliniken Dr. Erler,Kontumazgarten 4-18,Nürnberg,Bayern,90429,,+49 911 2728 0,,,Yes,,49.45392,11.0669808
900,20900,Kliniken Hochfranken Haus Naila,,Naila,Bayern,95119,,,,,,,50.3256752,11.7207369
901,20901,Kliniken Maria Hilf,,Mönchengladbach,Mönchengladbach,41061,,,,,,,51.216922,6.4195525
902,20902,Kliniken Michelsberg,,Ulm,Ulm,89073,,,,,,,48.408793,9.9913839
903,20903,Kliniken Oberallgäu,,Immenstadt i. Allgäu,Bayern,87509,,,,,,,47.5633029,10.2278321
904,20904,Kliniken Schmieder Allensbach,Zum Tafelholz 18a,Allensbach,Konstanz,78476,,+49 7533 8080,,,,,47.7153467,9.0833034
905,20905,Kliniken Schmieder Gailingen,Auf dem Berg nan,Gailingen am Hochrhein,Konstanz,78262,,+49 7734 860,,,,,47.7035304,8.7525113
906,20906,Kliniken Schmieder Heidelberg,Speyererhofweg 1,Heidelberg,Heidelberg,69117,,+49 6221 65400,,,,,49.3955878,8.7080094
907,20907,Kliniken Sindelfingen,Arthur-Gruber-Straße 70,Sindelfingen,Böblingen,71065,,,,,,,48.715579,9.0247331
908,20908,Kliniken St. Antonius - Petrus Krankenhaus,,Wuppertal,Wuppertal,42275,,,,,Yes,,51.2742949,7.1927284
909,20909,Kliniken St. Elisabeth,Müller-Gnadenegg-Weg 4,Neuburg an der Donau,Bayern,86633,,,,,,,48.7310652,11.1752327
910,20910,Kliniken des Main-Taunus-Kreises,Kronberger Straße 36,Bad Soden am Taunus,Hessen,65812,,,,,Yes,,50.1512024,8.5130547
911,20911,Kliniken im Theodor-Wenzel-Werk,Potsdamer Chaussee 69,Berlin,Berlin,14129,,+49 30 81090,,,,,52.4218039,13.2070892
912,20912,Klinikparkplatz,,Weimar,Weimar,99425,,,,,,,50.9617017,11.3209494
913,20913,Klinikum Altmühlfranken Weißenburg,Krankenhausstraße 1,Weißenburg in Bayern,Bayern,91781,,,,,,,49.0349846,10.9829436
914,20914,Klinikum Annweiler,Georg-Staab-Straße 3,Annweiler am Trifels,Südliche Weinstraße,76855,,,,,Yes,,49.2024974,7.9603256
915,20915,Klinikum Aschaffenburg-Alzenau Standort Alzenau,Schloßhof 1,Alzenau,Bayern,63755,,,,,,,50.0698295,9.0755761
916,20916,Klinikum Aue,Gartenstraße 6,Aue-Bad Schlema,Sachsen,08280,,,,,Yes,,50.5904286,12.717613
917,20917,Klinikum Augsburg Süd,Sauerbruchstraße 6,Augsburg,Bayern,86179,,,,,,,48.3068185,10.9153675
918,20918,Klinikum Bad Bramstedt,,Bad Bramstedt,Segeberg,24576,,,,,Yes,,53.9028212,9.890466
919,20919,Klinikum Bad Salzungen,,Bad Salzungen,Wartburgkreis,36433,,,,,,,50.8035162,10.2180855
920,20920,Klinikum Balg,Balger Straße 50,Baden-Baden,Baden-baden,76532,,+49 7221 910,,,Yes,,48.784839,8.2161251
921,20921,Klinikum Bautzen-Bischofswerda,,Bischofswerda,Sachsen,01877,,,,,,,51.1350524,14.1795953
922,20922,Klinikum Bayreuth,Preuschwitzer Straße 101,Bayreuth,Bayern,95444,,+49 921 40000,,,,,49.9452332,11.5299603
