,name,address,city,state,zip,phone,LAT,LON,hasSpecialties,ADDICTION MEDICINE,ADVANCED HEART FAILURE AND TRANSPLANT CARDIOLOGY,ALLERGY/IMMUNOLOGY,ANESTHESIOLOGY,ANESTHESIOLOGY ASSISTANT,AUDIOLOGIST,CARDIAC ELECTROPHYSIOLOGY,CARDIAC SURGERY,CARDIOVASCULAR DISEASE (CARDIOLOGY),CERTIFIED NURSE MIDWIFE,CERTIFIED REGISTERED NURSE ANESTHETIST,CHIROPRACTIC,CLINICAL NURSE SPECIALIST,CLINICAL PSYCHOLOGIST,CLINICAL SOCIAL WORKER,COLORECTAL SURGERY (PROCTOLOGY),CRITICAL CARE (INTENSIVISTS),DENTIST,DERMATOLOGY,DIAGNOSTIC RADIOLOGY,EMERGENCY MEDICINE,ENDOCRINOLOGY,FAMILY PRACTICE,GASTROENTEROLOGY,GENERAL PRACTICE,GENERAL SURGERY,GERIATRIC MEDICINE,GERIATRIC PSYCHIATRY,GYNECOLOGICAL ONCOLOGY,HAND SURGERY,HEMATOLOGY,HEMATOLOGY/ONCOLOGY,HEMATOPOIETIC CELL TRANSPLANTATION AND CELLULAR TH,HOSPICE/PALLIATIVE CARE,HOSPITALIST,INFECTIOUS DISEASE,INTERNAL MEDICINE,INTERVENTIONAL CARDIOLOGY,INTERVENTIONAL PAIN MANAGEMENT,INTERVENTIONAL RADIOLOGY,MAXILLOFACIAL SURGERY,MEDICAL ONCOLOGY,NEPHROLOGY,NEUROLOGY,NEUROPSYCHIATRY,NEUROSURGERY,NUCLEAR MEDICINE,NURSE PRACTITIONER,OBSTETRICS/GYNECOLOGY,OCCUPATIONAL THERAPY,OPHTHALMOLOGY,OPTOMETRY,ORAL SURGERY,ORTHOPEDIC SURGERY,OSTEOPATHIC MANIPULATIVE MEDICINE,OTOLARYNGOLOGY,PAIN MANAGEMENT,PATHOLOGY,PEDIATRIC MEDICINE,PERIPHERAL VASCULAR DISEASE,PHYSICAL MEDICINE AND REHABILITATION,PHYSICAL THERAPY,PHYSICIAN ASSISTANT,PLASTIC AND RECONSTRUCTIVE SURGERY,PODIATRY,PREVENTATIVE MEDICINE,PSYCHIATRY,PULMONARY DISEASE,RADIATION ONCOLOGY,REGISTERED DIETITIAN OR NUTRITION PROFESSIONAL,"RHEUMATOLOGY,",SLEEP MEDICINE,SPEECH LANGUAGE PATHOLOGIST,SPORTS MEDICINE,SURGICAL ONCOLOGY,THORACIC SURGERY,UNDEFINED PHYSICIAN TYPE (SPECIFY),"UROLOGY,",VASCULAR SURGERY,id
0,A. ö. Bezirkskrankenhaus Kufstein,,Kufstein,Tirol,6330,,47.5707931,12.1519599,False,,,,,,,,,,,,,,,,,,,,,,,,,,,,,,,,,,,,,,,,,,,,,,,,,,,,,,,,,,,,,,,,,,,,,,,,,,,,,,,,30000
1,A.ö. Tauernklinikum Mittersill,,Mittersill,Salzburg,5730,,47.2807961,12.4843668,False,,,,,,,,,,,,,,,,,,,,,,,,,,,,,,,,,,,,,,,,,,,,,,,,,,,,,,,,,,,,,,,,,,,,,,,,,,,,,,,,30001
2,Allgemein öffentliches Krankenhaus Oberpullendorf,Spitalgasse 32,Oberpullendorf,Burgenland,7350,,47.507545,16.5099727,False,,,,,,,,,,,,,,,,,,,,,,,,,,,,,,,,,,,,,,,,,,,,,,,,,,,,,,,,,,,,,,,,,,,,,,,,,,,,,,,,30002
3,Ambulatorium Kurhaus,,Bad Schallerbach,Oberösterreich,4701,,48.2317084,13.9169533,False,,,,,,,,,,,,,,,,,,,,,,,,,,,,,,,,,,,,,,,,,,,,,,,,,,,,,,,,,,,,,,,,,,,,,,,,,,,,,,,,30003
4,Ambulatorium Süd,Wienerbergstraße 13,Wien,Wien,1100,,48.1694662,16.3451552,False,,,,,,,,,,,,,,,,,,,,,,,,,,,,,,,,,,,,,,,,,,,,,,,,,,,,,,,,,,,,,,,,,,,,,,,,,,,,,,,,30004
5,Bau 0,,Wels,Oberösterreich,4600,,48.1741098,14.0246502,False,,,,,,,,,,,,,,,,,,,,,,,,,,,,,,,,,,,,,,,,,,,,,,,,,,,,,,,,,,,,,,,,,,,,,,,,,,,,,,,,30005
6,Bau 6 - Eltern-Kind-Zentrum,Eferdingerstraße nan,Wels,Oberösterreich,4600,,48.1731684,14.025764,False,,,,,,,,,,,,,,,,,,,,,,,,,,,,,,,,,,,,,,,,,,,,,,,,,,,,,,,,,,,,,,,,,,,,,,,,,,,,,,,,30006
7,Bezirkskrankenhaus Lienz,Emanuel von Hibler-Straße 5,Lienz,Tirol,9900,,46.835543,12.7637099,False,,,,,,,,,,,,,,,,,,,,,,,,,,,,,,,,,,,,,,,,,,,,,,,,,,,,,,,,,,,,,,,,,,,,,,,,,,,,,,,,30007
8,Bezirkskrankenhaus Reutte,,Ehenbichl,Tirol,6600,,47.4729688,10.7142317,False,,,,,,,,,,,,,,,,,,,,,,,,,,,,,,,,,,,,,,,,,,,,,,,,,,,,,,,,,,,,,,,,,,,,,,,,,,,,,,,,30008
9,Bezirkskrankenhaus Schwaz,Dr.-Körner-Straße 2,Schwaz,Tirol,6130,,47.3440612,11.7048539,False,,,,,,,,,,,,,,,,,,,,,,,,,,,,,,,,,,,,,,,,,,,,,,,,,,,,,,,,,,,,,,,,,,,,,,,,,,,,,,,,30009
10,Bezirkskrankenhaus St. Johann in Tirol,Bahnhofstraße 14,Sankt Johann in Tirol,Tirol,6380,+43 5352 606-0,47.5213384,12.429782,False,,,,,,,,,,,,,,,,,,,,,,,,,,,,,,,,,,,,,,,,,,,,,,,,,,,,,,,,,,,,,,,,,,,,,,,,,,,,,,,,30010
11,Christian Doppler Klinik,Ignaz-Harrer-Straße 79,Salzburg,Salzburg,5020,,47.813022,13.0212794,False,,,,,,,,,,,,,,,,,,,,,,,,,,,,,,,,,,,,,,,,,,,,,,,,,,,,,,,,,,,,,,,,,,,,,,,,,,,,,,,,30011
12,Diakonissen-Krankenhaus,,Salzburg,Salzburg,5026,,47.7876671,13.0761564,False,,,,,,,,,,,,,,,,,,,,,,,,,,,,,,,,,,,,,,,,,,,,,,,,,,,,,,,,,,,,,,,,,,,,,,,,,,,,,,,,30012
13,Diakonissen-Krankenhaus Linz,,Linz,Oberösterreich,4020,,48.3038063,14.3011085,False,,,,,,,,,,,,,,,,,,,,,,,,,,,,,,,,,,,,,,,,,,,,,,,,,,,,,,,,,,,,,,,,,,,,,,,,,,,,,,,,30013
14,Donauspital / SMZ-Ost,Langobardenstraße 122,Wien,Wien,1220,,48.2195455,16.4600433,False,,,,,,,,,,,,,,,,,,,,,,,,,,,,,,,,,,,,,,,,,,,,,,,,,,,,,,,,,,,,,,,,,,,,,,,,,,,,,,,,30014
15,Dr. Martin Pasiut,Blumengasse 31,Grafenstein,Kärnten,9131,,46.6132386,14.4659965,False,,,,,,,,,,,,,,,,,,,,,,,,,,,,,,,,,,,,,,,,,,,,,,,,,,,,,,,,,,,,,,,,,,,,,,,,,,,,,,,,30015
16,Evangelisches Krankenhaus Wien,Hans-Sachs-Gasse 10-12,Wien,Wien,1180,+43 1 40422 0,48.2242433,16.3456746,False,,,,,,,,,,,,,,,,,,,,,,,,,,,,,,,,,,,,,,,,,,,,,,,,,,,,,,,,,,,,,,,,,,,,,,,,,,,,,,,,30016
17,Evangelisches Krankenhaus Wien,,Wien,Wien,1180,,48.224051,16.3462486,False,,,,,,,,,,,,,,,,,,,,,,,,,,,,,,,,,,,,,,,,,,,,,,,,,,,,,,,,,,,,,,,,,,,,,,,,,,,,,,,,30017
18,Gesundheitsresort Raxblick,Oberland 2-4,Reichenau an der Rax,Niederösterreich,2651,,47.6710148,15.7861868,False,,,,,,,,,,,,,,,,,,,,,,,,,,,,,,,,,,,,,,,,,,,,,,,,,,,,,,,,,,,,,,,,,,,,,,,,,,,,,,,,30018
19,Gesundheitszentrum Linzerheim,Grieskirchner Straße 6,Bad Schallerbach,Oberösterreich,4701,,48.2315094,13.9180365,False,,,,,,,,,,,,,,,,,,,,,,,,,,,,,,,,,,,,,,,,,,,,,,,,,,,,,,,,,,,,,,,,,,,,,,,,,,,,,,,,30019
20,Hanusch-Krankenhaus,Heinrich-Collin-Straße 30,Wien,Wien,1140,,48.1987788,16.2902896,False,,,,,,,,,,,,,,,,,,,,,,,,,,,,,,,,,,,,,,,,,,,,,,,,,,,,,,,,,,,,,,,,,,,,,,,,,,,,,,,,30020
21,Heeresspital,Brünner Straße 238,Wien,Wien,1210,,48.2930133,16.4188238,False,,,,,,,,,,,,,,,,,,,,,,,,,,,,,,,,,,,,,,,,,,,,,,,,,,,,,,,,,,,,,,,,,,,,,,,,,,,,,,,,30021
22,HerzReha Bad Ischl,Gartenstraße 9,Bad Ischl,Oberösterreich,4820,,47.7097904,13.6134532,False,,,,,,,,,,,,,,,,,,,,,,,,,,,,,,,,,,,,,,,,,,,,,,,,,,,,,,,,,,,,,,,,,,,,,,,,,,,,,,,,30022
23,Kepler Universitätsklinikum - Med Campus III,,Linz,Oberösterreich,4020,,48.3021918,14.3043075,False,,,,,,,,,,,,,,,,,,,,,,,,,,,,,,,,,,,,,,,,,,,,,,,,,,,,,,,,,,,,,,,,,,,,,,,,,,,,,,,,30023
24,Kepler Universitätsklinikum - Med Campus IV,,Linz,Oberösterreich,4020,,48.3019513,14.3071566,False,,,,,,,,,,,,,,,,,,,,,,,,,,,,,,,,,,,,,,,,,,,,,,,,,,,,,,,,,,,,,,,,,,,,,,,,,,,,,,,,30024
25,Kepler Universitätsklinikum - Neuromed Campus,Wagner-Jauregg-Weg 15,Linz,Oberösterreich,4020,,48.2797019,14.2956139,False,,,,,,,,,,,,,,,,,,,,,,,,,,,,,,,,,,,,,,,,,,,,,,,,,,,,,,,,,,,,,,,,,,,,,,,,,,,,,,,,30025
26,Klinik Diakonissen Schladming,Salzburger Straße 777,Schladming,Steiermark,8970,+43 3687 2020 0,47.3915863,13.6775092,False,,,,,,,,,,,,,,,,,,,,,,,,,,,,,,,,,,,,,,,,,,,,,,,,,,,,,,,,,,,,,,,,,,,,,,,,,,,,,,,,30026
27,Klinik Floridsdorf,Brünner Straße 68,Wien,Wien,1210,+43 1 27700 - 0,48.2694155,16.4048833,False,,,,,,,,,,,,,,,,,,,,,,,,,,,,,,,,,,,,,,,,,,,,,,,,,,,,,,,,,,,,,,,,,,,,,,,,,,,,,,,,30027
28,Klinikum Grieskirchen,Georg-Wagenleithner-Straße 27,Grieskirchen,Oberösterreich,4710,+43-7248-601-0,48.2388023,13.8208565,False,,,,,,,,,,,,,,,,,,,,,,,,,,,,,,,,,,,,,,,,,,,,,,,,,,,,,,,,,,,,,,,,,,,,,,,,,,,,,,,,30028
29,Klinikum Klagenfurt am Wörthersee,,Klagenfurt am Wörthersee,Kärnten,9020,,46.636715,14.3004593,False,,,,,,,,,,,,,,,,,,,,,,,,,,,,,,,,,,,,,,,,,,,,,,,,,,,,,,,,,,,,,,,,,,,,,,,,,,,,,,,,30029
30,Klinikum Wels,Grieskirchner Straße 42,Wels,Oberösterreich,4600,+43 7242 415 0,48.1743123,14.0227935,False,,,,,,,,,,,,,,,,,,,,,,,,,,,,,,,,,,,,,,,,,,,,,,,,,,,,,,,,,,,,,,,,,,,,,,,,,,,,,,,,30030
31,Krankenanstalt Rudolfstiftung,Juchgasse 25,Wien,Wien,1030,+43 (1) 711 65-0,48.1950723,16.3891181,False,,,,,,,,,,,,,,,,,,,,,,,,,,,,,,,,,,,,,,,,,,,,,,,,,,,,,,,,,,,,,,,,,,,,,,,,,,,,,,,,30031
32,Krankenhaus Abtenau,Markt 25,Abtenau,Salzburg,5441,,47.565473,13.3472536,False,,,,,,,,,,,,,,,,,,,,,,,,,,,,,,,,,,,,,,,,,,,,,,,,,,,,,,,,,,,,,,,,,,,,,,,,,,,,,,,,30032
33,Krankenhaus Barmherzige Brüder Salzburg,,Salzburg,Salzburg,5020,,47.7976468,13.0506956,False,,,,,,,,,,,,,,,,,,,,,,,,,,,,,,,,,,,,,,,,,,,,,,,,,,,,,,,,,,,,,,,,,,,,,,,,,,,,,,,,30033
34,Krankenhaus Göttlicher Heiland,Dornbacher Straße 20-26,Wien,Wien,1170,,48.2284567,16.3055002,False,,,,,,,,,,,,,,,,,,,,,,,,,,,,,,,,,,,,,,,,,,,,,,,,,,,,,,,,,,,,,,,,,,,,,,,,,,,,,,,,30034
35,Krankenhaus Hallein,Bürgermeisterstraße 34,Hallein,Salzburg,5400,+43 6245 7990,47.6855242,13.1120345,False,,,,,,,,,,,,,,,,,,,,,,,,,,,,,,,,,,,,,,,,,,,,,,,,,,,,,,,,,,,,,,,,,,,,,,,,,,,,,,,,30035
36,Krankenhaus Hallein,,Hallein,Salzburg,5400,,47.6860986,13.1120605,False,,,,,,,,,,,,,,,,,,,,,,,,,,,,,,,,,,,,,,,,,,,,,,,,,,,,,,,,,,,,,,,,,,,,,,,,,,,,,,,,30036
37,Krankenhaus Hietzing,,Wien,Wien,1130,,48.1682215,16.2811033,False,,,,,,,,,,,,,,,,,,,,,,,,,,,,,,,,,,,,,,,,,,,,,,,,,,,,,,,,,,,,,,,,,,,,,,,,,,,,,,,,30037
38,Krankenhaus Kittsee,Hauptplatz 3,Kittsee,Burgenland,2421,,48.0930438,17.0648818,False,,,,,,,,,,,,,,,,,,,,,,,,,,,,,,,,,,,,,,,,,,,,,,,,,,,,,,,,,,,,,,,,,,,,,,,,,,,,,,,,30038
39,Krankenhaus Oberwart,Dornburggasse 80,Oberwart,Burgenland,7400,,47.2804757,16.2025256,False,,,,,,,,,,,,,,,,,,,,,,,,,,,,,,,,,,,,,,,,,,,,,,,,,,,,,,,,,,,,,,,,,,,,,,,,,,,,,,,,30039
40,Krankenhaus Sierning,Neustraße 14,Sierning,Oberösterreich,4522,07259 / 2142 - 0,48.0427692,14.3069624,False,,,,,,,,,,,,,,,,,,,,,,,,,,,,,,,,,,,,,,,,,,,,,,,,,,,,,,,,,,,,,,,,,,,,,,,,,,,,,,,,30040
41,Krankenhaus Spittal/Drau,,Spittal an der Drau,Kärnten,9800,,46.8021679,13.4898409,False,,,,,,,,,,,,,,,,,,,,,,,,,,,,,,,,,,,,,,,,,,,,,,,,,,,,,,,,,,,,,,,,,,,,,,,,,,,,,,,,30041
42,Krankenhaus St. Vinzenz Zams,Sanatoriumstraße 43,Zams,Tirol,6511,,47.1613611,10.5937612,False,,,,,,,,,,,,,,,,,,,,,,,,,,,,,,,,,,,,,,,,,,,,,,,,,,,,,,,,,,,,,,,,,,,,,,,,,,,,,,,,30042
43,Krankenhaus Theresienhof,nan 3-5,Frohnleiten,Steiermark,8130,+4331264700-0,47.2707562,15.3238161,False,,,,,,,,,,,,,,,,,,,,,,,,,,,,,,,,,,,,,,,,,,,,,,,,,,,,,,,,,,,,,,,,,,,,,,,,,,,,,,,,30043
44,Krankenhaus der Barmherzigen Brüder,,Wien,Wien,1020,,48.2157345,16.3811781,False,,,,,,,,,,,,,,,,,,,,,,,,,,,,,,,,,,,,,,,,,,,,,,,,,,,,,,,,,,,,,,,,,,,,,,,,,,,,,,,,30044
45,Krankenhaus der Barmherzigen Brüder,Spitalgasse 26,Sankt Veit an der Glan,Kärnten,9300,,46.7691935,14.3538153,False,,,,,,,,,,,,,,,,,,,,,,,,,,,,,,,,,,,,,,,,,,,,,,,,,,,,,,,,,,,,,,,,,,,,,,,,,,,,,,,,30045
46,Krankenhaus der Barmherzigen Brüder Graz,Marschallgasse 12,Graz,Steiermark,8020,+43 316 7067 0,47.071973,15.4312866,False,,,,,,,,,,,,,,,,,,,,,,,,,,,,,,,,,,,,,,,,,,,,,,,,,,,,,,,,,,,,,,,,,,,,,,,,,,,,,,,,30046
47,Krankenhaus der Barmherzigen Brüder Graz-Eggenberg,Bergstraße 26+27,Graz,Steiermark,8020,,47.0787135,15.3919683,False,,,,,,,,,,,,,,,,,,,,,,,,,,,,,,,,,,,,,,,,,,,,,,,,,,,,,,,,,,,,,,,,,,,,,,,,,,,,,,,,30047
48,Krankenhaus der Barmherzigen Schwestern Ried,Schloßberg 1,Ried im Innkreis,Oberösterreich,4910,,48.2104406,13.4932608,False,,,,,,,,,,,,,,,,,,,,,,,,,,,,,,,,,,,,,,,,,,,,,,,,,,,,,,,,,,,,,,,,,,,,,,,,,,,,,,,,30048
49,Krankenhaus der Elisabethinen,Fadingerstraße 1,Linz,Oberösterreich,4020,,48.3039292,14.2951269,False,,,,,,,,,,,,,,,,,,,,,,,,,,,,,,,,,,,,,,,,,,,,,,,,,,,,,,,,,,,,,,,,,,,,,,,,,,,,,,,,30049
50,Krankenhaus der Elisabethinen,Elisabethinergasse 14,Graz,Steiermark,8020,,47.0703163,15.4248782,False,,,,,,,,,,,,,,,,,,,,,,,,,,,,,,,,,,,,,,,,,,,,,,,,,,,,,,,,,,,,,,,,,,,,,,,,,,,,,,,,30050
51,Krankenhaus der barmherzigen Brüder,Seilerstätte 4,Linz,Oberösterreich,4020,,48.3002974,14.2874385,False,,,,,,,,,,,,,,,,,,,,,,,,,,,,,,,,,,,,,,,,,,,,,,,,,,,,,,,,,,,,,,,,,,,,,,,,,,,,,,,,30051
52,Krankenhaus der barmherzigen Schwestern,Seilerstätte 4,Linz,Oberösterreich,4020,,48.2996312,14.28946,False,,,,,,,,,,,,,,,,,,,,,,,,,,,,,,,,,,,,,,,,,,,,,,,,,,,,,,,,,,,,,,,,,,,,,,,,,,,,,,,,30052
53,Krankenhaus/Rehabilitationszentrum,Paracelsusstraße 37,Oberndorf bei Salzburg,Salzburg,5110,,47.9369641,12.9471,False,,,,,,,,,,,,,,,,,,,,,,,,,,,,,,,,,,,,,,,,,,,,,,,,,,,,,,,,,,,,,,,,,,,,,,,,,,,,,,,,30053
54,LKH Bad Ischl,Dr. Mayer Straße 8-10,Bad Ischl,Oberösterreich,4820,,47.7059692,13.6240858,False,,,,,,,,,,,,,,,,,,,,,,,,,,,,,,,,,,,,,,,,,,,,,,,,,,,,,,,,,,,,,,,,,,,,,,,,,,,,,,,,30054
55,LKH Hohenems,Bahnhofstraße 31,Hohenems,Vorarlberg,6845,,47.3628371,9.6807817,False,,,,,,,,,,,,,,,,,,,,,,,,,,,,,,,,,,,,,,,,,,,,,,,,,,,,,,,,,,,,,,,,,,,,,,,,,,,,,,,,30055
56,LKH Klagenfurt,,Klagenfurt am Wörthersee,Kärnten,9020,,46.6323712,14.3021858,False,,,,,,,,,,,,,,,,,,,,,,,,,,,,,,,,,,,,,,,,,,,,,,,,,,,,,,,,,,,,,,,,,,,,,,,,,,,,,,,,30056
57,LKH Rottenmann,nan 2-4,Rottenmann,Steiermark,8786,,47.5257619,14.366312,False,,,,,,,,,,,,,,,,,,,,,,,,,,,,,,,,,,,,,,,,,,,,,,,,,,,,,,,,,,,,,,,,,,,,,,,,,,,,,,,,30057
58,Landesklinik Tamsweg,Bahnhofstraße 7,Tamsweg,Salzburg,5580,,47.1288853,13.8089122,False,,,,,,,,,,,,,,,,,,,,,,,,,,,,,,,,,,,,,,,,,,,,,,,,,,,,,,,,,,,,,,,,,,,,,,,,,,,,,,,,30058
59,Landesklinikum Baden,,Baden,Niederösterreich,2500,,48.0000387,16.253032,False,,,,,,,,,,,,,,,,,,,,,,,,,,,,,,,,,,,,,,,,,,,,,,,,,,,,,,,,,,,,,,,,,,,,,,,,,,,,,,,,30059
60,Landesklinikum Gmünd,Conrathstraße 17,Gmünd,Niederösterreich,3950,+43 2852 9004 0,48.760352,14.9754542,False,,,,,,,,,,,,,,,,,,,,,,,,,,,,,,,,,,,,,,,,,,,,,,,,,,,,,,,,,,,,,,,,,,,,,,,,,,,,,,,,30060
61,Landesklinikum Hollabrunn,,Hollabrunn,Niederösterreich,2020,,48.5616934,16.0909834,False,,,,,,,,,,,,,,,,,,,,,,,,,,,,,,,,,,,,,,,,,,,,,,,,,,,,,,,,,,,,,,,,,,,,,,,,,,,,,,,,30061
62,Landesklinikum Horn,Spitalgasse 10,Horn,Niederösterreich,3580,02982/2661-0,48.6697962,15.6599476,False,,,,,,,,,,,,,,,,,,,,,,,,,,,,,,,,,,,,,,,,,,,,,,,,,,,,,,,,,,,,,,,,,,,,,,,,,,,,,,,,30062
63,Landesklinikum Klosterneuburg,Kreutzergasse 12-14,Klosterneuburg,Niederösterreich,3400,,48.3076087,16.3228541,False,,,,,,,,,,,,,,,,,,,,,,,,,,,,,,,,,,,,,,,,,,,,,,,,,,,,,,,,,,,,,,,,,,,,,,,,,,,,,,,,30063
64,Landesklinikum Korneuburg,,Korneuburg,Niederösterreich,2100,,48.3438861,16.3373865,False,,,,,,,,,,,,,,,,,,,,,,,,,,,,,,,,,,,,,,,,,,,,,,,,,,,,,,,,,,,,,,,,,,,,,,,,,,,,,,,,30064
65,Landesklinikum Lilienfeld,Im Tal 2,Lilienfeld,Niederösterreich,3180,+43 2762/9004-0,48.009781,15.5801579,False,,,,,,,,,,,,,,,,,,,,,,,,,,,,,,,,,,,,,,,,,,,,,,,,,,,,,,,,,,,,,,,,,,,,,,,,,,,,,,,,30065
66,Landesklinikum Mauer,Hausmeninger Straße 221,Amstetten,Niederösterreich,3362,+43 7475/9004,48.0956324,14.8099893,False,,,,,,,,,,,,,,,,,,,,,,,,,,,,,,,,,,,,,,,,,,,,,,,,,,,,,,,,,,,,,,,,,,,,,,,,,,,,,,,,30066
67,Landesklinikum Melk,,Melk,Niederösterreich,3390,,48.2272155,15.338344,False,,,,,,,,,,,,,,,,,,,,,,,,,,,,,,,,,,,,,,,,,,,,,,,,,,,,,,,,,,,,,,,,,,,,,,,,,,,,,,,,30067
68,Landesklinikum Mistelbach-Gänserndorf,Liechtensteinstraße 67,Mistelbach,Niederösterreich,2130,,48.5676042,16.5801756,False,,,,,,,,,,,,,,,,,,,,,,,,,,,,,,,,,,,,,,,,,,,,,,,,,,,,,,,,,,,,,,,,,,,,,,,,,,,,,,,,30068
69,Landesklinikum Mödling,Schwester-Maria-Restituta-Gasse 12,Mödling,Niederösterreich,2340,,48.0901654,16.2957719,False,,,,,,,,,,,,,,,,,,,,,,,,,,,,,,,,,,,,,,,,,,,,,,,,,,,,,,,,,,,,,,,,,,,,,,,,,,,,,,,,30069
70,Landesklinikum Stockerau,Landstraße 18,Stockerau,Niederösterreich,2000,,48.386092,16.2047124,False,,,,,,,,,,,,,,,,,,,,,,,,,,,,,,,,,,,,,,,,,,,,,,,,,,,,,,,,,,,,,,,,,,,,,,,,,,,,,,,,30070
71,Landesklinikum Waidhofen/Thaya,Moriz-Schadek-Gasse 31,Waidhofen an der Thaya,Niederösterreich,3830,,48.8131318,15.2843194,False,,,,,,,,,,,,,,,,,,,,,,,,,,,,,,,,,,,,,,,,,,,,,,,,,,,,,,,,,,,,,,,,,,,,,,,,,,,,,,,,30071
72,Landesklinikum Waidhofen/Ybbs,,Waidhofen an der Ybbs,Niederösterreich,3340,,47.9525849,14.7885095,False,,,,,,,,,,,,,,,,,,,,,,,,,,,,,,,,,,,,,,,,,,,,,,,,,,,,,,,,,,,,,,,,,,,,,,,,,,,,,,,,30072
73,Landesklinikum Wiener Neustadt,Corvinusring 3-5,Wiener Neustadt,Niederösterreich,2700,+43 2622 321-0,47.8167248,16.2482145,False,,,,,,,,,,,,,,,,,,,,,,,,,,,,,,,,,,,,,,,,,,,,,,,,,,,,,,,,,,,,,,,,,,,,,,,,,,,,,,,,30073
74,Landeskrankenhaus,,Villach,Kärnten,9500,,46.6164966,13.8569658,False,,,,,,,,,,,,,,,,,,,,,,,,,,,,,,,,,,,,,,,,,,,,,,,,,,,,,,,,,,,,,,,,,,,,,,,,,,,,,,,,30074
75,Landeskrankenhaus Bad Aussee,Sommersbergseestraße 396,Bad Aussee,Steiermark,8990,,47.6069202,13.7739402,False,,,,,,,,,,,,,,,,,,,,,,,,,,,,,,,,,,,,,,,,,,,,,,,,,,,,,,,,,,,,,,,,,,,,,,,,,,,,,,,,30075
76,Landeskrankenhaus Bad Radkersburg,Dr. Schwaiger-Straße 1,Bad Radkersburg,Steiermark,8490,+43 3476 2401 0,46.6919561,15.9933519,False,,,,,,,,,,,,,,,,,,,,,,,,,,,,,,,,,,,,,,,,,,,,,,,,,,,,,,,,,,,,,,,,,,,,,,,,,,,,,,,,30076
77,Landeskrankenhaus Bludenz,Spitalgasse 13,Bludenz,Vorarlberg,6700,,47.1599039,9.8200143,False,,,,,,,,,,,,,,,,,,,,,,,,,,,,,,,,,,,,,,,,,,,,,,,,,,,,,,,,,,,,,,,,,,,,,,,,,,,,,,,,30077
78,Landeskrankenhaus Bruck an der Mur,Tragößer Straße 1,Bruck an der Mur,Steiermark,8600,+43 3862 895 0,47.4237265,15.2653419,False,,,,,,,,,,,,,,,,,,,,,,,,,,,,,,,,,,,,,,,,,,,,,,,,,,,,,,,,,,,,,,,,,,,,,,,,,,,,,,,,30078
79,Landeskrankenhaus Deutschlandsberg,Radlpaßstraße 29,Deutschlandsberg,Steiermark,8530,+43 3462 4411 0,46.8115594,15.2318154,False,,,,,,,,,,,,,,,,,,,,,,,,,,,,,,,,,,,,,,,,,,,,,,,,,,,,,,,,,,,,,,,,,,,,,,,,,,,,,,,,30079
80,Landeskrankenhaus Enzenbach,Hörgas 30,Gratwein-Straßengel,Steiermark,8111,,47.1535096,15.2943541,False,,,,,,,,,,,,,,,,,,,,,,,,,,,,,,,,,,,,,,,,,,,,,,,,,,,,,,,,,,,,,,,,,,,,,,,,,,,,,,,,30080
81,Landeskrankenhaus Feldbach,Ottokar-Kernstock-Straße 18,Feldbach,Steiermark,8330,+43 3152 899 0,46.9518041,15.8816196,False,,,,,,,,,,,,,,,,,,,,,,,,,,,,,,,,,,,,,,,,,,,,,,,,,,,,,,,,,,,,,,,,,,,,,,,,,,,,,,,,30081
82,Landeskrankenhaus Fürstenfeld,Krankenhausgasse 1,Fürstenfeld,Steiermark,8280,+43 3382 506 0,47.0460342,16.0848675,False,,,,,,,,,,,,,,,,,,,,,,,,,,,,,,,,,,,,,,,,,,,,,,,,,,,,,,,,,,,,,,,,,,,,,,,,,,,,,,,,30082
83,Landeskrankenhaus Gmunden,Miller von Aichholzstraße 49,Gmunden,Oberösterreich,4810,,47.9162109,13.7815234,False,,,,,,,,,,,,,,,,,,,,,,,,,,,,,,,,,,,,,,,,,,,,,,,,,,,,,,,,,,,,,,,,,,,,,,,,,,,,,,,,30083
84,"Landeskrankenhaus Graz Süd-West, Standort West",Göstinger Straße 22,Graz,Steiermark,8020,+43 316 5466 0,47.0791218,15.4000797,False,,,,,,,,,,,,,,,,,,,,,,,,,,,,,,,,,,,,,,,,,,,,,,,,,,,,,,,,,,,,,,,,,,,,,,,,,,,,,,,,30084
85,Landeskrankenhaus Güssing,Bergstraße 4,Güssing,Burgenland,7540,,47.0506071,16.3224589,False,,,,,,,,,,,,,,,,,,,,,,,,,,,,,,,,,,,,,,,,,,,,,,,,,,,,,,,,,,,,,,,,,,,,,,,,,,,,,,,,30085
86,Landeskrankenhaus Hall,,Hall in Tirol,Tirol,6060,,47.283016,11.51433,False,,,,,,,,,,,,,,,,,,,,,,,,,,,,,,,,,,,,,,,,,,,,,,,,,,,,,,,,,,,,,,,,,,,,,,,,,,,,,,,,30086
87,Landeskrankenhaus Hartberg,,Hartberg,Steiermark,8230,+43 3332 605 0,47.2729853,15.9675269,False,,,,,,,,,,,,,,,,,,,,,,,,,,,,,,,,,,,,,,,,,,,,,,,,,,,,,,,,,,,,,,,,,,,,,,,,,,,,,,,,30087
88,Landeskrankenhaus Hochsteiermark,Vordernberger Straße 42,Leoben,Steiermark,8700,+43 3842 401 0,47.3789335,15.0840504,False,,,,,,,,,,,,,,,,,,,,,,,,,,,,,,,,,,,,,,,,,,,,,,,,,,,,,,,,,,,,,,,,,,,,,,,,,,,,,,,,30088
89,Landeskrankenhaus Hochzirl,,Zirl,Tirol,6170,,47.2841219,11.2442436,False,,,,,,,,,,,,,,,,,,,,,,,,,,,,,,,,,,,,,,,,,,,,,,,,,,,,,,,,,,,,,,,,,,,,,,,,,,,,,,,,30089
90,Landeskrankenhaus Hörgas,nan 68,Gratwein-Straßengel,Steiermark,8111,,47.1376766,15.310464,False,,,,,,,,,,,,,,,,,,,,,,,,,,,,,,,,,,,,,,,,,,,,,,,,,,,,,,,,,,,,,,,,,,,,,,,,,,,,,,,,30090
91,Landeskrankenhaus Judenburg,Oberweggasse 18,Judenburg,Steiermark,8750,+43 3572 82560 0,47.1666638,14.6546426,False,,,,,,,,,,,,,,,,,,,,,,,,,,,,,,,,,,,,,,,,,,,,,,,,,,,,,,,,,,,,,,,,,,,,,,,,,,,,,,,,30091
92,Landeskrankenhaus Knittelfeld,Gaaler Straße 10,Knittelfeld,Steiermark,8720,+43 3512 707 0,47.2145678,14.8197252,False,,,,,,,,,,,,,,,,,,,,,,,,,,,,,,,,,,,,,,,,,,,,,,,,,,,,,,,,,,,,,,,,,,,,,,,,,,,,,,,,30092
93,Landeskrankenhaus Mariazell,Spitalgasse 4-6,Mariazell,Steiermark,8630,+43 3882 2222 2800,47.7894427,15.304045,False,,,,,,,,,,,,,,,,,,,,,,,,,,,,,,,,,,,,,,,,,,,,,,,,,,,,,,,,,,,,,,,,,,,,,,,,,,,,,,,,30093
94,Landeskrankenhaus Mürzzuschlag,Grazer Straße 63-65,Mürzzuschlag,Steiermark,8680,+43 3852 2080 0,47.6013501,15.6682839,False,,,,,,,,,,,,,,,,,,,,,,,,,,,,,,,,,,,,,,,,,,,,,,,,,,,,,,,,,,,,,,,,,,,,,,,,,,,,,,,,30094
95,Landeskrankenhaus Natters,,Natters,Tirol,6161,,47.240459,11.3653353,False,,,,,,,,,,,,,,,,,,,,,,,,,,,,,,,,,,,,,,,,,,,,,,,,,,,,,,,,,,,,,,,,,,,,,,,,,,,,,,,,30095
96,Landeskrankenhaus Rankweil,Valdunastraße 16,Rankweil,Vorarlberg,6830,,47.2624375,9.6482046,False,,,,,,,,,,,,,,,,,,,,,,,,,,,,,,,,,,,,,,,,,,,,,,,,,,,,,,,,,,,,,,,,,,,,,,,,,,,,,,,,30096
97,Landeskrankenhaus Rottenmann,Sankt Georgen 2-4,Rottenmann,Steiermark,8786,+43 3614 2431 0,47.5258637,14.3661364,False,,,,,,,,,,,,,,,,,,,,,,,,,,,,,,,,,,,,,,,,,,,,,,,,,,,,,,,,,,,,,,,,,,,,,,,,,,,,,,,,30097
98,Landeskrankenhaus Salzburg,Müllner Hauptstraße 48,Salzburg,Salzburg,5020,,47.807731,13.0270114,False,,,,,,,,,,,,,,,,,,,,,,,,,,,,,,,,,,,,,,,,,,,,,,,,,,,,,,,,,,,,,,,,,,,,,,,,,,,,,,,,30098
99,Landeskrankenhaus Schärding,,Schärding,Oberösterreich,4780,,48.455432,13.4360045,False,,,,,,,,,,,,,,,,,,,,,,,,,,,,,,,,,,,,,,,,,,,,,,,,,,,,,,,,,,,,,,,,,,,,,,,,,,,,,,,,30099
100,Landeskrankenhaus Stolzalpe,Stolzalpe 38,Murau,Steiermark,8852,+43 3532 2424 0,47.1187367,14.1875092,False,,,,,,,,,,,,,,,,,,,,,,,,,,,,,,,,,,,,,,,,,,,,,,,,,,,,,,,,,,,,,,,,,,,,,,,,,,,,,,,,30100
101,Landeskrankenhaus Stolzalpe Haus II,nan 38,Murau,Steiermark,8850,,47.1208784,14.1928348,False,,,,,,,,,,,,,,,,,,,,,,,,,,,,,,,,,,,,,,,,,,,,,,,,,,,,,,,,,,,,,,,,,,,,,,,,,,,,,,,,30101
102,Landeskrankenhaus Voitsberg,Conrad-von-Hötzendorf-Straße 31,Voitsberg,Steiermark,8570,+43 3142 201 0,47.0523972,15.1419169,False,,,,,,,,,,,,,,,,,,,,,,,,,,,,,,,,,,,,,,,,,,,,,,,,,,,,,,,,,,,,,,,,,,,,,,,,,,,,,,,,30102
103,Landeskrankenhaus Voitsberg,Conrad-von-Hötzendorf-Straße 31,Voitsberg,Steiermark,8570,,47.0525395,15.1413276,False,,,,,,,,,,,,,,,,,,,,,,,,,,,,,,,,,,,,,,,,,,,,,,,,,,,,,,,,,,,,,,,,,,,,,,,,,,,,,,,,30103
104,Landeskrankenhaus Vöcklabruck,Dr. Wilhelm Bock-Straße 1,Vöcklabruck,Oberösterreich,4840,+43 5055471 0,48.0025208,13.6394796,False,,,,,,,,,,,,,,,,,,,,,,,,,,,,,,,,,,,,,,,,,,,,,,,,,,,,,,,,,,,,,,,,,,,,,,,,,,,,,,,,30104
105,Landeskrankenhaus Wagna,Pelzmannstraße 18,Wagna,Steiermark,8435,+43 3452 701 0,46.7692575,15.5572139,False,,,,,,,,,,,,,,,,,,,,,,,,,,,,,,,,,,,,,,,,,,,,,,,,,,,,,,,,,,,,,,,,,,,,,,,,,,,,,,,,30105
106,Landeskrankenhaus Weiz,Franz-Pichler-Straße 85,Weiz,Steiermark,8160,+43 3172 2214 0,47.2130059,15.6358519,False,,,,,,,,,,,,,,,,,,,,,,,,,,,,,,,,,,,,,,,,,,,,,,,,,,,,,,,,,,,,,,,,,,,,,,,,,,,,,,,,30106
107,Landeskrankenhaus Wolfsberg,Paul-Hackhofer-Straße 9,Wolfsberg,Kärnten,9400,+43 4352 533 0,46.8345385,14.8465399,False,,,,,,,,,,,,,,,,,,,,,,,,,,,,,,,,,,,,,,,,,,,,,,,,,,,,,,,,,,,,,,,,,,,,,,,,,,,,,,,,30107
108,Landeskrankenhaus-Universitätsklinikum Graz,,Graz,Steiermark,8010,,47.0892236,15.4689492,False,,,,,,,,,,,,,,,,,,,,,,,,,,,,,,,,,,,,,,,,,,,,,,,,,,,,,,,,,,,,,,,,,,,,,,,,,,,,,,,,30108
109,Landesnervenklinik Sigmund Freud,Wagner-Jauregg-Platz 1,Graz,Steiermark,8010,,47.0355489,15.4180201,False,,,,,,,,,,,,,,,,,,,,,,,,,,,,,,,,,,,,,,,,,,,,,,,,,,,,,,,,,,,,,,,,,,,,,,,,,,,,,,,,30109
110,Marienkrankenhaus Vorau,,Vorau,Steiermark,8250,+43 3337 2254 0,47.4063857,15.8812822,False,,,,,,,,,,,,,,,,,,,,,,,,,,,,,,,,,,,,,,,,,,,,,,,,,,,,,,,,,,,,,,,,,,,,,,,,,,,,,,,,30110
111,Orthopädisches Spital Speising,Speisinger Straße 109,Wien,Wien,1130,,48.1647932,16.2811977,False,,,,,,,,,,,,,,,,,,,,,,,,,,,,,,,,,,,,,,,,,,,,,,,,,,,,,,,,,,,,,,,,,,,,,,,,,,,,,,,,30111
112,Otto-Wagner-Spital,Baumgartner Höhe 1,Wien,Wien,1140,,48.2098321,16.2855983,False,,,,,,,,,,,,,,,,,,,,,,,,,,,,,,,,,,,,,,,,,,,,,,,,,,,,,,,,,,,,,,,,,,,,,,,,,,,,,,,,30112
113,"Pavillion 5, 1. Medizinische Abteilung mit Gastroenterologie",,Wien,Wien,1130,,48.1691765,16.2751114,False,,,,,,,,,,,,,,,,,,,,,,,,,,,,,,,,,,,,,,,,,,,,,,,,,,,,,,,,,,,,,,,,,,,,,,,,,,,,,,,,30113
114,Privatklinik Maria Hilf,,Klagenfurt am Wörthersee,Kärnten,9020,,46.627794,14.2964364,False,,,,,,,,,,,,,,,,,,,,,,,,,,,,,,,,,,,,,,,,,,,,,,,,,,,,,,,,,,,,,,,,,,,,,,,,,,,,,,,,30114
115,Pyhrn-Eisenwurzen Klinikum Kirchdorf,Hausmanningerstraße 8,Kirchdorf an der Krems,Oberösterreich,4560,05 055467-0,47.9082252,14.1239892,False,,,,,,,,,,,,,,,,,,,,,,,,,,,,,,,,,,,,,,,,,,,,,,,,,,,,,,,,,,,,,,,,,,,,,,,,,,,,,,,,30115
116,Pyhrn-Eisenwurzen Klinikum Steyr,Sierninger Straße 170,Steyr,Oberösterreich,4400,+435055466,48.0442739,14.3908059,False,,,,,,,,,,,,,,,,,,,,,,,,,,,,,,,,,,,,,,,,,,,,,,,,,,,,,,,,,,,,,,,,,,,,,,,,,,,,,,,,30116
117,"Rotes Kreuz Kärnten Logistikzentrum, Leitstelle, Blutspendedienst",,Klagenfurt am Wörthersee,Kärnten,9020,,46.6242849,14.344013,False,,,,,,,,,,,,,,,,,,,,,,,,,,,,,,,,,,,,,,,,,,,,,,,,,,,,,,,,,,,,,,,,,,,,,,,,,,,,,,,,30117
118,Rudolfinerhaus,Billrothstraße 78,Wien,Wien,1190,,48.2441258,16.346423,False,,,,,,,,,,,,,,,,,,,,,,,,,,,,,,,,,,,,,,,,,,,,,,,,,,,,,,,,,,,,,,,,,,,,,,,,,,,,,,,,30118
119,Sonderkrankenanstalt Rehabilitationszentrum St. Radegund,Quellenstraße 1,Sankt Radegund bei Graz,Steiermark,8061,,47.1819609,15.4833128,False,,,,,,,,,,,,,,,,,,,,,,,,,,,,,,,,,,,,,,,,,,,,,,,,,,,,,,,,,,,,,,,,,,,,,,,,,,,,,,,,30119
120,Sonderkrankenanstalt Rehabilitationszentrum St. Radegund,Quellenstraße 1,Sankt Radegund bei Graz,Steiermark,8061,,47.1819609,15.4833128,False,,,,,,,,,,,,,,,,,,,,,,,,,,,,,,,,,,,,,,,,,,,,,,,,,,,,,,,,,,,,,,,,,,,,,,,,,,,,,,,,30120
121,Sonderkrankenanstalt Rehabilitationszentrum Weyer,nan 2,Weyer,Oberösterreich,3335,,47.8570038,14.6830743,False,,,,,,,,,,,,,,,,,,,,,,,,,,,,,,,,,,,,,,,,,,,,,,,,,,,,,,,,,,,,,,,,,,,,,,,,,,,,,,,,30121
122,Sozialmedizinisches Zentrum Süd - Kaiser-Franz-Josef-Spital,Kundratstraße 3,Wien,Wien,1100,+43 1 601910,48.1740906,16.3479306,False,,,,,,,,,,,,,,,,,,,,,,,,,,,,,,,,,,,,,,,,,,,,,,,,,,,,,,,,,,,,,,,,,,,,,,,,,,,,,,,,30122
123,St. Josef Krankenhaus,Auhofstraße 189,Wien,Wien,1130,,48.1945326,16.2622736,False,,,,,,,,,,,,,,,,,,,,,,,,,,,,,,,,,,,,,,,,,,,,,,,,,,,,,,,,,,,,,,,,,,,,,,,,,,,,,,,,30123
124,Strahlenzentrum,Dr.-Wilhelm-Bock-Straße 1,Vöcklabruck,Oberösterreich,4840,,48.0033591,13.6377833,False,,,,,,,,,,,,,,,,,,,,,,,,,,,,,,,,,,,,,,,,,,,,,,,,,,,,,,,,,,,,,,,,,,,,,,,,,,,,,,,,30124
125,Tauernklinikum,Paracelsusstraße 8,Zell am See,Salzburg,5700,,47.3386693,12.8131917,False,,,,,,,,,,,,,,,,,,,,,,,,,,,,,,,,,,,,,,,,,,,,,,,,,,,,,,,,,,,,,,,,,,,,,,,,,,,,,,,,30125
126,Unfallkrankenhaus,Waidmannsdorfer Straße 35,Klagenfurt am Wörthersee,Kärnten,9020,,46.6185696,14.295623,False,,,,,,,,,,,,,,,,,,,,,,,,,,,,,,,,,,,,,,,,,,,,,,,,,,,,,,,,,,,,,,,,,,,,,,,,,,,,,,,,30126
127,Unfallkrankenhaus Graz,Göstinger Straße 24,Graz,Steiermark,8020,,47.0791218,15.4000797,False,,,,,,,,,,,,,,,,,,,,,,,,,,,,,,,,,,,,,,,,,,,,,,,,,,,,,,,,,,,,,,,,,,,,,,,,,,,,,,,,30127
128,Unfallkrankenhaus Linz,,Linz,Oberösterreich,4020,,48.3041603,14.3109615,False,,,,,,,,,,,,,,,,,,,,,,,,,,,,,,,,,,,,,,,,,,,,,,,,,,,,,,,,,,,,,,,,,,,,,,,,,,,,,,,,30128
129,Unfallkrankenhaus Meidling,Kundratstraße 37-39,Wien,Wien,1120,,48.1726189,16.3430429,False,,,,,,,,,,,,,,,,,,,,,,,,,,,,,,,,,,,,,,,,,,,,,,,,,,,,,,,,,,,,,,,,,,,,,,,,,,,,,,,,30129
130,Unfallkrankenhaus Salzburg,,Salzburg,Salzburg,5020,,47.7992557,13.0551639,False,,,,,,,,,,,,,,,,,,,,,,,,,,,,,,,,,,,,,,,,,,,,,,,,,,,,,,,,,,,,,,,,,,,,,,,,,,,,,,,,30130
131,Universitätsklinik Innsbruck,,Innsbruck,Tirol,6020,,47.2634384,11.3870319,False,,,,,,,,,,,,,,,,,,,,,,,,,,,,,,,,,,,,,,,,,,,,,,,,,,,,,,,,,,,,,,,,,,,,,,,,,,,,,,,,30131
132,Universitätsklinikum Krems,Mitterweg 10,Krems an der Donau,Niederösterreich,3500,,48.4128122,15.6146697,False,,,,,,,,,,,,,,,,,,,,,,,,,,,,,,,,,,,,,,,,,,,,,,,,,,,,,,,,,,,,,,,,,,,,,,,,,,,,,,,,30132
133,Universitätsklinikum St. Pölten,Dunant-Platz 1,Sankt Pölten,Niederösterreich,3100,+43 2742 9004,48.214799,15.6301005,False,,,,,,,,,,,,,,,,,,,,,,,,,,,,,,,,,,,,,,,,,,,,,,,,,,,,,,,,,,,,,,,,,,,,,,,,,,,,,,,,30133
134,Universitätsklinikum Tulln,Alter Ziegelweg 10,Tulln an der Donau,Niederösterreich,3430,+43 2272/9004-0,48.320702,16.0647103,False,,,,,,,,,,,,,,,,,,,,,,,,,,,,,,,,,,,,,,,,,,,,,,,,,,,,,,,,,,,,,,,,,,,,,,,,,,,,,,,,30134
135,Wilhelminenspital,Montleartstraße 37,Wien,Wien,1160,,48.2081646,16.2981955,False,,,,,,,,,,,,,,,,,,,,,,,,,,,,,,,,,,,,,,,,,,,,,,,,,,,,,,,,,,,,,,,,,,,,,,,,,,,,,,,,30135
136,Zeileis Gesundheitszentrum,Valentin Zeileis-Straße 33,Gallspach,Oberösterreich,4713,+43-7248-62351-0,48.2070012,13.8101432,False,,,,,,,,,,,,,,,,,,,,,,,,,,,,,,,,,,,,,,,,,,,,,,,,,,,,,,,,,,,,,,,,,,,,,,,,,,,,,,,,30136
137,Ärztezentrum,,Ebenthal in Kärnten,Kärnten,9065,,46.6116077,14.3590662,False,,,,,,,,,,,,,,,,,,,,,,,,,,,,,,,,,,,,,,,,,,,,,,,,,,,,,,,,,,,,,,,,,,,,,,,,,,,,,,,,30137
138,Öffentliches Krankenhaus WAIERN / Feldkirchen,,Feldkirchen in Kärnten,Kärnten,9560,,46.7338278,14.0866195,False,,,,,,,,,,,,,,,,,,,,,,,,,,,,,,,,,,,,,,,,,,,,,,,,,,,,,,,,,,,,,,,,,,,,,,,,,,,,,,,,30138
139,Allgemeiner Medizinischer Arzt Thomas Zorn,,Haus,Steiermark,8967,,47.4100425,13.7689864,False,,,,,,,,,,,,,,,,,,,,,,,,,,,,,,,,,,,,,,,,,,,,,,,,,,,,,,,,,,,,,,,,,,,,,,,,,,,,,,,,30139
140,Allgemeinmediziner Dr. Eder,Markt 50,Waldhausen im Strudengau,Oberösterreich,4391,,48.2724496,14.9500038,False,,,,,,,,,,,,,,,,,,,,,,,,,,,,,,,,,,,,,,,,,,,,,,,,,,,,,,,,,,,,,,,,,,,,,,,,,,,,,,,,30140
141,Allgemeinmediziner Dr. med. Martin Breinesberger,Schulstraße 11,Münzbach,Oberösterreich,4323,,48.2642233,14.7113311,False,,,,,,,,,,,,,,,,,,,,,,,,,,,,,,,,,,,,,,,,,,,,,,,,,,,,,,,,,,,,,,,,,,,,,,,,,,,,,,,,30141
142,Allgemeinmedizinische Arztpraxis,Am Herndlberg 30,Lohnsburg am Kobernaußerwald,Oberösterreich,4923,+43 7754 2315,48.1461253,13.4010342,False,,,,,,,,,,,,,,,,,,,,,,,,,,,,,,,,,,,,,,,,,,,,,,,,,,,,,,,,,,,,,,,,,,,,,,,,,,,,,,,,30142
143,Altes Doktorhaus,nan 49,Schottwien,Niederösterreich,2641,,47.6560182,15.871877,False,,,,,,,,,,,,,,,,,,,,,,,,,,,,,,,,,,,,,,,,,,,,,,,,,,,,,,,,,,,,,,,,,,,,,,,,,,,,,,,,30143
144,Altes Forsthaus,Chlumeckyplatz 58,Bad Aussee,Steiermark,8990,,47.6105776,13.783103,False,,,,,,,,,,,,,,,,,,,,,,,,,,,,,,,,,,,,,,,,,,,,,,,,,,,,,,,,,,,,,,,,,,,,,,,,,,,,,,,,30144
145,Ambulatorium Obergurgl,,Sölden,Tirol,6456,,46.8710183,11.0274537,False,,,,,,,,,,,,,,,,,,,,,,,,,,,,,,,,,,,,,,,,,,,,,,,,,,,,,,,,,,,,,,,,,,,,,,,,,,,,,,,,30145
146,Artz dr. Iris Steiner,Lussgasse 8,Lermoos,Tirol,6631,,47.4028498,10.8824096,False,,,,,,,,,,,,,,,,,,,,,,,,,,,,,,,,,,,,,,,,,,,,,,,,,,,,,,,,,,,,,,,,,,,,,,,,,,,,,,,,30146
147,Arzt,nan 40,Lambrechten,Oberösterreich,4772,,48.317432,13.5118662,False,,,,,,,,,,,,,,,,,,,,,,,,,,,,,,,,,,,,,,,,,,,,,,,,,,,,,,,,,,,,,,,,,,,,,,,,,,,,,,,,30147
148,Arzt,Feldgasse 5,Sankt Barbara im Mürztal,Steiermark,8662,,47.5346626,15.5093585,False,,,,,,,,,,,,,,,,,,,,,,,,,,,,,,,,,,,,,,,,,,,,,,,,,,,,,,,,,,,,,,,,,,,,,,,,,,,,,,,,30148
149,Arzt,,Sonntag,Vorarlberg,6731,,47.2330175,9.8873271,False,,,,,,,,,,,,,,,,,,,,,,,,,,,,,,,,,,,,,,,,,,,,,,,,,,,,,,,,,,,,,,,,,,,,,,,,,,,,,,,,30149
150,Arzt,nan 10,Breitenau am Hochlantsch,Steiermark,8614,,47.3912714,15.4298178,False,,,,,,,,,,,,,,,,,,,,,,,,,,,,,,,,,,,,,,,,,,,,,,,,,,,,,,,,,,,,,,,,,,,,,,,,,,,,,,,,30150
151,Arzt,Aslangasse 13,Wien,Wien,1190,,48.2522466,16.3375306,False,,,,,,,,,,,,,,,,,,,,,,,,,,,,,,,,,,,,,,,,,,,,,,,,,,,,,,,,,,,,,,,,,,,,,,,,,,,,,,,,30151
152,Arzt - Alter Bahnhof,,Haringsee,Niederösterreich,2286,,48.1913387,16.7818432,False,,,,,,,,,,,,,,,,,,,,,,,,,,,,,,,,,,,,,,,,,,,,,,,,,,,,,,,,,,,,,,,,,,,,,,,,,,,,,,,,30152
153,Arzt Dr. Epp,Ludwig Brucknerstraße 7,Gedersdorf,Niederösterreich,3494,,48.3972939,15.6967641,False,,,,,,,,,,,,,,,,,,,,,,,,,,,,,,,,,,,,,,,,,,,,,,,,,,,,,,,,,,,,,,,,,,,,,,,,,,,,,,,,30153
154,Arzt für Allgemeinmedizin,Rieder Straße 255,Ottnang am Hausruck,Oberösterreich,4901,,48.1154073,13.5992623,False,,,,,,,,,,,,,,,,,,,,,,,,,,,,,,,,,,,,,,,,,,,,,,,,,,,,,,,,,,,,,,,,,,,,,,,,,,,,,,,,30154
155,"Arzt für Allgemeinmedizin, Heilmassage",,Brückl,Kärnten,9371,,46.7488603,14.5325357,False,,,,,,,,,,,,,,,,,,,,,,,,,,,,,,,,,,,,,,,,,,,,,,,,,,,,,,,,,,,,,,,,,,,,,,,,,,,,,,,,30155
156,Arzt für Homöopathie Barbara Reuter,,Seekirchen am Wallersee,Salzburg,5201,,47.8975609,13.1336851,False,,,,,,,,,,,,,,,,,,,,,,,,,,,,,,,,,,,,,,,,,,,,,,,,,,,,,,,,,,,,,,,,,,,,,,,,,,,,,,,,30156
157,Arztpraxis,Hauptplatz 4,Spannberg,Niederösterreich,2244,,48.4645055,16.7386765,False,,,,,,,,,,,,,,,,,,,,,,,,,,,,,,,,,,,,,,,,,,,,,,,,,,,,,,,,,,,,,,,,,,,,,,,,,,,,,,,,30157
158,Arztpraxis Angerberg,Unholzen 140,Angerberg,Tirol,6320,,47.507954,12.0560748,False,,,,,,,,,,,,,,,,,,,,,,,,,,,,,,,,,,,,,,,,,,,,,,,,,,,,,,,,,,,,,,,,,,,,,,,,,,,,,,,,30158
159,Arztpraxis Dr. Hager,Pratsdorfstraße 25,Pettenbach,Oberösterreich,4643,,47.9604385,14.0226027,False,,,,,,,,,,,,,,,,,,,,,,,,,,,,,,,,,,,,,,,,,,,,,,,,,,,,,,,,,,,,,,,,,,,,,,,,,,,,,,,,30159
160,Arztpraxis Frauenarzt Dr. M. Spanring,Parkstraße 30,Kirchdorf an der Krems,Oberösterreich,4560,,47.902911,14.1260769,False,,,,,,,,,,,,,,,,,,,,,,,,,,,,,,,,,,,,,,,,,,,,,,,,,,,,,,,,,,,,,,,,,,,,,,,,,,,,,,,,30160
161,Augenarzt Dr. Gerlach,,Seekirchen am Wallersee,Salzburg,5201,,47.899246,13.1337151,False,,,,,,,,,,,,,,,,,,,,,,,,,,,,,,,,,,,,,,,,,,,,,,,,,,,,,,,,,,,,,,,,,,,,,,,,,,,,,,,,30161
162,Balga Philipp Dr med,Amundsenstraße 44,Strasshof an der Nordbahn,Niederösterreich,2231,02287 3939,48.3184561,16.6442395,False,,,,,,,,,,,,,,,,,,,,,,,,,,,,,,,,,,,,,,,,,,,,,,,,,,,,,,,,,,,,,,,,,,,,,,,,,,,,,,,,30162
163,"Christina Keusch, Cranio Sacral Omnipath",Waidhofner Straße 10,Amstetten,Niederösterreich,3300,,48.1099126,14.8441391,False,,,,,,,,,,,,,,,,,,,,,,,,,,,,,,,,,,,,,,,,,,,,,,,,,,,,,,,,,,,,,,,,,,,,,,,,,,,,,,,,30163
164,DDr. Martin Haditsch,Hochstraße 6a,Leonding,Oberösterreich,4060,,48.2798025,14.25232,False,,,,,,,,,,,,,,,,,,,,,,,,,,,,,,,,,,,,,,,,,,,,,,,,,,,,,,,,,,,,,,,,,,,,,,,,,,,,,,,,30164
165,Diagnosepraxis,Leopold-Schäftner-Gasse 6,Perchtoldsdorf,Niederösterreich,2380,+43 1 865 19 53,48.1203468,16.2558598,False,,,,,,,,,,,,,,,,,,,,,,,,,,,,,,,,,,,,,,,,,,,,,,,,,,,,,,,,,,,,,,,,,,,,,,,,,,,,,,,,30165
166,Diagnosezentrum Donaustadt,Donaustadtstraße 1,Wien,Wien,1220,,48.2414923,16.4358381,False,,,,,,,,,,,,,,,,,,,,,,,,,,,,,,,,,,,,,,,,,,,,,,,,,,,,,,,,,,,,,,,,,,,,,,,,,,,,,,,,30166
167,Dialyseinstitut Dr. Gießauf,Elisabethstraße 54,Graz,Steiermark,8010,,47.0759918,15.4566417,False,,,,,,,,,,,,,,,,,,,,,,,,,,,,,,,,,,,,,,,,,,,,,,,,,,,,,,,,,,,,,,,,,,,,,,,,,,,,,,,,30167
168,Dialysezentrum Graz-West,Südbahnstraße 72,Graz,Steiermark,8020,,47.060014,15.4170505,False,,,,,,,,,,,,,,,,,,,,,,,,,,,,,,,,,,,,,,,,,,,,,,,,,,,,,,,,,,,,,,,,,,,,,,,,,,,,,,,,30168
169,Dr Bammer,,Scharnstein,Oberösterreich,4644,,47.8990787,13.9472382,False,,,,,,,,,,,,,,,,,,,,,,,,,,,,,,,,,,,,,,,,,,,,,,,,,,,,,,,,,,,,,,,,,,,,,,,,,,,,,,,,30169
170,Dr Merz,Kurparkgasse 265,Wienerwald,Niederösterreich,2392,,48.0975756,16.1347541,False,,,,,,,,,,,,,,,,,,,,,,,,,,,,,,,,,,,,,,,,,,,,,,,,,,,,,,,,,,,,,,,,,,,,,,,,,,,,,,,,30170
171,Dr Topay,Hornweg 11,Kitzbühel,Tirol,6370,,47.4490892,12.3920371,False,,,,,,,,,,,,,,,,,,,,,,,,,,,,,,,,,,,,,,,,,,,,,,,,,,,,,,,,,,,,,,,,,,,,,,,,,,,,,,,,30171
172,Dr med Singer Markus,Hauptstraße 12,Zams,Tirol,6511,,47.1524307,10.5832944,False,,,,,,,,,,,,,,,,,,,,,,,,,,,,,,,,,,,,,,,,,,,,,,,,,,,,,,,,,,,,,,,,,,,,,,,,,,,,,,,,30172
173,Dr. Ainberger Christian,Dr.-Scheiberstraße 6a,Vöcklamarkt,Oberösterreich,4870,+43 7682 6245-0,48.0010378,13.4873632,False,,,,,,,,,,,,,,,,,,,,,,,,,,,,,,,,,,,,,,,,,,,,,,,,,,,,,,,,,,,,,,,,,,,,,,,,,,,,,,,,30173
174,Dr. Al-Sayegh,Dorfstraße 22,Hochwolkersdorf,Niederösterreich,2802,,47.6604264,16.2815321,False,,,,,,,,,,,,,,,,,,,,,,,,,,,,,,,,,,,,,,,,,,,,,,,,,,,,,,,,,,,,,,,,,,,,,,,,,,,,,,,,30174
175,Dr. Albert Sacherer,Wiener Straße 54,Kapfenberg,Steiermark,8605,,47.4441184,15.292999,False,,,,,,,,,,,,,,,,,,,,,,,,,,,,,,,,,,,,,,,,,,,,,,,,,,,,,,,,,,,,,,,,,,,,,,,,,,,,,,,,30175
176,Dr. Alireza Nouri,Hauptstraße 31/2,Wiener Neudorf,Niederösterreich,2351,+43 2236 677776,48.0863801,16.3209763,False,,,,,,,,,,,,,,,,,,,,,,,,,,,,,,,,,,,,,,,,,,,,,,,,,,,,,,,,,,,,,,,,,,,,,,,,,,,,,,,,30176
177,Dr. Alois Franz Waschnig,Schillerstraße 3,Leoben,Steiermark,8700,,47.3750286,15.0963219,False,,,,,,,,,,,,,,,,,,,,,,,,,,,,,,,,,,,,,,,,,,,,,,,,,,,,,,,,,,,,,,,,,,,,,,,,,,,,,,,,30177
178,Dr. Alois Klotz,Sonnfeld 4,Sankt Veit im Pongau,Salzburg,5621,,47.331412,13.1529372,False,,,,,,,,,,,,,,,,,,,,,,,,,,,,,,,,,,,,,,,,,,,,,,,,,,,,,,,,,,,,,,,,,,,,,,,,,,,,,,,,30178
179,Dr. Andrea Klinger - Praktischer Arzt,Grillparzerstraße 24,Dürnkrut,Niederösterreich,2263,02538/80420,48.4708286,16.8456192,False,,,,,,,,,,,,,,,,,,,,,,,,,,,,,,,,,,,,,,,,,,,,,,,,,,,,,,,,,,,,,,,,,,,,,,,,,,,,,,,,30179
180,Dr. Andrea Mittermayr,Am Schneiderbach 12,Gaaden,Niederösterreich,2531,,48.0534163,16.2043131,False,,,,,,,,,,,,,,,,,,,,,,,,,,,,,,,,,,,,,,,,,,,,,,,,,,,,,,,,,,,,,,,,,,,,,,,,,,,,,,,,30180
181,Dr. Andreas Matt,Römerstraße 72,Göfis,Vorarlberg,6811,,47.2391345,9.6402542,False,,,,,,,,,,,,,,,,,,,,,,,,,,,,,,,,,,,,,,,,,,,,,,,,,,,,,,,,,,,,,,,,,,,,,,,,,,,,,,,,30181
182,Dr. Andreas Perchinig,Peter-Melcher-Straße 13,Villach,Kärnten,9524,,46.6149926,13.889109,False,,,,,,,,,,,,,,,,,,,,,,,,,,,,,,,,,,,,,,,,,,,,,,,,,,,,,,,,,,,,,,,,,,,,,,,,,,,,,,,,30182
183,Dr. Andreas Weinberger,Traunseerstraße 9,Pinsdorf,Oberösterreich,4812,+43761267965,47.9322863,13.7689949,False,,,,,,,,,,,,,,,,,,,,,,,,,,,,,,,,,,,,,,,,,,,,,,,,,,,,,,,,,,,,,,,,,,,,,,,,,,,,,,,,30183
184,Dr. Anna Schellnegger,Hauptplatz 8,Bärnbach,Steiermark,8572,,47.0701111,15.1293262,False,,,,,,,,,,,,,,,,,,,,,,,,,,,,,,,,,,,,,,,,,,,,,,,,,,,,,,,,,,,,,,,,,,,,,,,,,,,,,,,,30184
185,Dr. Anton Kammerer,Weitersfelden 36,Weitersfelden,Oberösterreich,4272,,48.478057,14.7278381,False,,,,,,,,,,,,,,,,,,,,,,,,,,,,,,,,,,,,,,,,,,,,,,,,,,,,,,,,,,,,,,,,,,,,,,,,,,,,,,,,30185
186,Dr. Anton Prietl,Goethestraße 35,Knittelfeld,Steiermark,8720,+43 3512 85266,47.2098696,14.8229634,False,,,,,,,,,,,,,,,,,,,,,,,,,,,,,,,,,,,,,,,,,,,,,,,,,,,,,,,,,,,,,,,,,,,,,,,,,,,,,,,,30186
187,Dr. Ardelt,Linzer Straße 66,Marchtrenk,Oberösterreich,4614,,48.1921867,14.1220425,False,,,,,,,,,,,,,,,,,,,,,,,,,,,,,,,,,,,,,,,,,,,,,,,,,,,,,,,,,,,,,,,,,,,,,,,,,,,,,,,,30187
188,Dr. Arminger OEG,Puchberger Straße 41,Wels,Oberösterreich,4600,+43 7242 51192,48.1800594,14.0237481,False,,,,,,,,,,,,,,,,,,,,,,,,,,,,,,,,,,,,,,,,,,,,,,,,,,,,,,,,,,,,,,,,,,,,,,,,,,,,,,,,30188
189,Dr. Arpad Pock,Bahnstraße 21,Kreuzstetten,Niederösterreich,2124,,48.4775525,16.4804191,False,,,,,,,,,,,,,,,,,,,,,,,,,,,,,,,,,,,,,,,,,,,,,,,,,,,,,,,,,,,,,,,,,,,,,,,,,,,,,,,,30189
190,Dr. Astrid Penz,Fuxmagengasse 14,Hall in Tirol,Tirol,6060,,47.2852657,11.504614,False,,,,,,,,,,,,,,,,,,,,,,,,,,,,,,,,,,,,,,,,,,,,,,,,,,,,,,,,,,,,,,,,,,,,,,,,,,,,,,,,30190
191,Dr. Astrid Schwarz,nan 64,Sankt Johann im Saggautal,Steiermark,8453,,46.7005733,15.3999245,False,,,,,,,,,,,,,,,,,,,,,,,,,,,,,,,,,,,,,,,,,,,,,,,,,,,,,,,,,,,,,,,,,,,,,,,,,,,,,,,,30191
192,Dr. Auer,Schulgasse 12,Purbach am Neusiedler See,Burgenland,7083,,47.914182,16.6951985,False,,,,,,,,,,,,,,,,,,,,,,,,,,,,,,,,,,,,,,,,,,,,,,,,,,,,,,,,,,,,,,,,,,,,,,,,,,,,,,,,30192
193,Dr. Auer Anneliese,Hans-von-der-Sann-Straße 36,Eisenerz,Steiermark,8790,,47.5425179,14.8901965,False,,,,,,,,,,,,,,,,,,,,,,,,,,,,,,,,,,,,,,,,,,,,,,,,,,,,,,,,,,,,,,,,,,,,,,,,,,,,,,,,30193
194,Dr. Aufmesser,Judenbühel 3,Radstadt,Salzburg,5550,+43 6452 7501,47.3854512,13.4670206,False,,,,,,,,,,,,,,,,,,,,,,,,,,,,,,,,,,,,,,,,,,,,,,,,,,,,,,,,,,,,,,,,,,,,,,,,,,,,,,,,30194
195,Dr. Augl,Breitenangerstraße 11,Grein,Oberösterreich,4360,,48.2279949,14.8439245,False,,,,,,,,,,,,,,,,,,,,,,,,,,,,,,,,,,,,,,,,,,,,,,,,,,,,,,,,,,,,,,,,,,,,,,,,,,,,,,,,30195
196,Dr. Axel Gmeiner,August Strindberg-Straße 2,Mondsee,Oberösterreich,5310,+43 6232 2994,47.8545217,13.3522753,False,,,,,,,,,,,,,,,,,,,,,,,,,,,,,,,,,,,,,,,,,,,,,,,,,,,,,,,,,,,,,,,,,,,,,,,,,,,,,,,,30196
197,Dr. Barbara Dalmatiner-Pausch,St.Martiner-Straße 38,Villach,Kärnten,9500,,46.6169349,13.8317457,False,,,,,,,,,,,,,,,,,,,,,,,,,,,,,,,,,,,,,,,,,,,,,,,,,,,,,,,,,,,,,,,,,,,,,,,,,,,,,,,,30197
198,Dr. Barbara Schwegel - Kinderarzt,Pomonaweg 18,Villach,Kärnten,9523,,46.643721,13.8687458,False,,,,,,,,,,,,,,,,,,,,,,,,,,,,,,,,,,,,,,,,,,,,,,,,,,,,,,,,,,,,,,,,,,,,,,,,,,,,,,,,30198
199,Dr. Barbara Seiger,Hauptstraße 108,Hinterbrühl,Niederösterreich,2371,,48.0858505,16.2415331,False,,,,,,,,,,,,,,,,,,,,,,,,,,,,,,,,,,,,,,,,,,,,,,,,,,,,,,,,,,,,,,,,,,,,,,,,,,,,,,,,30199
200,Dr. Bernd Heschl,Kärntner Straße 32,Knittelfeld,Steiermark,8720,+43 3512 86697,47.2117999,14.8221148,False,,,,,,,,,,,,,,,,,,,,,,,,,,,,,,,,,,,,,,,,,,,,,,,,,,,,,,,,,,,,,,,,,,,,,,,,,,,,,,,,30200
201,Dr. Bernhard Eissner,Hexenwaldweg 221,Arnfels,Steiermark,8454,,46.6761368,15.394898,False,,,,,,,,,,,,,,,,,,,,,,,,,,,,,,,,,,,,,,,,,,,,,,,,,,,,,,,,,,,,,,,,,,,,,,,,,,,,,,,,30201
202,Dr. Bernhard Kiesenhofer,Meisterstraße 11,Leonding,Oberösterreich,4060,,48.2470529,14.2487936,False,,,,,,,,,,,,,,,,,,,,,,,,,,,,,,,,,,,,,,,,,,,,,,,,,,,,,,,,,,,,,,,,,,,,,,,,,,,,,,,,30202
203,Dr. Bernhard Kriechbaumer,Larnhauserweg 2,Leonding,Oberösterreich,4060,,48.2738161,14.2745382,False,,,,,,,,,,,,,,,,,,,,,,,,,,,,,,,,,,,,,,,,,,,,,,,,,,,,,,,,,,,,,,,,,,,,,,,,,,,,,,,,30203
204,Dr. Bernhard Schlosser,Liebenau 128,Liebenau,Oberösterreich,4252,,48.5315341,14.8035462,False,,,,,,,,,,,,,,,,,,,,,,,,,,,,,,,,,,,,,,,,,,,,,,,,,,,,,,,,,,,,,,,,,,,,,,,,,,,,,,,,30204
205,Dr. Biack,Schloßbergweg 3,Mattsee,Salzburg,5163,,47.9700615,13.1054299,False,,,,,,,,,,,,,,,,,,,,,,,,,,,,,,,,,,,,,,,,,,,,,,,,,,,,,,,,,,,,,,,,,,,,,,,,,,,,,,,,30205
206,Dr. Binder,nan 43,Sankt Pantaleon,Oberösterreich,5120,,48.0248208,12.8483624,False,,,,,,,,,,,,,,,,,,,,,,,,,,,,,,,,,,,,,,,,,,,,,,,,,,,,,,,,,,,,,,,,,,,,,,,,,,,,,,,,30206
207,Dr. Binder,Alt Kirchberg 19,Sankt Pantaleon,Oberösterreich,5120,,48.0062298,12.8680618,False,,,,,,,,,,,,,,,,,,,,,,,,,,,,,,,,,,,,,,,,,,,,,,,,,,,,,,,,,,,,,,,,,,,,,,,,,,,,,,,,30207
208,Dr. Birgit Pechter,Hauptstraße 32,Münchendorf,Niederösterreich,2482,+43 2259 2262,48.0287281,16.3797228,False,,,,,,,,,,,,,,,,,,,,,,,,,,,,,,,,,,,,,,,,,,,,,,,,,,,,,,,,,,,,,,,,,,,,,,,,,,,,,,,,30208
209,Dr. Breban,Sonnenweg 10,Weng im Innkreis,Oberösterreich,4952,,48.2305359,13.1738904,False,,,,,,,,,,,,,,,,,,,,,,,,,,,,,,,,,,,,,,,,,,,,,,,,,,,,,,,,,,,,,,,,,,,,,,,,,,,,,,,,30209
210,Dr. Camilla Friedrich,Dr. Friedrichweg 2,Sankt Stefan ob Stainz,Steiermark,8511,,46.9287908,15.251446,False,,,,,,,,,,,,,,,,,,,,,,,,,,,,,,,,,,,,,,,,,,,,,,,,,,,,,,,,,,,,,,,,,,,,,,,,,,,,,,,,30210
211,Dr. Catharina Harasko - van der Meer,Obere Feldstraße 283,Pitten,Niederösterreich,2823,+43 650 24 74 424,47.7143294,16.1786636,False,,,,,,,,,,,,,,,,,,,,,,,,,,,,,,,,,,,,,,,,,,,,,,,,,,,,,,,,,,,,,,,,,,,,,,,,,,,,,,,,30211
212,Dr. Christa Laschober,Mitterweg 23,Traiskirchen,Niederösterreich,2512,,48.010327,16.2735683,False,,,,,,,,,,,,,,,,,,,,,,,,,,,,,,,,,,,,,,,,,,,,,,,,,,,,,,,,,,,,,,,,,,,,,,,,,,,,,,,,30212
213,Dr. Christian Euler,Turnerweg 8/1/5,Rust,Burgenland,7071,,47.798553,16.6674678,False,,,,,,,,,,,,,,,,,,,,,,,,,,,,,,,,,,,,,,,,,,,,,,,,,,,,,,,,,,,,,,,,,,,,,,,,,,,,,,,,30213
214,Dr. Christian Haunschmidt,Hauptstraße 22,Blindenmarkt,Niederösterreich,3372,,48.1287944,14.9900374,False,,,,,,,,,,,,,,,,,,,,,,,,,,,,,,,,,,,,,,,,,,,,,,,,,,,,,,,,,,,,,,,,,,,,,,,,,,,,,,,,30214
215,Dr. Christian Josef Nöbauer,Dorfstraße 8,Herzogsdorf,Oberösterreich,4175,07231/2204,48.4292006,14.109437,False,,,,,,,,,,,,,,,,,,,,,,,,,,,,,,,,,,,,,,,,,,,,,,,,,,,,,,,,,,,,,,,,,,,,,,,,,,,,,,,,30215
216,Dr. Christian Süß,Riegerting 9,Mehrnbach,Oberösterreich,4941,+43 7752 82062,48.1778055,13.4033015,False,,,,,,,,,,,,,,,,,,,,,,,,,,,,,,,,,,,,,,,,,,,,,,,,,,,,,,,,,,,,,,,,,,,,,,,,,,,,,,,,30216
217,Dr. Christian Winkler,Oberer Markt 5,Reichenthal,Oberösterreich,4193,,48.5424208,14.3825462,False,,,,,,,,,,,,,,,,,,,,,,,,,,,,,,,,,,,,,,,,,,,,,,,,,,,,,,,,,,,,,,,,,,,,,,,,,,,,,,,,30217
218,Dr. Christian Wolfgruber,Birkenweg 45,Hochburg-Ach,Oberösterreich,5122,,48.1616978,12.8386326,False,,,,,,,,,,,,,,,,,,,,,,,,,,,,,,,,,,,,,,,,,,,,,,,,,,,,,,,,,,,,,,,,,,,,,,,,,,,,,,,,30218
219,Dr. Christoph Hohn,Laudachweg 5,Vorchdorf,Oberösterreich,4655,,48.0000227,13.9232296,False,,,,,,,,,,,,,,,,,,,,,,,,,,,,,,,,,,,,,,,,,,,,,,,,,,,,,,,,,,,,,,,,,,,,,,,,,,,,,,,,30219
220,Dr. Claudia Wundsam,Birkenweg 14,Neustift im Mühlkreis,Oberösterreich,4143,,48.5304981,13.7642194,False,,,,,,,,,,,,,,,,,,,,,,,,,,,,,,,,,,,,,,,,,,,,,,,,,,,,,,,,,,,,,,,,,,,,,,,,,,,,,,,,30220
221,Dr. Claus Ulf Schlaffer,Rathausgasse 6,Neckenmarkt,Burgenland,7311,,47.5963533,16.5502113,False,,,,,,,,,,,,,,,,,,,,,,,,,,,,,,,,,,,,,,,,,,,,,,,,,,,,,,,,,,,,,,,,,,,,,,,,,,,,,,,,30221
222,Dr. Constanze Dennig-Staub,Andritzer Reichsstraße 163;161,Graz,Steiermark,8046,,47.1113392,15.4038924,False,,,,,,,,,,,,,,,,,,,,,,,,,,,,,,,,,,,,,,,,,,,,,,,,,,,,,,,,,,,,,,,,,,,,,,,,,,,,,,,,30222
223,Dr. Csillag,Westbahnstraße 34,Sankt Valentin,Niederösterreich,4300,,48.1788551,14.5231001,False,,,,,,,,,,,,,,,,,,,,,,,,,,,,,,,,,,,,,,,,,,,,,,,,,,,,,,,,,,,,,,,,,,,,,,,,,,,,,,,,30223
224,Dr. Dieter Nitsche,Buchbergstraße 7,Leonding,Oberösterreich,4060,,48.2839871,14.258963,False,,,,,,,,,,,,,,,,,,,,,,,,,,,,,,,,,,,,,,,,,,,,,,,,,,,,,,,,,,,,,,,,,,,,,,,,,,,,,,,,30224
225,Dr. Dock,Arztgasse nan,Lanzenkirchen,Niederösterreich,2821,,47.7463039,16.2417192,False,,,,,,,,,,,,,,,,,,,,,,,,,,,,,,,,,,,,,,,,,,,,,,,,,,,,,,,,,,,,,,,,,,,,,,,,,,,,,,,,30225
226,Dr. Dolecek,Schulstraße 22,Julbach,Oberösterreich,4162,+43 7288 71055,48.6585901,13.8654274,False,,,,,,,,,,,,,,,,,,,,,,,,,,,,,,,,,,,,,,,,,,,,,,,,,,,,,,,,,,,,,,,,,,,,,,,,,,,,,,,,30226
227,Dr. Dolensky,Wienerstraße 346,Gars am Kamp,Niederösterreich,3571,,48.5964676,15.6678216,False,,,,,,,,,,,,,,,,,,,,,,,,,,,,,,,,,,,,,,,,,,,,,,,,,,,,,,,,,,,,,,,,,,,,,,,,,,,,,,,,30227
228,Dr. Dominik Stadler,Schulstraße 8,Königswiesen,Oberösterreich,4280,,48.4082301,14.8384663,False,,,,,,,,,,,,,,,,,,,,,,,,,,,,,,,,,,,,,,,,,,,,,,,,,,,,,,,,,,,,,,,,,,,,,,,,,,,,,,,,30228
229,Dr. Drexler,,Mittersill,Salzburg,5730,,47.2795185,12.479395,False,,,,,,,,,,,,,,,,,,,,,,,,,,,,,,,,,,,,,,,,,,,,,,,,,,,,,,,,,,,,,,,,,,,,,,,,,,,,,,,,30229
230,"Dr. Ebermann, Dr. Waditschatka",Roseggerstraße 56,Mistelbach,Niederösterreich,2130,,48.5664789,16.5874808,False,,,,,,,,,,,,,,,,,,,,,,,,,,,,,,,,,,,,,,,,,,,,,,,,,,,,,,,,,,,,,,,,,,,,,,,,,,,,,,,,30230
231,Dr. Eduard Lopatka,nan 105,Rohrbach an der Lafnitz,Steiermark,8234,,47.4014685,16.0039499,False,,,,,,,,,,,,,,,,,,,,,,,,,,,,,,,,,,,,,,,,,,,,,,,,,,,,,,,,,,,,,,,,,,,,,,,,,,,,,,,,30231
232,Dr. Eduard Schlömmer Arzt für Allgemeinmedizin,Römerstraße 5,Schwanenstadt,Oberösterreich,4690,,48.0498871,13.7703013,False,,,,,,,,,,,,,,,,,,,,,,,,,,,,,,,,,,,,,,,,,,,,,,,,,,,,,,,,,,,,,,,,,,,,,,,,,,,,,,,,30232
233,Dr. Eisele,Liechtensteinstraße 36,Mistelbach,Niederösterreich,2130,+43 2572 2829,48.5660198,16.5810938,False,,,,,,,,,,,,,,,,,,,,,,,,,,,,,,,,,,,,,,,,,,,,,,,,,,,,,,,,,,,,,,,,,,,,,,,,,,,,,,,,30233
234,Dr. Elisabeth Stadter-Halmer,Hauptstraße 43,Wiener Neudorf,Niederösterreich,2351,+43 2236 61111,48.0855419,16.3226445,False,,,,,,,,,,,,,,,,,,,,,,,,,,,,,,,,,,,,,,,,,,,,,,,,,,,,,,,,,,,,,,,,,,,,,,,,,,,,,,,,30234
235,Dr. Elmar Lingg,Bödmerstraße 7,Mittelberg,Vorarlberg,6993,,47.3245152,10.1578659,False,,,,,,,,,,,,,,,,,,,,,,,,,,,,,,,,,,,,,,,,,,,,,,,,,,,,,,,,,,,,,,,,,,,,,,,,,,,,,,,,30235
236,Dr. Erhart,,Bürmoos,Salzburg,5111,,47.9827041,12.9215113,False,,,,,,,,,,,,,,,,,,,,,,,,,,,,,,,,,,,,,,,,,,,,,,,,,,,,,,,,,,,,,,,,,,,,,,,,,,,,,,,,30236
237,Dr. Ernst & Dr. Marion Kröpl,Alexiusweg 14,Hellmonsödt,Oberösterreich,4202,,48.4326787,14.300195,False,,,,,,,,,,,,,,,,,,,,,,,,,,,,,,,,,,,,,,,,,,,,,,,,,,,,,,,,,,,,,,,,,,,,,,,,,,,,,,,,30237
238,Dr. Ernst Richter,Holzheimer Straße 104,Leonding,Oberösterreich,4060,,48.2884433,14.2521241,False,,,,,,,,,,,,,,,,,,,,,,,,,,,,,,,,,,,,,,,,,,,,,,,,,,,,,,,,,,,,,,,,,,,,,,,,,,,,,,,,30238
239,Dr. Etzler,Wiesnerstraße 7,Altheim,Oberösterreich,4950,,48.2492142,13.2348744,False,,,,,,,,,,,,,,,,,,,,,,,,,,,,,,,,,,,,,,,,,,,,,,,,,,,,,,,,,,,,,,,,,,,,,,,,,,,,,,,,30239
240,Dr. Eva Maria Stoxreiter,Mirnockstraße 111,Millstatt am See,Kärnten,9872,+43 (0)4766 2027,46.8037396,13.5752777,False,,,,,,,,,,,,,,,,,,,,,,,,,,,,,,,,,,,,,,,,,,,,,,,,,,,,,,,,,,,,,,,,,,,,,,,,,,,,,,,,30240
241,Dr. Fidel Elsensohn,Schlößlestraße 36,Röthis,Vorarlberg,6832,,47.2900322,9.6601555,False,,,,,,,,,,,,,,,,,,,,,,,,,,,,,,,,,,,,,,,,,,,,,,,,,,,,,,,,,,,,,,,,,,,,,,,,,,,,,,,,30241
242,Dr. Franz Daringer,Passionsweg 34,Mettmach,Oberösterreich,4931,,48.1741546,13.3424617,False,,,,,,,,,,,,,,,,,,,,,,,,,,,,,,,,,,,,,,,,,,,,,,,,,,,,,,,,,,,,,,,,,,,,,,,,,,,,,,,,30242
243,Dr. Franz Ploder,Stein an der Enns 185,Sölk,Steiermark,8961,,47.4343503,13.9423952,False,,,,,,,,,,,,,,,,,,,,,,,,,,,,,,,,,,,,,,,,,,,,,,,,,,,,,,,,,,,,,,,,,,,,,,,,,,,,,,,,30243
244,Dr. Franz Schwelle,Mitschastraße 11,Mistelbach,Niederösterreich,2130,,48.5658574,16.5748746,False,,,,,,,,,,,,,,,,,,,,,,,,,,,,,,,,,,,,,,,,,,,,,,,,,,,,,,,,,,,,,,,,,,,,,,,,,,,,,,,,30244
245,Dr. Freigassner Maria Martina,Statteggerstraße 165,Stattegg,Steiermark,8046,+43 316 816681,47.1307343,15.4242322,False,,,,,,,,,,,,,,,,,,,,,,,,,,,,,,,,,,,,,,,,,,,,,,,,,,,,,,,,,,,,,,,,,,,,,,,,,,,,,,,,30245
246,Dr. Friedl,Lusweg 1,Ulrichsberg,Oberösterreich,4161,,48.6725442,13.9160834,False,,,,,,,,,,,,,,,,,,,,,,,,,,,,,,,,,,,,,,,,,,,,,,,,,,,,,,,,,,,,,,,,,,,,,,,,,,,,,,,,30246
247,Dr. Friedrich Brandstetter,Spreitzergasse 1,Mistelbach,Niederösterreich,2130,+43 2572 2164,48.5709196,16.5639385,False,,,,,,,,,,,,,,,,,,,,,,,,,,,,,,,,,,,,,,,,,,,,,,,,,,,,,,,,,,,,,,,,,,,,,,,,,,,,,,,,30247
248,Dr. Friedrich Ritter,nan 38,Gasen,Steiermark,8616,,47.3841459,15.5800139,False,,,,,,,,,,,,,,,,,,,,,,,,,,,,,,,,,,,,,,,,,,,,,,,,,,,,,,,,,,,,,,,,,,,,,,,,,,,,,,,,30248
249,Dr. Fuchs,Ferdinandsplatz 3,Sieghartskirchen,Niederösterreich,3443,,48.2547355,16.0144395,False,,,,,,,,,,,,,,,,,,,,,,,,,,,,,,,,,,,,,,,,,,,,,,,,,,,,,,,,,,,,,,,,,,,,,,,,,,,,,,,,30249
250,Dr. Gabriel,Schindlweg 7,Ulrichsberg,Oberösterreich,4161,,48.675167,13.9067507,False,,,,,,,,,,,,,,,,,,,,,,,,,,,,,,,,,,,,,,,,,,,,,,,,,,,,,,,,,,,,,,,,,,,,,,,,,,,,,,,,30250
251,Dr. Gabriela Fidler-Straka,Wiener Straße 62,Spillern,Niederösterreich,2104,,48.3768925,16.2643407,False,,,,,,,,,,,,,,,,,,,,,,,,,,,,,,,,,,,,,,,,,,,,,,,,,,,,,,,,,,,,,,,,,,,,,,,,,,,,,,,,30251
252,Dr. Gabriele Rehfeld-Schwarzer,Hauptstraße 101,Eichgraben,Niederösterreich,3032,,48.1683064,15.979903,False,,,,,,,,,,,,,,,,,,,,,,,,,,,,,,,,,,,,,,,,,,,,,,,,,,,,,,,,,,,,,,,,,,,,,,,,,,,,,,,,30252
253,Dr. Galle,Wiener Straße 23,Großweikersdorf,Niederösterreich,3701,,48.4706064,15.9843004,False,,,,,,,,,,,,,,,,,,,,,,,,,,,,,,,,,,,,,,,,,,,,,,,,,,,,,,,,,,,,,,,,,,,,,,,,,,,,,,,,30253
254,Dr. Ganthaler,,Au,Vorarlberg,6883,,47.3286575,9.9748022,False,,,,,,,,,,,,,,,,,,,,,,,,,,,,,,,,,,,,,,,,,,,,,,,,,,,,,,,,,,,,,,,,,,,,,,,,,,,,,,,,30254
255,Dr. Gerald Mair,Karl-Mauracher-Weg 26,Fügen,Tirol,6263,,47.3422575,11.8492546,False,,,,,,,,,,,,,,,,,,,,,,,,,,,,,,,,,,,,,,,,,,,,,,,,,,,,,,,,,,,,,,,,,,,,,,,,,,,,,,,,30255
256,Dr. Gerald Moser,Markt 2,Sankt Georgen am Walde,Oberösterreich,4372,,48.3599959,14.8955258,False,,,,,,,,,,,,,,,,,,,,,,,,,,,,,,,,,,,,,,,,,,,,,,,,,,,,,,,,,,,,,,,,,,,,,,,,,,,,,,,,30256
257,Dr. Gerhard Gruber,Römerstraße 20,Vorchdorf,Oberösterreich,4655,,47.9977896,13.9324241,False,,,,,,,,,,,,,,,,,,,,,,,,,,,,,,,,,,,,,,,,,,,,,,,,,,,,,,,,,,,,,,,,,,,,,,,,,,,,,,,,30257
258,Dr. Gerhard Huber,Brunnengasse 6,Hof am Leithaberge,Niederösterreich,2451,,47.9437564,16.5806832,False,,,,,,,,,,,,,,,,,,,,,,,,,,,,,,,,,,,,,,,,,,,,,,,,,,,,,,,,,,,,,,,,,,,,,,,,,,,,,,,,30258
259,Dr. Gerhard Walter,Franz-Pilz-Straße 5,Amstetten,Niederösterreich,3300,,48.1101787,14.8736293,False,,,,,,,,,,,,,,,,,,,,,,,,,,,,,,,,,,,,,,,,,,,,,,,,,,,,,,,,,,,,,,,,,,,,,,,,,,,,,,,,30259
260,Dr. Gerlinde Rodemund,Alpenblickstraße 38,Leonding,Oberösterreich,4060,,48.2816475,14.2576927,False,,,,,,,,,,,,,,,,,,,,,,,,,,,,,,,,,,,,,,,,,,,,,,,,,,,,,,,,,,,,,,,,,,,,,,,,,,,,,,,,30260
261,Dr. Gerlis Schlögl,Schubertstraße 1,Knittelfeld,Steiermark,8720,,47.2111497,14.8260933,False,,,,,,,,,,,,,,,,,,,,,,,,,,,,,,,,,,,,,,,,,,,,,,,,,,,,,,,,,,,,,,,,,,,,,,,,,,,,,,,,30261
262,Dr. Grabner,Grüner Weg 16,Sankt Georgen im Attergau,Oberösterreich,4880,,47.9337364,13.4837815,False,,,,,,,,,,,,,,,,,,,,,,,,,,,,,,,,,,,,,,,,,,,,,,,,,,,,,,,,,,,,,,,,,,,,,,,,,,,,,,,,30262
263,"Dr. Gumpinger Hand, Allgemeinmedizin",,Ernstbrunn,Niederösterreich,2115,,48.5284281,16.3672387,False,,,,,,,,,,,,,,,,,,,,,,,,,,,,,,,,,,,,,,,,,,,,,,,,,,,,,,,,,,,,,,,,,,,,,,,,,,,,,,,,30263
264,Dr. Gärtner Martin,Schulstraße 1,Molln,Oberösterreich,4591,,47.8851091,14.2569277,False,,,,,,,,,,,,,,,,,,,,,,,,,,,,,,,,,,,,,,,,,,,,,,,,,,,,,,,,,,,,,,,,,,,,,,,,,,,,,,,,30264
265,Dr. Günter Steinhardt,Sartrestraße 11,Pucking,Oberösterreich,4055,,48.185349,14.1793673,False,,,,,,,,,,,,,,,,,,,,,,,,,,,,,,,,,,,,,,,,,,,,,,,,,,,,,,,,,,,,,,,,,,,,,,,,,,,,,,,,30265
266,Dr. H.C. Pichler-Gerges,Rettenbergstraße 12,Kolsass,Tirol,6114,,47.3003059,11.6293252,False,,,,,,,,,,,,,,,,,,,,,,,,,,,,,,,,,,,,,,,,,,,,,,,,,,,,,,,,,,,,,,,,,,,,,,,,,,,,,,,,30266
267,Dr. Handojo Soeparno,Unternalbstraße 239,Retz,Niederösterreich,2070,,48.7512285,15.9523778,False,,,,,,,,,,,,,,,,,,,,,,,,,,,,,,,,,,,,,,,,,,,,,,,,,,,,,,,,,,,,,,,,,,,,,,,,,,,,,,,,30267
268,Dr. Hans Christian Filz,Neugasse 22a,Deutschkreutz,Burgenland,7301,+43 2613 80172,47.6005305,16.6296912,False,,,,,,,,,,,,,,,,,,,,,,,,,,,,,,,,,,,,,,,,,,,,,,,,,,,,,,,,,,,,,,,,,,,,,,,,,,,,,,,,30268
269,Dr. Hans Trojer,nan 27,Prägraten am Großvenediger,Tirol,9974,,47.0172079,12.3755384,False,,,,,,,,,,,,,,,,,,,,,,,,,,,,,,,,,,,,,,,,,,,,,,,,,,,,,,,,,,,,,,,,,,,,,,,,,,,,,,,,30269
270,Dr. Haselbruner,Feld-Weg 22a,Frankenmarkt,Oberösterreich,4890,,47.9893152,13.412772,False,,,,,,,,,,,,,,,,,,,,,,,,,,,,,,,,,,,,,,,,,,,,,,,,,,,,,,,,,,,,,,,,,,,,,,,,,,,,,,,,30270
271,Dr. Heimo Korber,Hauptstraße 3,Sankt Margarethen bei Knittelfeld,Steiermark,8720,+43 3512 44500,47.2273159,14.8595965,False,,,,,,,,,,,,,,,,,,,,,,,,,,,,,,,,,,,,,,,,,,,,,,,,,,,,,,,,,,,,,,,,,,,,,,,,,,,,,,,,30271
272,Dr. Heinz Hammerschmidt,Herrengartenweg 13,Hard,Vorarlberg,6971,,47.4889955,9.6960398,False,,,,,,,,,,,,,,,,,,,,,,,,,,,,,,,,,,,,,,,,,,,,,,,,,,,,,,,,,,,,,,,,,,,,,,,,,,,,,,,,30272
273,Dr. Helga Richter,Grinzinger Allee 39,Wien,Wien,1190,+43 1 320 14 46,48.2537144,16.3419103,False,,,,,,,,,,,,,,,,,,,,,,,,,,,,,,,,,,,,,,,,,,,,,,,,,,,,,,,,,,,,,,,,,,,,,,,,,,,,,,,,30273
274,Dr. Helmut Köck,,Groß-Siegharts,Niederösterreich,3812,,48.7883241,15.4018155,False,,,,,,,,,,,,,,,,,,,,,,,,,,,,,,,,,,,,,,,,,,,,,,,,,,,,,,,,,,,,,,,,,,,,,,,,,,,,,,,,30274
275,Dr. Helmut Leidemann,nan 136,Hardegg,Niederösterreich,2092,,48.8545308,15.7695223,False,,,,,,,,,,,,,,,,,,,,,,,,,,,,,,,,,,,,,,,,,,,,,,,,,,,,,,,,,,,,,,,,,,,,,,,,,,,,,,,,30275
276,Dr. Helmut Nimmerfall,Albrechtstraße 24a,Wels,Oberösterreich,4600,+43 7242 605600,48.1573998,13.9913254,False,,,,,,,,,,,,,,,,,,,,,,,,,,,,,,,,,,,,,,,,,,,,,,,,,,,,,,,,,,,,,,,,,,,,,,,,,,,,,,,,30276
277,Dr. Herbert Petermichl,Obere Hauptstraße 41,Sankt Ruprecht an der Raab,Steiermark,8181,,47.1552231,15.6619621,False,,,,,,,,,,,,,,,,,,,,,,,,,,,,,,,,,,,,,,,,,,,,,,,,,,,,,,,,,,,,,,,,,,,,,,,,,,,,,,,,30277
278,Dr. Herbert Walzel,Kruppstraße 25,Berndorf,Niederösterreich,2560,,47.9424203,16.1031843,False,,,,,,,,,,,,,,,,,,,,,,,,,,,,,,,,,,,,,,,,,,,,,,,,,,,,,,,,,,,,,,,,,,,,,,,,,,,,,,,,30278
279,Dr. Herwig Rotter,Wieshöfstraße 14,Karlstetten,Niederösterreich,3121,+43 2741 7300,48.2562318,15.5615009,False,,,,,,,,,,,,,,,,,,,,,,,,,,,,,,,,,,,,,,,,,,,,,,,,,,,,,,,,,,,,,,,,,,,,,,,,,,,,,,,,30279
280,Dr. Hohl,Georgestraße 27,Langenstein,Oberösterreich,4222,,48.2529485,14.4746007,False,,,,,,,,,,,,,,,,,,,,,,,,,,,,,,,,,,,,,,,,,,,,,,,,,,,,,,,,,,,,,,,,,,,,,,,,,,,,,,,,30280
281,Dr. Holger August Grassner,Hinterstoder 73,Hinterstoder,Oberösterreich,4573,+43 (7564) 55550,47.6967517,14.1473431,False,,,,,,,,,,,,,,,,,,,,,,,,,,,,,,,,,,,,,,,,,,,,,,,,,,,,,,,,,,,,,,,,,,,,,,,,,,,,,,,,30281
282,Dr. Hosp,Unterkramsach 73,Kramsach,Tirol,6233,,47.4431774,11.8875843,False,,,,,,,,,,,,,,,,,,,,,,,,,,,,,,,,,,,,,,,,,,,,,,,,,,,,,,,,,,,,,,,,,,,,,,,,,,,,,,,,30282
283,Dr. Huber,Am Zeilberg 1,Wiesmath,Niederösterreich,2811,,47.6152964,16.2837437,False,,,,,,,,,,,,,,,,,,,,,,,,,,,,,,,,,,,,,,,,,,,,,,,,,,,,,,,,,,,,,,,,,,,,,,,,,,,,,,,,30283
284,Dr. Hubert Niedermayr,Weidenstraße 10,Gampern,Oberösterreich,4851,+4376828707,47.986475,13.5507827,False,,,,,,,,,,,,,,,,,,,,,,,,,,,,,,,,,,,,,,,,,,,,,,,,,,,,,,,,,,,,,,,,,,,,,,,,,,,,,,,,30284
285,Dr. Hutgrabner Christoph,Stocket 8,Sankt Marienkirchen am Hausruck,Oberösterreich,4926,,48.1892426,13.5681937,False,,,,,,,,,,,,,,,,,,,,,,,,,,,,,,,,,,,,,,,,,,,,,,,,,,,,,,,,,,,,,,,,,,,,,,,,,,,,,,,,30285
286,Dr. Höftberger,Rainerweg 5,Frankenburg am Hausruck,Oberösterreich,4873,,48.0652714,13.4866291,False,,,,,,,,,,,,,,,,,,,,,,,,,,,,,,,,,,,,,,,,,,,,,,,,,,,,,,,,,,,,,,,,,,,,,,,,,,,,,,,,30286
287,Dr. Irene Mann,Kremser Straße 16a,Hausleiten,Niederösterreich,3464,+43 2265 7356,48.394344,16.0986907,False,,,,,,,,,,,,,,,,,,,,,,,,,,,,,,,,,,,,,,,,,,,,,,,,,,,,,,,,,,,,,,,,,,,,,,,,,,,,,,,,30287
288,Dr. Iris Jäger,Kreuzstraße 3a,Schlins,Vorarlberg,6824,,47.2061502,9.6987923,False,,,,,,,,,,,,,,,,,,,,,,,,,,,,,,,,,,,,,,,,,,,,,,,,,,,,,,,,,,,,,,,,,,,,,,,,,,,,,,,,30288
289,Dr. Irmagard Schwender,Altenmarkter Straße 49,Wies,Steiermark,8551,,46.7146579,15.2623085,False,,,,,,,,,,,,,,,,,,,,,,,,,,,,,,,,,,,,,,,,,,,,,,,,,,,,,,,,,,,,,,,,,,,,,,,,,,,,,,,,30289
290,Dr. Isabella Roth,Buchbergstraße 1,Leonding,Oberösterreich,4060,,48.2835006,14.2582277,False,,,,,,,,,,,,,,,,,,,,,,,,,,,,,,,,,,,,,,,,,,,,,,,,,,,,,,,,,,,,,,,,,,,,,,,,,,,,,,,,30290
291,Dr. Johann Cserko,Arbeiterheimstraße 3,Strasshof an der Nordbahn,Niederösterreich,2231,+43 2287 4477,48.3156854,16.636656,False,,,,,,,,,,,,,,,,,,,,,,,,,,,,,,,,,,,,,,,,,,,,,,,,,,,,,,,,,,,,,,,,,,,,,,,,,,,,,,,,30291
292,Dr. Johann Trippolt,Bahnhofstraße 12,Schruns,Vorarlberg,6780,,47.0793916,9.9189218,False,,,,,,,,,,,,,,,,,,,,,,,,,,,,,,,,,,,,,,,,,,,,,,,,,,,,,,,,,,,,,,,,,,,,,,,,,,,,,,,,30292
293,Dr. Johannes Füreder / Dr. Magdalena Liebhart,Harterfeldstraße 31,Leonding,Oberösterreich,4060,,48.2605902,14.2540934,False,,,,,,,,,,,,,,,,,,,,,,,,,,,,,,,,,,,,,,,,,,,,,,,,,,,,,,,,,,,,,,,,,,,,,,,,,,,,,,,,30293
294,Dr. Josef Schützenberger,Schulstraße 32,Königswiesen,Oberösterreich,4280,,48.4089506,14.8358108,False,,,,,,,,,,,,,,,,,,,,,,,,,,,,,,,,,,,,,,,,,,,,,,,,,,,,,,,,,,,,,,,,,,,,,,,,,,,,,,,,30294
295,Dr. Judith Meryem Müller,Sigmund-Freud-Straße 68,Bad Aussee,Steiermark,8990,,47.6162537,13.7794182,False,,,,,,,,,,,,,,,,,,,,,,,,,,,,,,,,,,,,,,,,,,,,,,,,,,,,,,,,,,,,,,,,,,,,,,,,,,,,,,,,30295
296,Dr. Jörg Schweiger,Dr-Josef-Genger-Platz 565,Admont,Steiermark,8911,,47.5786249,14.4611312,False,,,,,,,,,,,,,,,,,,,,,,,,,,,,,,,,,,,,,,,,,,,,,,,,,,,,,,,,,,,,,,,,,,,,,,,,,,,,,,,,30296
297,Dr. Jürgen Schneider,Flurstraße 28,Höchst,Vorarlberg,6973,,47.465536,9.6450124,False,,,,,,,,,,,,,,,,,,,,,,,,,,,,,,,,,,,,,,,,,,,,,,,,,,,,,,,,,,,,,,,,,,,,,,,,,,,,,,,,30297
298,Dr. Karin Limbeck,Hauptstraße 2,Wallern im Burgenland,Burgenland,7151,+43 2174 26651,47.7250394,16.9366622,False,,,,,,,,,,,,,,,,,,,,,,,,,,,,,,,,,,,,,,,,,,,,,,,,,,,,,,,,,,,,,,,,,,,,,,,,,,,,,,,,30298
299,Dr. Karin Mittendorfer,Markt 5,Unterweißenbach,Oberösterreich,4273,,48.4339208,14.7824766,False,,,,,,,,,,,,,,,,,,,,,,,,,,,,,,,,,,,,,,,,,,,,,,,,,,,,,,,,,,,,,,,,,,,,,,,,,,,,,,,,30299
300,Dr. Karin Pietsch,Neunkirchener Straße 55,Puchberg am Schneeberg,Niederösterreich,2734,,47.7810133,15.91836,False,,,,,,,,,,,,,,,,,,,,,,,,,,,,,,,,,,,,,,,,,,,,,,,,,,,,,,,,,,,,,,,,,,,,,,,,,,,,,,,,30300
301,Dr. Karl Schnell,,Saalbach-Hinterglemm,Salzburg,5753,,47.3883172,12.6472271,False,,,,,,,,,,,,,,,,,,,,,,,,,,,,,,,,,,,,,,,,,,,,,,,,,,,,,,,,,,,,,,,,,,,,,,,,,,,,,,,,30301
302,Dr. Karl-Heinz Grotti,Johann-Georg-Seyfried-Weg 1,Weiler,Vorarlberg,6837,,47.3028581,9.6536121,False,,,,,,,,,,,,,,,,,,,,,,,,,,,,,,,,,,,,,,,,,,,,,,,,,,,,,,,,,,,,,,,,,,,,,,,,,,,,,,,,30302
303,Dr. Kerbl-Hofinger,Untere Marktstraße 11a,Sieghartskirchen,Niederösterreich,3443,,48.258895,16.0124652,False,,,,,,,,,,,,,,,,,,,,,,,,,,,,,,,,,,,,,,,,,,,,,,,,,,,,,,,,,,,,,,,,,,,,,,,,,,,,,,,,30303
304,Dr. Kerstin Gasser-Puck,Pfarrfeld 5,Brixen im Thale,Tirol,6364,05334/8181,47.4512128,12.2523342,False,,,,,,,,,,,,,,,,,,,,,,,,,,,,,,,,,,,,,,,,,,,,,,,,,,,,,,,,,,,,,,,,,,,,,,,,,,,,,,,,30304
305,Dr. Kiraly,Baumgartenstraße 5,Markgrafneusiedl,Niederösterreich,2282,,48.267986,16.6243645,False,,,,,,,,,,,,,,,,,,,,,,,,,,,,,,,,,,,,,,,,,,,,,,,,,,,,,,,,,,,,,,,,,,,,,,,,,,,,,,,,30305
306,Dr. Klaudia Dobrounig,Hauptplatz 23,Griffen,Kärnten,9112,,46.7032064,14.7299701,False,,,,,,,,,,,,,,,,,,,,,,,,,,,,,,,,,,,,,,,,,,,,,,,,,,,,,,,,,,,,,,,,,,,,,,,,,,,,,,,,30306
307,Dr. Klaus Fürst,Lederergasse 12,Lembach im Mühlkreis,Oberösterreich,4132,,48.4968609,13.8974376,False,,,,,,,,,,,,,,,,,,,,,,,,,,,,,,,,,,,,,,,,,,,,,,,,,,,,,,,,,,,,,,,,,,,,,,,,,,,,,,,,30307
308,Dr. Klaus Gstirner,Körblergasse 10,Graz,Steiermark,8010,,47.079109,15.4443574,False,,,,,,,,,,,,,,,,,,,,,,,,,,,,,,,,,,,,,,,,,,,,,,,,,,,,,,,,,,,,,,,,,,,,,,,,,,,,,,,,30308
309,Dr. Klaus Rolli,Schulstraße 10,Leonding,Oberösterreich,4060,,48.2503636,14.2571293,False,,,,,,,,,,,,,,,,,,,,,,,,,,,,,,,,,,,,,,,,,,,,,,,,,,,,,,,,,,,,,,,,,,,,,,,,,,,,,,,,30309
310,Dr. Klaus Sabin,Karl Morre-Gasse 7,Leibnitz,Steiermark,8430,,46.7804491,15.5422955,False,,,,,,,,,,,,,,,,,,,,,,,,,,,,,,,,,,,,,,,,,,,,,,,,,,,,,,,,,,,,,,,,,,,,,,,,,,,,,,,,30310
311,Dr. Krump,Stiftsfeld 19,Fischlham,Oberösterreich,4652,,48.0850881,13.9510225,False,,,,,,,,,,,,,,,,,,,,,,,,,,,,,,,,,,,,,,,,,,,,,,,,,,,,,,,,,,,,,,,,,,,,,,,,,,,,,,,,30311
312,Dr. Krösslhuber,Bahnhofstraße 27,Altheim,Oberösterreich,4950,+43 7723 42322,48.2519458,13.2343222,False,,,,,,,,,,,,,,,,,,,,,,,,,,,,,,,,,,,,,,,,,,,,,,,,,,,,,,,,,,,,,,,,,,,,,,,,,,,,,,,,30312
313,Dr. Kugler,,Eisenstadt,Burgenland,7000,,47.8453594,16.5186038,False,,,,,,,,,,,,,,,,,,,,,,,,,,,,,,,,,,,,,,,,,,,,,,,,,,,,,,,,,,,,,,,,,,,,,,,,,,,,,,,,30313
314,Dr. Kurt Hlawacek,Bahnstraße 20,Bad Vöslau,Niederösterreich,2540,,47.9672699,16.2181944,False,,,,,,,,,,,,,,,,,,,,,,,,,,,,,,,,,,,,,,,,,,,,,,,,,,,,,,,,,,,,,,,,,,,,,,,,,,,,,,,,30314
315,Dr. Kurt Jenny,Arlbergstraße 94,Innerbraz,Vorarlberg,6751,,47.1444896,9.9185557,False,,,,,,,,,,,,,,,,,,,,,,,,,,,,,,,,,,,,,,,,,,,,,,,,,,,,,,,,,,,,,,,,,,,,,,,,,,,,,,,,30315
316,Dr. Leitner,Ameisbergweg 2,Kollerschlag,Oberösterreich,4154,07287 83490,48.6018854,13.8420604,False,,,,,,,,,,,,,,,,,,,,,,,,,,,,,,,,,,,,,,,,,,,,,,,,,,,,,,,,,,,,,,,,,,,,,,,,,,,,,,,,30316
317,Dr. Leopold Reichinger,Ringstraße 13,Sankt Leonhard bei Freistadt,Oberösterreich,4294,,48.441241,14.6710895,False,,,,,,,,,,,,,,,,,,,,,,,,,,,,,,,,,,,,,,,,,,,,,,,,,,,,,,,,,,,,,,,,,,,,,,,,,,,,,,,,30317
318,"Dr. Linser, Allgemeinmedizin",Dr.Siegfried Gapp Weg 7,Mieming,Tirol,6414,,47.3062197,10.9658121,False,,,,,,,,,,,,,,,,,,,,,,,,,,,,,,,,,,,,,,,,,,,,,,,,,,,,,,,,,,,,,,,,,,,,,,,,,,,,,,,,30318
319,Dr. Manfred Ganneshofer,Hauptstraße 32,Zistersdorf,Niederösterreich,2225,,48.5451994,16.7647826,False,,,,,,,,,,,,,,,,,,,,,,,,,,,,,,,,,,,,,,,,,,,,,,,,,,,,,,,,,,,,,,,,,,,,,,,,,,,,,,,,30319
320,Dr. Manuel Langer,Marienplatz 2A,Perchtoldsdorf,Niederösterreich,2380,+43 1 244 70 72,48.1251889,16.2804594,False,,,,,,,,,,,,,,,,,,,,,,,,,,,,,,,,,,,,,,,,,,,,,,,,,,,,,,,,,,,,,,,,,,,,,,,,,,,,,,,,30320
321,Dr. Margareta Schmidt-Orban,Obere Hauptstraße 51,Nickelsdorf,Burgenland,2425,004321462323,47.9419064,17.0633139,False,,,,,,,,,,,,,,,,,,,,,,,,,,,,,,,,,,,,,,,,,,,,,,,,,,,,,,,,,,,,,,,,,,,,,,,,,,,,,,,,30321
322,Dr. Marianne Böckelberger,,Klagenfurt am Wörthersee,Kärnten,9020,,46.6498531,14.2798312,False,,,,,,,,,,,,,,,,,,,,,,,,,,,,,,,,,,,,,,,,,,,,,,,,,,,,,,,,,,,,,,,,,,,,,,,,,,,,,,,,30322
323,Dr. Marietta Pernsteiner,Dallingerstraße 13,Leonding,Oberösterreich,4060,,48.2761793,14.2469449,False,,,,,,,,,,,,,,,,,,,,,,,,,,,,,,,,,,,,,,,,,,,,,,,,,,,,,,,,,,,,,,,,,,,,,,,,,,,,,,,,30323
324,Dr. Markus Heiml,Industriegasse 4,Bruck an der Mur,Steiermark,8600,,47.4206264,15.2746916,False,,,,,,,,,,,,,,,,,,,,,,,,,,,,,,,,,,,,,,,,,,,,,,,,,,,,,,,,,,,,,,,,,,,,,,,,,,,,,,,,30324
325,Dr. Markus Huber Facharzt für Allgemeinmedizin,Osterndorfer Straße 7,Bad Häring,Tirol,6323,,47.5131664,12.1205377,False,,,,,,,,,,,,,,,,,,,,,,,,,,,,,,,,,,,,,,,,,,,,,,,,,,,,,,,,,,,,,,,,,,,,,,,,,,,,,,,,30325
326,Dr. Markus Sommer,Hirtenberger Straße 30,Berndorf,Niederösterreich,2560,,47.937147,16.1597669,False,,,,,,,,,,,,,,,,,,,,,,,,,,,,,,,,,,,,,,,,,,,,,,,,,,,,,,,,,,,,,,,,,,,,,,,,,,,,,,,,30326
327,Dr. Martin Handel,Parkstraße 12,Knittelfeld,Steiermark,8720,+43 3512 853090,47.2119605,14.8269634,False,,,,,,,,,,,,,,,,,,,,,,,,,,,,,,,,,,,,,,,,,,,,,,,,,,,,,,,,,,,,,,,,,,,,,,,,,,,,,,,,30327
328,Dr. Martin Jud,Straubstraße 1a,Hall in Tirol,Tirol,6060,,47.2839491,11.5069833,False,,,,,,,,,,,,,,,,,,,,,,,,,,,,,,,,,,,,,,,,,,,,,,,,,,,,,,,,,,,,,,,,,,,,,,,,,,,,,,,,30328
329,Dr. Martin Krüger,Mischlgutweg 1,Anif,Salzburg,5081,06246/ 72 96 9,47.7475632,13.0649038,False,,,,,,,,,,,,,,,,,,,,,,,,,,,,,,,,,,,,,,,,,,,,,,,,,,,,,,,,,,,,,,,,,,,,,,,,,,,,,,,,30329
330,Dr. Matthias Skopek,Rudolfstraße 11,Langenlois,Niederösterreich,3550,,48.4719354,15.67502,False,,,,,,,,,,,,,,,,,,,,,,,,,,,,,,,,,,,,,,,,,,,,,,,,,,,,,,,,,,,,,,,,,,,,,,,,,,,,,,,,30330
331,Dr. Merz,Schöffelstraße 214,Wienerwald,Niederösterreich,2392,,48.101257,16.1379376,False,,,,,,,,,,,,,,,,,,,,,,,,,,,,,,,,,,,,,,,,,,,,,,,,,,,,,,,,,,,,,,,,,,,,,,,,,,,,,,,,30331
332,Dr. Michael Ackerl,Hubertusgasse 10,Oberpullendorf,Burgenland,7350,,47.4965498,16.5128455,False,,,,,,,,,,,,,,,,,,,,,,,,,,,,,,,,,,,,,,,,,,,,,,,,,,,,,,,,,,,,,,,,,,,,,,,,,,,,,,,,30332
333,Dr. Michael Gasser,Völkendorfer Straße 25a,Villach,Kärnten,9500,+43 4242 52838,46.6099058,13.8350081,False,,,,,,,,,,,,,,,,,,,,,,,,,,,,,,,,,,,,,,,,,,,,,,,,,,,,,,,,,,,,,,,,,,,,,,,,,,,,,,,,30333
334,Dr. Michael Heinrich,Hauptstraße 76,Deutschkreutz,Burgenland,7301,+43 2613 89260,47.5978352,16.6270956,False,,,,,,,,,,,,,,,,,,,,,,,,,,,,,,,,,,,,,,,,,,,,,,,,,,,,,,,,,,,,,,,,,,,,,,,,,,,,,,,,30334
335,Dr. Michael Jahn,Langenharterstraße 78,Sankt Valentin,Niederösterreich,4300,,48.1727763,14.5180745,False,,,,,,,,,,,,,,,,,,,,,,,,,,,,,,,,,,,,,,,,,,,,,,,,,,,,,,,,,,,,,,,,,,,,,,,,,,,,,,,,30335
336,Dr. Michael Schriefl,Seestraße 11,Mörbisch am See,Burgenland,7072,+43 2685 8240,47.7551262,16.6698672,False,,,,,,,,,,,,,,,,,,,,,,,,,,,,,,,,,,,,,,,,,,,,,,,,,,,,,,,,,,,,,,,,,,,,,,,,,,,,,,,,30336
337,Dr. Michael Wanzenböck,Hauptstraße 82,Gutenstein,Niederösterreich,2770,,47.8765429,15.8963739,False,,,,,,,,,,,,,,,,,,,,,,,,,,,,,,,,,,,,,,,,,,,,,,,,,,,,,,,,,,,,,,,,,,,,,,,,,,,,,,,,30337
338,Dr. Monika Hinterberger,Pilotengasse 30,Wien,Wien,1220,,48.2214411,16.4824408,False,,,,,,,,,,,,,,,,,,,,,,,,,,,,,,,,,,,,,,,,,,,,,,,,,,,,,,,,,,,,,,,,,,,,,,,,,,,,,,,,30338
339,Dr. Monika Paireder,Hauptstraße 17,Schiedlberg,Oberösterreich,4521,,48.0917078,14.2675957,False,,,,,,,,,,,,,,,,,,,,,,,,,,,,,,,,,,,,,,,,,,,,,,,,,,,,,,,,,,,,,,,,,,,,,,,,,,,,,,,,30339
340,Dr. Moser,Angergasse 48,Deutsch Schützen-Eisenberg,Burgenland,7474,+43 3365 220 20,47.1605422,16.4475077,False,,,,,,,,,,,,,,,,,,,,,,,,,,,,,,,,,,,,,,,,,,,,,,,,,,,,,,,,,,,,,,,,,,,,,,,,,,,,,,,,30340
341,Dr. Neuner,Bahnhofstraße 38a,Völs,Tirol,6176,+43512302530,47.2551718,11.320335,False,,,,,,,,,,,,,,,,,,,,,,,,,,,,,,,,,,,,,,,,,,,,,,,,,,,,,,,,,,,,,,,,,,,,,,,,,,,,,,,,30341
342,Dr. Nico Schoklitsch,,Mauterndorf,Salzburg,5570,,47.1321784,13.6812415,False,,,,,,,,,,,,,,,,,,,,,,,,,,,,,,,,,,,,,,,,,,,,,,,,,,,,,,,,,,,,,,,,,,,,,,,,,,,,,,,,30342
343,Dr. Niedermayer,Hagergasse 21,Deutsch-Wagram,Niederösterreich,2232,,48.3003137,16.5595654,False,,,,,,,,,,,,,,,,,,,,,,,,,,,,,,,,,,,,,,,,,,,,,,,,,,,,,,,,,,,,,,,,,,,,,,,,,,,,,,,,30343
344,Dr. Norbert Haberbusch,Bauordenstraße 23,Wels,Oberösterreich,4600,+437242/45080,48.1493672,14.0021514,False,,,,,,,,,,,,,,,,,,,,,,,,,,,,,,,,,,,,,,,,,,,,,,,,,,,,,,,,,,,,,,,,,,,,,,,,,,,,,,,,30344
345,Dr. Nöbauer,Kobernaußerwaldstraße 22,Lengau,Oberösterreich,5212,,48.0260222,13.2928287,False,,,,,,,,,,,,,,,,,,,,,,,,,,,,,,,,,,,,,,,,,,,,,,,,,,,,,,,,,,,,,,,,,,,,,,,,,,,,,,,,30345
346,"Dr. Oberleit, Allgemeinmedizin",Barwies 271,Mieming,Tirol,6414,,47.3056772,10.9651993,False,,,,,,,,,,,,,,,,,,,,,,,,,,,,,,,,,,,,,,,,,,,,,,,,,,,,,,,,,,,,,,,,,,,,,,,,,,,,,,,,30346
347,Dr. Olaf Wonisch,Hauptstraße 262,Sankt Peter am Ottersbach,Steiermark,8093,,46.801199,15.758538,False,,,,,,,,,,,,,,,,,,,,,,,,,,,,,,,,,,,,,,,,,,,,,,,,,,,,,,,,,,,,,,,,,,,,,,,,,,,,,,,,30347
348,Dr. Oliver Lammel,nan 381,Ramsau am Dachstein,Steiermark,8972,+43 3687 81081,47.4199615,13.658896,False,,,,,,,,,,,,,,,,,,,,,,,,,,,,,,,,,,,,,,,,,,,,,,,,,,,,,,,,,,,,,,,,,,,,,,,,,,,,,,,,30348
349,Dr. Orges Fezga,Hauptstraße 1,Berndorf,Niederösterreich,2560,,47.9384958,16.1554726,False,,,,,,,,,,,,,,,,,,,,,,,,,,,,,,,,,,,,,,,,,,,,,,,,,,,,,,,,,,,,,,,,,,,,,,,,,,,,,,,,30349
350,Dr. Oswald Heis,Weidach 293a,Leutasch,Tirol,6105,+43 5214 6910,47.3696608,11.1584103,False,,,,,,,,,,,,,,,,,,,,,,,,,,,,,,,,,,,,,,,,,,,,,,,,,,,,,,,,,,,,,,,,,,,,,,,,,,,,,,,,30350
351,Dr. Otmar Eckhart,Leonsteinerstraße 41,Grünburg,Oberösterreich,4592,,47.9093956,14.2355143,False,,,,,,,,,,,,,,,,,,,,,,,,,,,,,,,,,,,,,,,,,,,,,,,,,,,,,,,,,,,,,,,,,,,,,,,,,,,,,,,,30351
352,Dr. Ottinger Franz,Brucknerweg 17,Frankenburg am Hausruck,Oberösterreich,4873,,48.0699164,13.4876187,False,,,,,,,,,,,,,,,,,,,,,,,,,,,,,,,,,,,,,,,,,,,,,,,,,,,,,,,,,,,,,,,,,,,,,,,,,,,,,,,,30352
353,Dr. Panhofer,,Ungenach,Oberösterreich,4841,,48.0463675,13.6133933,False,,,,,,,,,,,,,,,,,,,,,,,,,,,,,,,,,,,,,,,,,,,,,,,,,,,,,,,,,,,,,,,,,,,,,,,,,,,,,,,,30353
354,Dr. Paula Schmied,Hauptstraße 6,Petronell-Carnuntum,Niederösterreich,2404,,48.1119126,16.8609396,False,,,,,,,,,,,,,,,,,,,,,,,,,,,,,,,,,,,,,,,,,,,,,,,,,,,,,,,,,,,,,,,,,,,,,,,,,,,,,,,,30354
355,Dr. Payrich - Prakt. Arzt,Neubaugasse 49,Sankt Andrä am Zicksee,Burgenland,7161,,47.7877348,16.9466696,False,,,,,,,,,,,,,,,,,,,,,,,,,,,,,,,,,,,,,,,,,,,,,,,,,,,,,,,,,,,,,,,,,,,,,,,,,,,,,,,,30355
356,Dr. Permanschlager,Pantaleoner Straße 2,Sankt Pantaleon,Oberösterreich,5120,,48.0110122,12.8930402,False,,,,,,,,,,,,,,,,,,,,,,,,,,,,,,,,,,,,,,,,,,,,,,,,,,,,,,,,,,,,,,,,,,,,,,,,,,,,,,,,30356
357,Dr. Peter Arends,Grazer Straße 25,Güssing,Burgenland,7540,,47.0475883,16.3197061,False,,,,,,,,,,,,,,,,,,,,,,,,,,,,,,,,,,,,,,,,,,,,,,,,,,,,,,,,,,,,,,,,,,,,,,,,,,,,,,,,30357
358,Dr. Peter Fuchs,nan 160,Ratten,Steiermark,8673,,47.485222,15.7236422,False,,,,,,,,,,,,,,,,,,,,,,,,,,,,,,,,,,,,,,,,,,,,,,,,,,,,,,,,,,,,,,,,,,,,,,,,,,,,,,,,30358
359,Dr. Peter Peer,Juns 592,Tux,Tirol,6293,,47.1406563,11.715343,False,,,,,,,,,,,,,,,,,,,,,,,,,,,,,,,,,,,,,,,,,,,,,,,,,,,,,,,,,,,,,,,,,,,,,,,,,,,,,,,,30359
360,Dr. Petra Steinhart,Ulmenweg 1,Ansfelden,Oberösterreich,4052,,48.2247482,14.2936055,False,,,,,,,,,,,,,,,,,,,,,,,,,,,,,,,,,,,,,,,,,,,,,,,,,,,,,,,,,,,,,,,,,,,,,,,,,,,,,,,,30360
361,Dr. Pfefferkorn,,Grän,Tirol,6673,,47.5031629,10.5552431,False,,,,,,,,,,,,,,,,,,,,,,,,,,,,,,,,,,,,,,,,,,,,,,,,,,,,,,,,,,,,,,,,,,,,,,,,,,,,,,,,30361
362,Dr. Pils,,Scharnstein,Oberösterreich,4644,,47.9027549,13.9585674,False,,,,,,,,,,,,,,,,,,,,,,,,,,,,,,,,,,,,,,,,,,,,,,,,,,,,,,,,,,,,,,,,,,,,,,,,,,,,,,,,30362
363,Dr. Reinhard Smutny,Karl-Schwed-Gasse 39,Wien,Wien,1230,+43 1 887 36 53,48.1580674,16.28009,False,,,,,,,,,,,,,,,,,,,,,,,,,,,,,,,,,,,,,,,,,,,,,,,,,,,,,,,,,,,,,,,,,,,,,,,,,,,,,,,,30363
364,Dr. Reinhold Fasching,Neustiftstraße 7,Frauenkirchen,Burgenland,7132,0043 2172 289 70,47.8374867,16.9223415,False,,,,,,,,,,,,,,,,,,,,,,,,,,,,,,,,,,,,,,,,,,,,,,,,,,,,,,,,,,,,,,,,,,,,,,,,,,,,,,,,30364
365,Dr. Reinhold Függer,Alhartinger Weg 18,Leonding,Oberösterreich,4060,,48.2818557,14.2461157,False,,,,,,,,,,,,,,,,,,,,,,,,,,,,,,,,,,,,,,,,,,,,,,,,,,,,,,,,,,,,,,,,,,,,,,,,,,,,,,,,30365
366,Dr. Renate Thiele,Herzogstraße 29,Leonding,Oberösterreich,4060,,48.2491673,14.2544966,False,,,,,,,,,,,,,,,,,,,,,,,,,,,,,,,,,,,,,,,,,,,,,,,,,,,,,,,,,,,,,,,,,,,,,,,,,,,,,,,,30366
367,Dr. Richard Winklehner,Steingarten 32,Schönau im Mühlkreis,Oberösterreich,4274,,48.400178,14.7276171,False,,,,,,,,,,,,,,,,,,,,,,,,,,,,,,,,,,,,,,,,,,,,,,,,,,,,,,,,,,,,,,,,,,,,,,,,,,,,,,,,30367
368,Dr. Roland Lanzersdorfer,Altbauerstraße 13,Ansfelden,Oberösterreich,4052,,48.2250672,14.2923495,False,,,,,,,,,,,,,,,,,,,,,,,,,,,,,,,,,,,,,,,,,,,,,,,,,,,,,,,,,,,,,,,,,,,,,,,,,,,,,,,,30368
369,Dr. Rudlof Bogad,Pürrergasse 4,Katzelsdorf,Niederösterreich,2801,,47.7812179,16.2711044,False,,,,,,,,,,,,,,,,,,,,,,,,,,,,,,,,,,,,,,,,,,,,,,,,,,,,,,,,,,,,,,,,,,,,,,,,,,,,,,,,30369
370,Dr. Rudolf Rüscher,nan 368,Andelsbuch,Vorarlberg,6866,,47.4112452,9.8950106,False,,,,,,,,,,,,,,,,,,,,,,,,,,,,,,,,,,,,,,,,,,,,,,,,,,,,,,,,,,,,,,,,,,,,,,,,,,,,,,,,30370
371,Dr. Rudolf Staudacher,Dietrichsteinerstraße 13,Finkenstein am Faaker See,Kärnten,9583,,46.5667843,13.912129,False,,,,,,,,,,,,,,,,,,,,,,,,,,,,,,,,,,,,,,,,,,,,,,,,,,,,,,,,,,,,,,,,,,,,,,,,,,,,,,,,30371
372,Dr. Salam Jabbour,Brucker Straße 24,Gratkorn,Steiermark,8101,,47.1354966,15.3353093,False,,,,,,,,,,,,,,,,,,,,,,,,,,,,,,,,,,,,,,,,,,,,,,,,,,,,,,,,,,,,,,,,,,,,,,,,,,,,,,,,30372
373,Dr. Sandra Michaela Brunner,Hartbergerstraße 1,Buchkirchen,Oberösterreich,4611,,48.2237144,14.0191563,False,,,,,,,,,,,,,,,,,,,,,,,,,,,,,,,,,,,,,,,,,,,,,,,,,,,,,,,,,,,,,,,,,,,,,,,,,,,,,,,,30373
374,"Dr. Schmid Bernhard, prakt. Arzt",nan 123,Zwettl-Niederösterreich,Niederösterreich,3910,,48.672083,15.1625611,False,,,,,,,,,,,,,,,,,,,,,,,,,,,,,,,,,,,,,,,,,,,,,,,,,,,,,,,,,,,,,,,,,,,,,,,,,,,,,,,,30374
375,Dr. Schnopfhagen-Matura,Schubertviertel 33,Sankt Valentin,Niederösterreich,4300,,48.1729118,14.5286975,False,,,,,,,,,,,,,,,,,,,,,,,,,,,,,,,,,,,,,,,,,,,,,,,,,,,,,,,,,,,,,,,,,,,,,,,,,,,,,,,,30375
376,Dr. Schultes,,Neidling,Niederösterreich,3110,,48.2369942,15.556366,False,,,,,,,,,,,,,,,,,,,,,,,,,,,,,,,,,,,,,,,,,,,,,,,,,,,,,,,,,,,,,,,,,,,,,,,,,,,,,,,,30376
377,Dr. Schuster,Kreuzfeld 14,Engerwitzdorf,Oberösterreich,4209,,48.3412943,14.4175507,False,,,,,,,,,,,,,,,,,,,,,,,,,,,,,,,,,,,,,,,,,,,,,,,,,,,,,,,,,,,,,,,,,,,,,,,,,,,,,,,,30377
378,Dr. Schwaiger,Richtstraße 35,Villach,Kärnten,9500,,46.5964335,13.8441234,False,,,,,,,,,,,,,,,,,,,,,,,,,,,,,,,,,,,,,,,,,,,,,,,,,,,,,,,,,,,,,,,,,,,,,,,,,,,,,,,,30378
379,Dr. Schwarzmann,,Bezau,Vorarlberg,6870,,47.3790507,9.8940563,False,,,,,,,,,,,,,,,,,,,,,,,,,,,,,,,,,,,,,,,,,,,,,,,,,,,,,,,,,,,,,,,,,,,,,,,,,,,,,,,,30379
380,Dr. Schöninger,nan 43,Enns,Oberösterreich,4470,,48.2159664,14.446801,False,,,,,,,,,,,,,,,,,,,,,,,,,,,,,,,,,,,,,,,,,,,,,,,,,,,,,,,,,,,,,,,,,,,,,,,,,,,,,,,,30380
381,Dr. Sereinigg,Josef-Marx-Gasse 2,Ferlach,Kärnten,9170,,46.524318,14.3015219,False,,,,,,,,,,,,,,,,,,,,,,,,,,,,,,,,,,,,,,,,,,,,,,,,,,,,,,,,,,,,,,,,,,,,,,,,,,,,,,,,30381
382,Dr. Siegfried Wess,nan 144,Sankt Georgen ob Judenburg,Steiermark,8756,+43 35 83 - 22 49,47.2087954,14.4980691,False,,,,,,,,,,,,,,,,,,,,,,,,,,,,,,,,,,,,,,,,,,,,,,,,,,,,,,,,,,,,,,,,,,,,,,,,,,,,,,,,30382
383,Dr. Smoliner,Adalbert Stifter-Gasse 11,Deutsch-Wagram,Niederösterreich,2232,,48.314825,16.5956035,False,,,,,,,,,,,,,,,,,,,,,,,,,,,,,,,,,,,,,,,,,,,,,,,,,,,,,,,,,,,,,,,,,,,,,,,,,,,,,,,,30383
384,Dr. Sonja Gapp,Baderplatz 108,Hallstatt,Oberösterreich,4830,,47.5619081,13.6496391,False,,,,,,,,,,,,,,,,,,,,,,,,,,,,,,,,,,,,,,,,,,,,,,,,,,,,,,,,,,,,,,,,,,,,,,,,,,,,,,,,30384
385,Dr. Spießberger Johannes,Johann-Strauß-Straße 1,Vöcklamarkt,Oberösterreich,4870,+43 7682 2322,47.9985266,13.486988,False,,,,,,,,,,,,,,,,,,,,,,,,,,,,,,,,,,,,,,,,,,,,,,,,,,,,,,,,,,,,,,,,,,,,,,,,,,,,,,,,30385
386,Dr. Stadlmayr,Bachweg 11,Frankenburg am Hausruck,Oberösterreich,4873,,48.0662439,13.4933962,False,,,,,,,,,,,,,,,,,,,,,,,,,,,,,,,,,,,,,,,,,,,,,,,,,,,,,,,,,,,,,,,,,,,,,,,,,,,,,,,,30386
387,Dr. Stefan Walser,Sulzhofen 14,Sulz,Vorarlberg,6832,,47.2901036,9.6531241,False,,,,,,,,,,,,,,,,,,,,,,,,,,,,,,,,,,,,,,,,,,,,,,,,,,,,,,,,,,,,,,,,,,,,,,,,,,,,,,,,30387
388,Dr. Steinhauser,Bifangstraße 31a,Feldkirch,Vorarlberg,6800,,47.2547291,9.5895536,False,,,,,,,,,,,,,,,,,,,,,,,,,,,,,,,,,,,,,,,,,,,,,,,,,,,,,,,,,,,,,,,,,,,,,,,,,,,,,,,,30388
389,Dr. Susanne Natiesta,Rudolf-Waisenhorn-Gasse 63,Wien,Wien,1230,+43 699 10089876,48.14094,16.27008,False,,,,,,,,,,,,,,,,,,,,,,,,,,,,,,,,,,,,,,,,,,,,,,,,,,,,,,,,,,,,,,,,,,,,,,,,,,,,,,,,30389
390,Dr. Susanne Scholtes- Domian,Traidersbergstraße 17,Sankt Peter-Freienstein,Steiermark,8792,+43 3842 25 3 90,47.3961791,15.0297903,False,,,,,,,,,,,,,,,,,,,,,,,,,,,,,,,,,,,,,,,,,,,,,,,,,,,,,,,,,,,,,,,,,,,,,,,,,,,,,,,,30390
391,Dr. Thomas Fitz,Hauptstraße 145,Bad Aussee,Steiermark,8990,,47.6100203,13.7838405,False,,,,,,,,,,,,,,,,,,,,,,,,,,,,,,,,,,,,,,,,,,,,,,,,,,,,,,,,,,,,,,,,,,,,,,,,,,,,,,,,30391
392,Dr. Thomas Hollenstein,nan 836,Schwarzenberg,Vorarlberg,6867,,47.4129022,9.8595348,False,,,,,,,,,,,,,,,,,,,,,,,,,,,,,,,,,,,,,,,,,,,,,,,,,,,,,,,,,,,,,,,,,,,,,,,,,,,,,,,,30392
393,Dr. Thomas Horvath,Reutelestraße 31,Hard,Vorarlberg,6971,,47.4834183,9.6826288,False,,,,,,,,,,,,,,,,,,,,,,,,,,,,,,,,,,,,,,,,,,,,,,,,,,,,,,,,,,,,,,,,,,,,,,,,,,,,,,,,30393
394,Dr. Thomas Mosing,Fabrikstraße 10,Niklasdorf,Steiermark,8712,,47.3975638,15.1556451,False,,,,,,,,,,,,,,,,,,,,,,,,,,,,,,,,,,,,,,,,,,,,,,,,,,,,,,,,,,,,,,,,,,,,,,,,,,,,,,,,30394
395,Dr. Thomas Preimesberger,,Bad Aussee,Steiermark,8990,,47.6083809,13.7839871,False,,,,,,,,,,,,,,,,,,,,,,,,,,,,,,,,,,,,,,,,,,,,,,,,,,,,,,,,,,,,,,,,,,,,,,,,,,,,,,,,30395
396,Dr. Tockner,nan 17,Arnfels,Steiermark,8454,+43 3455 6464,46.6776551,15.4020231,False,,,,,,,,,,,,,,,,,,,,,,,,,,,,,,,,,,,,,,,,,,,,,,,,,,,,,,,,,,,,,,,,,,,,,,,,,,,,,,,,30396
397,Dr. Tragatschnig,Sportplatzstraße 306,Paternion,Kärnten,9710,,46.7021931,13.6651395,False,,,,,,,,,,,,,,,,,,,,,,,,,,,,,,,,,,,,,,,,,,,,,,,,,,,,,,,,,,,,,,,,,,,,,,,,,,,,,,,,30397
398,Dr. Ursula Huber,Parkstraße 2b,Hinterbrühl,Niederösterreich,2371,,48.0865429,16.2507461,False,,,,,,,,,,,,,,,,,,,,,,,,,,,,,,,,,,,,,,,,,,,,,,,,,,,,,,,,,,,,,,,,,,,,,,,,,,,,,,,,30398
399,Dr. Veonika König,Moriz-Schadek-Gasse 28,Waidhofen an der Thaya,Niederösterreich,3830,,48.8127765,15.2841393,False,,,,,,,,,,,,,,,,,,,,,,,,,,,,,,,,,,,,,,,,,,,,,,,,,,,,,,,,,,,,,,,,,,,,,,,,,,,,,,,,30399
400,Dr. Weber,Neubaustraße 8,Grünbach am Schneeberg,Niederösterreich,2733,,47.7990861,15.9844273,False,,,,,,,,,,,,,,,,,,,,,,,,,,,,,,,,,,,,,,,,,,,,,,,,,,,,,,,,,,,,,,,,,,,,,,,,,,,,,,,,30400
401,Dr. Weinlich,nan 169,Weitersfeld,Niederösterreich,2084,,48.7825626,15.8133024,False,,,,,,,,,,,,,,,,,,,,,,,,,,,,,,,,,,,,,,,,,,,,,,,,,,,,,,,,,,,,,,,,,,,,,,,,,,,,,,,,30401
402,Dr. Weitersberger,Dorfstraße 19,Pierbach,Oberösterreich,4282,,48.3479617,14.7571624,False,,,,,,,,,,,,,,,,,,,,,,,,,,,,,,,,,,,,,,,,,,,,,,,,,,,,,,,,,,,,,,,,,,,,,,,,,,,,,,,,30402
403,Dr. Werner Hladik,,Hollabrunn,Niederösterreich,2020,,48.5629612,16.0798123,False,,,,,,,,,,,,,,,,,,,,,,,,,,,,,,,,,,,,,,,,,,,,,,,,,,,,,,,,,,,,,,,,,,,,,,,,,,,,,,,,30403
404,Dr. Wildner Michael,Johann-Paul-Gruber-Weg 6,Zirl,Tirol,6170,,47.2708805,11.2456565,False,,,,,,,,,,,,,,,,,,,,,,,,,,,,,,,,,,,,,,,,,,,,,,,,,,,,,,,,,,,,,,,,,,,,,,,,,,,,,,,,30404
405,Dr. Wilhelm Jordan,Salzleckerstraße 12,Schwarzach im Pongau,Salzburg,5620,,47.3208604,13.1520049,False,,,,,,,,,,,,,,,,,,,,,,,,,,,,,,,,,,,,,,,,,,,,,,,,,,,,,,,,,,,,,,,,,,,,,,,,,,,,,,,,30405
406,Dr. Willibald Stulnig,Lindenweg 3,Wundschuh,Steiermark,8142,,46.9278399,15.4521205,False,,,,,,,,,,,,,,,,,,,,,,,,,,,,,,,,,,,,,,,,,,,,,,,,,,,,,,,,,,,,,,,,,,,,,,,,,,,,,,,,30406
407,Dr. Wolfgang Aschauer;FA für Frauenheilkunde und Gynäkologie;Wahlarzt,Schulstraße 6,Kremsmünster,Oberösterreich,4550,+43-7583-8420,48.0513355,14.1271573,False,,,,,,,,,,,,,,,,,,,,,,,,,,,,,,,,,,,,,,,,,,,,,,,,,,,,,,,,,,,,,,,,,,,,,,,,,,,,,,,,30407
408,Dr. Wolfgang Hehenwarter,Kariglstraße 1/2,Leonding,Oberösterreich,4060,,48.2766423,14.2556938,False,,,,,,,,,,,,,,,,,,,,,,,,,,,,,,,,,,,,,,,,,,,,,,,,,,,,,,,,,,,,,,,,,,,,,,,,,,,,,,,,30408
409,Dr. Wolfgang Niedermair,Grieskirchner Straße 7,Wels,Oberösterreich,4600,,48.169066,14.0245991,False,,,,,,,,,,,,,,,,,,,,,,,,,,,,,,,,,,,,,,,,,,,,,,,,,,,,,,,,,,,,,,,,,,,,,,,,,,,,,,,,30409
410,Dr. Wolfgang Schuller,Bahngasse 25,Oberpullendorf,Burgenland,7350,,47.4945905,16.505773,False,,,,,,,,,,,,,,,,,,,,,,,,,,,,,,,,,,,,,,,,,,,,,,,,,,,,,,,,,,,,,,,,,,,,,,,,,,,,,,,,30410
411,Dr. Wolfgang Wurdinger,Winkelstraße 6,Leonding,Oberösterreich,4060,,48.2699851,14.2429764,False,,,,,,,,,,,,,,,,,,,,,,,,,,,,,,,,,,,,,,,,,,,,,,,,,,,,,,,,,,,,,,,,,,,,,,,,,,,,,,,,30411
412,Dr. Wutti,Dollichgasse 5,Ferlach,Kärnten,9170,,46.5276177,14.3041897,False,,,,,,,,,,,,,,,,,,,,,,,,,,,,,,,,,,,,,,,,,,,,,,,,,,,,,,,,,,,,,,,,,,,,,,,,,,,,,,,,30412
413,Dr. Zanier Peter,,Lienz,Tirol,9900,,46.8315302,12.7731707,False,,,,,,,,,,,,,,,,,,,,,,,,,,,,,,,,,,,,,,,,,,,,,,,,,,,,,,,,,,,,,,,,,,,,,,,,,,,,,,,,30413
414,Dr. med. Christian Schroth,nan 22,Mallnitz,Kärnten,9822,,46.9887247,13.1700906,False,,,,,,,,,,,,,,,,,,,,,,,,,,,,,,,,,,,,,,,,,,,,,,,,,,,,,,,,,,,,,,,,,,,,,,,,,,,,,,,,30414
415,Dr. med. Peter Laszloffy,Zellerstraße 27,Bruck an der Großglocknerstraße,Salzburg,5671,,47.2885057,12.8215245,False,,,,,,,,,,,,,,,,,,,,,,,,,,,,,,,,,,,,,,,,,,,,,,,,,,,,,,,,,,,,,,,,,,,,,,,,,,,,,,,,30415
416,Dr. med. Stefan Rebhandl,Dorfplatz 2,Klaffer am Hochficht,Oberösterreich,4163,07288/6504,48.6955141,13.8802353,False,,,,,,,,,,,,,,,,,,,,,,,,,,,,,,,,,,,,,,,,,,,,,,,,,,,,,,,,,,,,,,,,,,,,,,,,,,,,,,,,30416
417,Dr. med. Thomas Wolf,Sporerweg 307,Millstatt am See,Kärnten,9872,,46.8123757,13.5586344,False,,,,,,,,,,,,,,,,,,,,,,,,,,,,,,,,,,,,,,,,,,,,,,,,,,,,,,,,,,,,,,,,,,,,,,,,,,,,,,,,30417
418,Dr. med. Winfried Burtscher,Königsboden 145,Dalaas,Vorarlberg,6752,,47.1239115,10.0017894,False,,,,,,,,,,,,,,,,,,,,,,,,,,,,,,,,,,,,,,,,,,,,,,,,,,,,,,,,,,,,,,,,,,,,,,,,,,,,,,,,30418
419,Dr. med. univ Renate Wurm,Marktplatz 12,Amstetten,Niederösterreich,3363,,48.0781111,14.8254494,False,,,,,,,,,,,,,,,,,,,,,,,,,,,,,,,,,,,,,,,,,,,,,,,,,,,,,,,,,,,,,,,,,,,,,,,,,,,,,,,,30419
420,Dr. med. univ. Josef Weinhart,Schloßstraße 4,Amstetten,Niederösterreich,3363,,48.0760928,14.8190072,False,,,,,,,,,,,,,,,,,,,,,,,,,,,,,,,,,,,,,,,,,,,,,,,,,,,,,,,,,,,,,,,,,,,,,,,,,,,,,,,,30420
421,Dr. med. univ. Werenfrid Heger,Wilhelm-Vogl-Straße 48,Amstetten,Niederösterreich,3363,,48.0818714,14.8118647,False,,,,,,,,,,,,,,,,,,,,,,,,,,,,,,,,,,,,,,,,,,,,,,,,,,,,,,,,,,,,,,,,,,,,,,,,,,,,,,,,30421
422,Dr. Übeleis,Kranholzstraße 3,Kirchberg-Thening,Oberösterreich,4062,,48.2567226,14.1571035,False,,,,,,,,,,,,,,,,,,,,,,,,,,,,,,,,,,,,,,,,,,,,,,,,,,,,,,,,,,,,,,,,,,,,,,,,,,,,,,,,30422
423,Dr.Buchegger,Raiffeisenplatz 3,Pöggstall,Niederösterreich,3650,,48.31796,15.2017394,False,,,,,,,,,,,,,,,,,,,,,,,,,,,,,,,,,,,,,,,,,,,,,,,,,,,,,,,,,,,,,,,,,,,,,,,,,,,,,,,,30423
424,Dr.Grünberger,Im Himmelreich 3,Münzkirchen,Oberösterreich,4792,,48.48496,13.5692971,False,,,,,,,,,,,,,,,,,,,,,,,,,,,,,,,,,,,,,,,,,,,,,,,,,,,,,,,,,,,,,,,,,,,,,,,,,,,,,,,,30424
425,Dr.Tenora,Hauptstraße 192,Maria-Anzbach,Niederösterreich,3034,,48.1905455,15.9288326,False,,,,,,,,,,,,,,,,,,,,,,,,,,,,,,,,,,,,,,,,,,,,,,,,,,,,,,,,,,,,,,,,,,,,,,,,,,,,,,,,30425
426,Dr.Wüstner,Warth 67,Warth,Vorarlberg,6767,,47.2590659,10.179469,False,,,,,,,,,,,,,,,,,,,,,,,,,,,,,,,,,,,,,,,,,,,,,,,,,,,,,,,,,,,,,,,,,,,,,,,,,,,,,,,,30426
427,Dr.med Christoph Dachs & Dr.med Doris Diess,Rifer Hauptstraße 34,Hallein,Salzburg,5400,+43 6245 76220,47.7241315,13.0647807,False,,,,,,,,,,,,,,,,,,,,,,,,,,,,,,,,,,,,,,,,,,,,,,,,,,,,,,,,,,,,,,,,,,,,,,,,,,,,,,,,30427
428,Dr.med. Roland Fuschelberger,Dorf 2,Aldrans,Tirol,6071,+43 512 394042,47.2521713,11.4462629,False,,,,,,,,,,,,,,,,,,,,,,,,,,,,,,,,,,,,,,,,,,,,,,,,,,,,,,,,,,,,,,,,,,,,,,,,,,,,,,,,30428
429,Eduard Auff,An den langen Lüssen 4,Wien,Wien,1190,,48.2530095,16.3414286,False,,,,,,,,,,,,,,,,,,,,,,,,,,,,,,,,,,,,,,,,,,,,,,,,,,,,,,,,,,,,,,,,,,,,,,,,,,,,,,,,30429
430,Etzelsdorfer Roland,Birkenfeld 4,Sankt Oswald bei Freistadt,Oberösterreich,4271,,48.5023018,14.5790117,False,,,,,,,,,,,,,,,,,,,,,,,,,,,,,,,,,,,,,,,,,,,,,,,,,,,,,,,,,,,,,,,,,,,,,,,,,,,,,,,,30430
431,Facharzt Ordination Physikalische Medizin u. allg. Rehab,Quadenstraße 41,Wien,Wien,1220,,48.2378611,16.4790657,False,,,,,,,,,,,,,,,,,,,,,,,,,,,,,,,,,,,,,,,,,,,,,,,,,,,,,,,,,,,,,,,,,,,,,,,,,,,,,,,,30431
432,Frauenarzt Stefanovic,Wagramer Straße 173,Wien,Wien,1220,,48.25767,16.4486226,False,,,,,,,,,,,,,,,,,,,,,,,,,,,,,,,,,,,,,,,,,,,,,,,,,,,,,,,,,,,,,,,,,,,,,,,,,,,,,,,,30432
433,Frauengesundheitszentrum Wels,Kaiser-Josef-Platz 52,Wels,Oberösterreich,4600,,48.160699,14.0241133,False,,,,,,,,,,,,,,,,,,,,,,,,,,,,,,,,,,,,,,,,,,,,,,,,,,,,,,,,,,,,,,,,,,,,,,,,,,,,,,,,30433
434,Geiss,Gaadner Straße 2a,Hinterbrühl,Niederösterreich,2371,,48.0847717,16.2566992,False,,,,,,,,,,,,,,,,,,,,,,,,,,,,,,,,,,,,,,,,,,,,,,,,,,,,,,,,,,,,,,,,,,,,,,,,,,,,,,,,30434
435,Gemeindearzt Dr. Gabler,Gafringstraße 5,Euratsfeld,Niederösterreich,3324,+43 7474 280,48.0816663,14.9334551,False,,,,,,,,,,,,,,,,,,,,,,,,,,,,,,,,,,,,,,,,,,,,,,,,,,,,,,,,,,,,,,,,,,,,,,,,,,,,,,,,30435
436,Gemeindeärztin,Wolfsbrunn 5,Sommerein,Niederösterreich,2453,,47.9951331,16.6660265,False,,,,,,,,,,,,,,,,,,,,,,,,,,,,,,,,,,,,,,,,,,,,,,,,,,,,,,,,,,,,,,,,,,,,,,,,,,,,,,,,30436
437,Gertraud Unterholzer,Semmelweisstraße 1,Pucking,Oberösterreich,4055,,48.1872767,14.182428,False,,,,,,,,,,,,,,,,,,,,,,,,,,,,,,,,,,,,,,,,,,,,,,,,,,,,,,,,,,,,,,,,,,,,,,,,,,,,,,,,30437
438,Gesundheitshaus Dr. Christoph Jecel,Untere Hauptstraße 24,Böheimkirchen,Niederösterreich,3071,02743/2400,48.1975407,15.7668522,False,,,,,,,,,,,,,,,,,,,,,,,,,,,,,,,,,,,,,,,,,,,,,,,,,,,,,,,,,,,,,,,,,,,,,,,,,,,,,,,,30438
439,Gesundheitsschmiede Dr. Stephan Weber,Jägerweg 3b,Villach,Kärnten,9500,+43 4242 28548,46.6235979,13.8601553,False,,,,,,,,,,,,,,,,,,,,,,,,,,,,,,,,,,,,,,,,,,,,,,,,,,,,,,,,,,,,,,,,,,,,,,,,,,,,,,,,30439
440,Gesundheitszentrum,Hauptstraße 31,Bisamberg,Niederösterreich,2102,,48.3297112,16.3595244,False,,,,,,,,,,,,,,,,,,,,,,,,,,,,,,,,,,,,,,,,,,,,,,,,,,,,,,,,,,,,,,,,,,,,,,,,,,,,,,,,30440
441,Gesundheitszentrum,,Steyr,Oberösterreich,4400,,48.0382303,14.4215267,False,,,,,,,,,,,,,,,,,,,,,,,,,,,,,,,,,,,,,,,,,,,,,,,,,,,,,,,,,,,,,,,,,,,,,,,,,,,,,,,,30441
442,Gesundheitszentrum,Robert Graf Platz 2,Eisenstadt,Burgenland,7000,,47.8439627,16.5264064,False,,,,,,,,,,,,,,,,,,,,,,,,,,,,,,,,,,,,,,,,,,,,,,,,,,,,,,,,,,,,,,,,,,,,,,,,,,,,,,,,30442
443,Gesundheitszentrum Herrenstraße,Herrenstraße 54,Linz,Oberösterreich,4020,,48.2986106,14.2874934,False,,,,,,,,,,,,,,,,,,,,,,,,,,,,,,,,,,,,,,,,,,,,,,,,,,,,,,,,,,,,,,,,,,,,,,,,,,,,,,,,30443
444,Gesundheitszentrum Joglland,nan 200,Vorau,Steiermark,8250,,47.4112472,15.892809,False,,,,,,,,,,,,,,,,,,,,,,,,,,,,,,,,,,,,,,,,,,,,,,,,,,,,,,,,,,,,,,,,,,,,,,,,,,,,,,,,30444
445,Gruppenpraxis Dr. Arthur Penn und Dr. Christoph Aumayr,Penngasse 5,Reichenau im Mühlkreis,Oberösterreich,4204,,48.4554409,14.3521003,False,,,,,,,,,,,,,,,,,,,,,,,,,,,,,,,,,,,,,,,,,,,,,,,,,,,,,,,,,,,,,,,,,,,,,,,,,,,,,,,,30445
446,Gruppenpraxis Strasshof,Hauptstraße 292/1,Strasshof an der Nordbahn,Niederösterreich,2231,+43 2287 4444,48.3171196,16.6404556,False,,,,,,,,,,,,,,,,,,,,,,,,,,,,,,,,,,,,,,,,,,,,,,,,,,,,,,,,,,,,,,,,,,,,,,,,,,,,,,,,30446
447,Hausapotheke Dr Ulrich Busch,Poybachsiedlung 1,Großkrut,Niederösterreich,2143,,48.6451576,16.7153524,False,,,,,,,,,,,,,,,,,,,,,,,,,,,,,,,,,,,,,,,,,,,,,,,,,,,,,,,,,,,,,,,,,,,,,,,,,,,,,,,,30447
448,Herzpraxis Wolber,St.-Ulrich-Straße 40,Götzis,Vorarlberg,6840,+43 5523 51183,47.3362346,9.6390441,False,,,,,,,,,,,,,,,,,,,,,,,,,,,,,,,,,,,,,,,,,,,,,,,,,,,,,,,,,,,,,,,,,,,,,,,,,,,,,,,,30448
449,Heschl - Landarztteam f. Allgemeinmedizin,Stadlweg 1,Oed-Oehling,Niederösterreich,3312,,48.1226741,14.7415419,False,,,,,,,,,,,,,,,,,,,,,,,,,,,,,,,,,,,,,,,,,,,,,,,,,,,,,,,,,,,,,,,,,,,,,,,,,,,,,,,,30449
450,Kerschbaumer,Pichler Straße 1,Gunskirchen,Oberösterreich,4623,,48.1333652,13.9404953,False,,,,,,,,,,,,,,,,,,,,,,,,,,,,,,,,,,,,,,,,,,,,,,,,,,,,,,,,,,,,,,,,,,,,,,,,,,,,,,,,30450
451,Kovacic,Matzingthalstraße 15,Laakirchen,Oberösterreich,4663,,47.9849921,13.8246722,False,,,,,,,,,,,,,,,,,,,,,,,,,,,,,,,,,,,,,,,,,,,,,,,,,,,,,,,,,,,,,,,,,,,,,,,,,,,,,,,,30451
452,Labor Dr. Leisch,Waltherstraße 5,Linz,Oberösterreich,4020,,48.302354,14.2843503,False,,,,,,,,,,,,,,,,,,,,,,,,,,,,,,,,,,,,,,,,,,,,,,,,,,,,,,,,,,,,,,,,,,,,,,,,,,,,,,,,30452
453,Labor Dr. Philadelphy,Völser Straße 14,Innsbruck,Tirol,6020,,47.2502221,11.3628426,False,,,,,,,,,,,,,,,,,,,,,,,,,,,,,,,,,,,,,,,,,,,,,,,,,,,,,,,,,,,,,,,,,,,,,,,,,,,,,,,,30453
454,Labor Dr. Theurl,Franz-Fischer-Straße 7b,Innsbruck,Tirol,6020,,47.2580673,11.3950091,False,,,,,,,,,,,,,,,,,,,,,,,,,,,,,,,,,,,,,,,,,,,,,,,,,,,,,,,,,,,,,,,,,,,,,,,,,,,,,,,,30454
455,Lungenfacharzt Dr. Hofinger,Flecknertorgasse 7,Scheibbs,Niederösterreich,3270,,48.0067837,15.1679064,False,,,,,,,,,,,,,,,,,,,,,,,,,,,,,,,,,,,,,,,,,,,,,,,,,,,,,,,,,,,,,,,,,,,,,,,,,,,,,,,,30455
456,MED22 Gesundheitszentrum,Stadlauer Straße 62,Wien,Wien,1220,,48.2311746,16.4579284,False,,,,,,,,,,,,,,,,,,,,,,,,,,,,,,,,,,,,,,,,,,,,,,,,,,,,,,,,,,,,,,,,,,,,,,,,,,,,,,,,30456
457,MR Dr. Helmut Niederecker,Ingenieur-Eugen-Essenther-Straße 16,Berndorf,Niederösterreich,2560,,47.9418781,16.1081635,False,,,,,,,,,,,,,,,,,,,,,,,,,,,,,,,,,,,,,,,,,,,,,,,,,,,,,,,,,,,,,,,,,,,,,,,,,,,,,,,,30457
458,"MR Dr. Horst Geigl, MSc",Sonnenweg 1,Teufenbach-Katsch,Steiermark,8842,,47.1269668,14.3580664,False,,,,,,,,,,,,,,,,,,,,,,,,,,,,,,,,,,,,,,,,,,,,,,,,,,,,,,,,,,,,,,,,,,,,,,,,,,,,,,,,30458
459,Mag.(Fh) Mag. Kathrin Walch,Hernsteiner Straße 30,Berndorf,Niederösterreich,2560,,47.9399014,16.1045421,False,,,,,,,,,,,,,,,,,,,,,,,,,,,,,,,,,,,,,,,,,,,,,,,,,,,,,,,,,,,,,,,,,,,,,,,,,,,,,,,,30459
460,Medcenter Nord,Fischeraustraße 13,Graz,Steiermark,8051,,47.0946603,15.4093944,False,,,,,,,,,,,,,,,,,,,,,,,,,,,,,,,,,,,,,,,,,,,,,,,,,,,,,,,,,,,,,,,,,,,,,,,,,,,,,,,,30460
461,Medicent,Innrain 143,Innsbruck,Tirol,6020,,47.2559912,11.3771995,False,,,,,,,,,,,,,,,,,,,,,,,,,,,,,,,,,,,,,,,,,,,,,,,,,,,,,,,,,,,,,,,,,,,,,,,,,,,,,,,,30461
462,Medicent Baden,Grundauerweg 15,Baden,Niederösterreich,2500,,47.9973832,16.2560719,False,,,,,,,,,,,,,,,,,,,,,,,,,,,,,,,,,,,,,,,,,,,,,,,,,,,,,,,,,,,,,,,,,,,,,,,,,,,,,,,,30462
463,Mr. Dr. Walter Lux - Praktischer Arzt,Hauptstraße 79a,Dürnkrut,Niederösterreich,2263,02538 80290,48.4700145,16.8565967,False,,,,,,,,,,,,,,,,,,,,,,,,,,,,,,,,,,,,,,,,,,,,,,,,,,,,,,,,,,,,,,,,,,,,,,,,,,,,,,,,30463
464,Notarztdienst Linz-Land,Traunuferstraße 9a,Ansfelden,Oberösterreich,4052,,48.2287797,14.3053796,False,,,,,,,,,,,,,,,,,,,,,,,,,,,,,,,,,,,,,,,,,,,,,,,,,,,,,,,,,,,,,,,,,,,,,,,,,,,,,,,,30464
465,OMR Dr. Heinz Philipp,Escherstraße 12,Berndorf,Niederösterreich,2560,,47.9433604,16.0990365,False,,,,,,,,,,,,,,,,,,,,,,,,,,,,,,,,,,,,,,,,,,,,,,,,,,,,,,,,,,,,,,,,,,,,,,,,,,,,,,,,30465
466,OMed.R. Dr. Baschar Abou-Harb,Hauptstraße nan,Leopoldsdorf,Niederösterreich,2333,,48.1079263,16.3981953,False,,,,,,,,,,,,,,,,,,,,,,,,,,,,,,,,,,,,,,,,,,,,,,,,,,,,,,,,,,,,,,,,,,,,,,,,,,,,,,,,30466
467,Ord. Dr. Georg Prantl,Hauptstraße 5,Ehrwald,Tirol,6632,,47.4000951,10.9180291,False,,,,,,,,,,,,,,,,,,,,,,,,,,,,,,,,,,,,,,,,,,,,,,,,,,,,,,,,,,,,,,,,,,,,,,,,,,,,,,,,30467
468,Ord. Dr. Thomas Fluckinger,Bahnhofstraße 2,Wattens,Tirol,6112,,47.2919256,11.5907702,False,,,,,,,,,,,,,,,,,,,,,,,,,,,,,,,,,,,,,,,,,,,,,,,,,,,,,,,,,,,,,,,,,,,,,,,,,,,,,,,,30468
469,Ordination Dr. Fazelnia,Prof.-August-Schreilechner-Weg 20,Mariapfarr,Salzburg,5571,,47.1498238,13.7423649,False,,,,,,,,,,,,,,,,,,,,,,,,,,,,,,,,,,,,,,,,,,,,,,,,,,,,,,,,,,,,,,,,,,,,,,,,,,,,,,,,30469
470,Ordination Dr. Fischbacher,Kirchenfeld 43,Kefermarkt,Oberösterreich,4292,,48.4436183,14.539975,False,,,,,,,,,,,,,,,,,,,,,,,,,,,,,,,,,,,,,,,,,,,,,,,,,,,,,,,,,,,,,,,,,,,,,,,,,,,,,,,,30470
471,Ordination Dr. Klimmer Christian,Pettneu am Arlberg 58a,Pettneu am Arlberg,Tirol,6574,,47.1487462,10.3454432,False,,,,,,,,,,,,,,,,,,,,,,,,,,,,,,,,,,,,,,,,,,,,,,,,,,,,,,,,,,,,,,,,,,,,,,,,,,,,,,,,30471
472,Ordination Dr. Reisinger,Pfarrgasse 33,Imst,Tirol,6460,,47.2451537,10.7402631,False,,,,,,,,,,,,,,,,,,,,,,,,,,,,,,,,,,,,,,,,,,,,,,,,,,,,,,,,,,,,,,,,,,,,,,,,,,,,,,,,30472
473,Ordination Dr. Sax,Pfarrstraße 400,Mariapfarr,Salzburg,5571,,47.1499844,13.7477912,False,,,,,,,,,,,,,,,,,,,,,,,,,,,,,,,,,,,,,,,,,,,,,,,,,,,,,,,,,,,,,,,,,,,,,,,,,,,,,,,,30473
474,Ordination Dr. Schatzberger,Taxlbergstraße 1,Steinhaus,Oberösterreich,4641,,48.1061644,14.0268354,False,,,,,,,,,,,,,,,,,,,,,,,,,,,,,,,,,,,,,,,,,,,,,,,,,,,,,,,,,,,,,,,,,,,,,,,,,,,,,,,,30474
475,Ordination Dr. Wolfgang Bachlechner,nan 8,Assling,Tirol,9911,+434855 8181 / +43664 4361365,46.7834124,12.6610893,False,,,,,,,,,,,,,,,,,,,,,,,,,,,,,,,,,,,,,,,,,,,,,,,,,,,,,,,,,,,,,,,,,,,,,,,,,,,,,,,,30475
476,Ordination Prof. Dr. Rudolf Pointner,Stefan-Zweig-Straße 2,Zell am See,Salzburg,5700,,47.2999343,12.7978213,False,,,,,,,,,,,,,,,,,,,,,,,,,,,,,,,,,,,,,,,,,,,,,,,,,,,,,,,,,,,,,,,,,,,,,,,,,,,,,,,,30476
477,Orthopädie Gruppenpraxis OG,Hardlgasse nan,Wiener Neustadt,Niederösterreich,2700,,47.7996284,16.2344666,False,,,,,,,,,,,,,,,,,,,,,,,,,,,,,,,,,,,,,,,,,,,,,,,,,,,,,,,,,,,,,,,,,,,,,,,,,,,,,,,,30477
478,OÖ Gebietskrankenkasse Wels,Hans-Sachs-Straße 4,Wels,Oberösterreich,4600,,48.1619266,14.0310365,False,,,,,,,,,,,,,,,,,,,,,,,,,,,,,,,,,,,,,,,,,,,,,,,,,,,,,,,,,,,,,,,,,,,,,,,,,,,,,,,,30478
479,Pabinger Michaela,Höglwörthweg 10B,Salzburg,Salzburg,5020,0664 1141889,47.7747349,13.040205,False,,,,,,,,,,,,,,,,,,,,,,,,,,,,,,,,,,,,,,,,,,,,,,,,,,,,,,,,,,,,,,,,,,,,,,,,,,,,,,,,30479
480,Physio Gaissau,Hauptstraße 58a,Gaißau,Vorarlberg,6974,,47.4666031,9.601922,False,,,,,,,,,,,,,,,,,,,,,,,,,,,,,,,,,,,,,,,,,,,,,,,,,,,,,,,,,,,,,,,,,,,,,,,,,,,,,,,,30480
481,Pistenambulanz,,Arriach,Kärnten,9543,,46.6958355,13.913583,False,,,,,,,,,,,,,,,,,,,,,,,,,,,,,,,,,,,,,,,,,,,,,,,,,,,,,,,,,,,,,,,,,,,,,,,,,,,,,,,,30481
482,Prakt. Arzt Dr. Prammer,Hagerstraße 14,Sankt Veit im Mühlkreis,Oberösterreich,4173,,48.4699435,14.1619841,False,,,,,,,,,,,,,,,,,,,,,,,,,,,,,,,,,,,,,,,,,,,,,,,,,,,,,,,,,,,,,,,,,,,,,,,,,,,,,,,,30482
483,"Prakt. Arzt, Stadtarzt",Kirchengasse 2,Allentsteig,Niederösterreich,3804,,48.6964577,15.3275912,False,,,,,,,,,,,,,,,,,,,,,,,,,,,,,,,,,,,,,,,,,,,,,,,,,,,,,,,,,,,,,,,,,,,,,,,,,,,,,,,,30483
484,Praktischer Arzt / Dr. Hans Schimbach,Josef Ferschner-Straße 38,Traiskirchen,Niederösterreich,2514,,48.016842,16.2924632,False,,,,,,,,,,,,,,,,,,,,,,,,,,,,,,,,,,,,,,,,,,,,,,,,,,,,,,,,,,,,,,,,,,,,,,,,,,,,,,,,30484
485,Praktischer Arzt Dr. Franz Holzhauser,Bahnhofstraße 22,Wilhelmsburg,Niederösterreich,3150,,48.1099702,15.6072149,False,,,,,,,,,,,,,,,,,,,,,,,,,,,,,,,,,,,,,,,,,,,,,,,,,,,,,,,,,,,,,,,,,,,,,,,,,,,,,,,,30485
486,Praxis Dr. Stadler,Landstraße 11,Eugendorf,Salzburg,5301,,47.8711802,13.1196341,False,,,,,,,,,,,,,,,,,,,,,,,,,,,,,,,,,,,,,,,,,,,,,,,,,,,,,,,,,,,,,,,,,,,,,,,,,,,,,,,,30486
487,Praxis Dreibholz,Höchster Straße 27,Dornbirn,Vorarlberg,6850,+43 (0)5572 / 20 50 70,47.4106068,9.7287688,False,,,,,,,,,,,,,,,,,,,,,,,,,,,,,,,,,,,,,,,,,,,,,,,,,,,,,,,,,,,,,,,,,,,,,,,,,,,,,,,,30487
488,Praxis für Allgemeinmedizin Dr.Connert,Hochwiesenstraße 13,Köstendorf,Salzburg,5203,,47.9610712,13.2013213,False,,,,,,,,,,,,,,,,,,,,,,,,,,,,,,,,,,,,,,,,,,,,,,,,,,,,,,,,,,,,,,,,,,,,,,,,,,,,,,,,30488
489,Praxis für Ganzheitsmedizin,Hauptstraße 22,Markt Sankt Martin,Burgenland,7341,,47.5626589,16.4291344,False,,,,,,,,,,,,,,,,,,,,,,,,,,,,,,,,,,,,,,,,,,,,,,,,,,,,,,,,,,,,,,,,,,,,,,,,,,,,,,,,30489
490,Praxisgemeinschaft Dr. Ernst & Dr. Lahnsteiner - Ärzte für Allgemeinmedizin,Rosenegg 48a,Fieberbrunn,Tirol,6391,,47.4874803,12.528936,False,,,,,,,,,,,,,,,,,,,,,,,,,,,,,,,,,,,,,,,,,,,,,,,,,,,,,,,,,,,,,,,,,,,,,,,,,,,,,,,,30490
491,Praxisgemeinschaft dynamis,Eggmoarweg 965,Gröbming,Steiermark,8962,,47.4514627,13.9036869,False,,,,,,,,,,,,,,,,,,,,,,,,,,,,,,,,,,,,,,,,,,,,,,,,,,,,,,,,,,,,,,,,,,,,,,,,,,,,,,,,30491
492,Prim. Dr. Holzmann Karl,Schlossstraße 12,Reichenthal,Oberösterreich,4193,,48.5412817,14.3854799,False,,,,,,,,,,,,,,,,,,,,,,,,,,,,,,,,,,,,,,,,,,,,,,,,,,,,,,,,,,,,,,,,,,,,,,,,,,,,,,,,30492
493,Privatarzt Dr. Gosch,Goritschacher Straße 68,Wernberg,Kärnten,9241,,46.6050533,13.9552893,False,,,,,,,,,,,,,,,,,,,,,,,,,,,,,,,,,,,,,,,,,,,,,,,,,,,,,,,,,,,,,,,,,,,,,,,,,,,,,,,,30493
494,Prof. Matthäus Grasl,,Wien,Wien,1130,,48.1649739,16.2828511,False,,,,,,,,,,,,,,,,,,,,,,,,,,,,,,,,,,,,,,,,,,,,,,,,,,,,,,,,,,,,,,,,,,,,,,,,,,,,,,,,30494
495,Radiologie Roedler,Friedrich Schillerstraße 69,Mödling,Niederösterreich,2340,+43 2236 48390,48.0828066,16.2963962,False,,,,,,,,,,,,,,,,,,,,,,,,,,,,,,,,,,,,,,,,,,,,,,,,,,,,,,,,,,,,,,,,,,,,,,,,,,,,,,,,30495
496,Radiologiepraxis Dr. Schamp-Hertling,Augartengasse 14,Oberpullendorf,Burgenland,7350,,47.5025524,16.5082741,False,,,,,,,,,,,,,,,,,,,,,,,,,,,,,,,,,,,,,,,,,,,,,,,,,,,,,,,,,,,,,,,,,,,,,,,,,,,,,,,,30496
497,Refugium,Hauptplatz 10,Stadtschlaining,Burgenland,7461,,47.3236749,16.2794679,False,,,,,,,,,,,,,,,,,,,,,,,,,,,,,,,,,,,,,,,,,,,,,,,,,,,,,,,,,,,,,,,,,,,,,,,,,,,,,,,,30497
498,Rehabilitationsanstalt,Köflacher Gasse 5,Graz,Steiermark,8020,,47.0702748,15.41596,False,,,,,,,,,,,,,,,,,,,,,,,,,,,,,,,,,,,,,,,,,,,,,,,,,,,,,,,,,,,,,,,,,,,,,,,,,,,,,,,,30498
499,Reifeltshammer,,Taiskirchen im Innkreis,Oberösterreich,4753,,48.2660115,13.5788904,False,,,,,,,,,,,,,,,,,,,,,,,,,,,,,,,,,,,,,,,,,,,,,,,,,,,,,,,,,,,,,,,,,,,,,,,,,,,,,,,,30499
500,Rotes Kreuz,Hauptstraße 46,Kleinzell,Niederösterreich,3171,,47.9816743,15.738645,False,,,,,,,,,,,,,,,,,,,,,,,,,,,,,,,,,,,,,,,,,,,,,,,,,,,,,,,,,,,,,,,,,,,,,,,,,,,,,,,,30500
501,Rotes Kreuz Bezirksstelle Lungau,Josef-Ehrenreich-Straße 1,Tamsweg,Salzburg,5580,,47.1309087,13.8104647,False,,,,,,,,,,,,,,,,,,,,,,,,,,,,,,,,,,,,,,,,,,,,,,,,,,,,,,,,,,,,,,,,,,,,,,,,,,,,,,,,30501
502,Rotes Kreuz Dienstelle Böheimkirchen,Obere Hauptstraße 21,Böheimkirchen,Niederösterreich,3071,,48.1984496,15.7585322,False,,,,,,,,,,,,,,,,,,,,,,,,,,,,,,,,,,,,,,,,,,,,,,,,,,,,,,,,,,,,,,,,,,,,,,,,,,,,,,,,30502
503,Rotes Kreuz St. Michael,Rot-Kreuz-Gasse 392,Sankt Michael im Lungau,Salzburg,5582,,47.0995869,13.6372438,False,,,,,,,,,,,,,,,,,,,,,,,,,,,,,,,,,,,,,,,,,,,,,,,,,,,,,,,,,,,,,,,,,,,,,,,,,,,,,,,,30503
504,Röntgenordination Gänserndorf,Scheunengasse 34,Gänserndorf,Niederösterreich,2230,,48.3404962,16.7151836,False,,,,,,,,,,,,,,,,,,,,,,,,,,,,,,,,,,,,,,,,,,,,,,,,,,,,,,,,,,,,,,,,,,,,,,,,,,,,,,,,30504
505,Therapiezentrum für Ganzheitsmedizin,Kalksburg-Kirchenplatz 3,Wien,Wien,1230,,48.1382263,16.2443948,False,,,,,,,,,,,,,,,,,,,,,,,,,,,,,,,,,,,,,,,,,,,,,,,,,,,,,,,,,,,,,,,,,,,,,,,,,,,,,,,,30505
506,Udo Zifko,nan 52,Reichenau an der Rax,Niederösterreich,2651,,47.6758072,15.7271017,False,,,,,,,,,,,,,,,,,,,,,,,,,,,,,,,,,,,,,,,,,,,,,,,,,,,,,,,,,,,,,,,,,,,,,,,,,,,,,,,,30506
507,Univ. Doz. Dr. Alexander Kober,Markt 35,Sankt Aegyd am Neuwalde,Niederösterreich,3193,,47.8513281,15.5604574,False,,,,,,,,,,,,,,,,,,,,,,,,,,,,,,,,,,,,,,,,,,,,,,,,,,,,,,,,,,,,,,,,,,,,,,,,,,,,,,,,30507
508,Urologe Dr. Szlauer,Bahnhofstraße 12,Neumarkt am Wallersee,Salzburg,5202,,47.9493322,13.2233932,False,,,,,,,,,,,,,,,,,,,,,,,,,,,,,,,,,,,,,,,,,,,,,,,,,,,,,,,,,,,,,,,,,,,,,,,,,,,,,,,,30508
509,Vitalogikum,Saaßstraße 66,Aschach an der Steyr,Oberösterreich,4421,,48.022846,14.363739,False,,,,,,,,,,,,,,,,,,,,,,,,,,,,,,,,,,,,,,,,,,,,,,,,,,,,,,,,,,,,,,,,,,,,,,,,,,,,,,,,30509
510,privat MRT Neusiedl/See,Teichgasse 1b,Neusiedl am See,Burgenland,7100,+43 2167 / 2609,47.9512026,16.8362548,False,,,,,,,,,,,,,,,,,,,,,,,,,,,,,,,,,,,,,,,,,,,,,,,,,,,,,,,,,,,,,,,,,,,,,,,,,,,,,,,,30510
511,Ärzteforum Hallein,,Hallein,Salzburg,5400,,47.6826864,13.1003241,False,,,,,,,,,,,,,,,,,,,,,,,,,,,,,,,,,,,,,,,,,,,,,,,,,,,,,,,,,,,,,,,,,,,,,,,,,,,,,,,,30511
512,Ärztegemeinschaft Jochum - Bereuter (Kinderärzte),Walserweg 12,Bludenz,Vorarlberg,6700,,47.159419,9.819935,False,,,,,,,,,,,,,,,,,,,,,,,,,,,,,,,,,,,,,,,,,,,,,,,,,,,,,,,,,,,,,,,,,,,,,,,,,,,,,,,,30512
513,Ärztehaus,,Schärding,Oberösterreich,4780,,48.4550962,13.4311922,False,,,,,,,,,,,,,,,,,,,,,,,,,,,,,,,,,,,,,,,,,,,,,,,,,,,,,,,,,,,,,,,,,,,,,,,,,,,,,,,,30513
514,Ärztehaus,,Annaberg-Lungötz,Salzburg,5524,,47.5124707,13.430056,False,,,,,,,,,,,,,,,,,,,,,,,,,,,,,,,,,,,,,,,,,,,,,,,,,,,,,,,,,,,,,,,,,,,,,,,,,,,,,,,,30514
515,Ärztehaus - Zahnarzt Dr. Tuli - Prakt. Arzt Dr. Bellinghausen - Orthopäde Dr. Fink,,Ostermiething,Oberösterreich,5121,,48.0421884,12.8375543,False,,,,,,,,,,,,,,,,,,,,,,,,,,,,,,,,,,,,,,,,,,,,,,,,,,,,,,,,,,,,,,,,,,,,,,,,,,,,,,,,30515
516,Ärztehaus Lech,,Lech,Vorarlberg,6764,,47.2107497,10.1446139,False,,,,,,,,,,,,,,,,,,,,,,,,,,,,,,,,,,,,,,,,,,,,,,,,,,,,,,,,,,,,,,,,,,,,,,,,,,,,,,,,30516
517,Ärztehaus Leithastraße,,Wien,Wien,1200,,48.237936,16.3776351,False,,,,,,,,,,,,,,,,,,,,,,,,,,,,,,,,,,,,,,,,,,,,,,,,,,,,,,,,,,,,,,,,,,,,,,,,,,,,,,,,30517
518,Ärztehaus Oberndorf,Salzburger Strasse 79,Oberndorf bei Salzburg,Salzburg,5110,,47.9445634,12.9402129,False,,,,,,,,,,,,,,,,,,,,,,,,,,,,,,,,,,,,,,,,,,,,,,,,,,,,,,,,,,,,,,,,,,,,,,,,,,,,,,,,30518
519,Ärztezentrum,Hauptstraße 82,Laßnitzhöhe,Steiermark,8301,,47.0747423,15.5914789,False,,,,,,,,,,,,,,,,,,,,,,,,,,,,,,,,,,,,,,,,,,,,,,,,,,,,,,,,,,,,,,,,,,,,,,,,,,,,,,,,30519
520,Ärztezentrum,Anton-Riepl-Straße 4,Gallneukirchen,Oberösterreich,4210,,48.3498215,14.4126067,False,,,,,,,,,,,,,,,,,,,,,,,,,,,,,,,,,,,,,,,,,,,,,,,,,,,,,,,,,,,,,,,,,,,,,,,,,,,,,,,,30520
521,Ärztezentrum,Zur Donau 4,Traismauer,Niederösterreich,3133,,48.3512939,15.7448207,False,,,,,,,,,,,,,,,,,,,,,,,,,,,,,,,,,,,,,,,,,,,,,,,,,,,,,,,,,,,,,,,,,,,,,,,,,,,,,,,,30521
522,Ärztezentrum Bruckneudorf,Josef Schöberlgasse 1a,Bruckneudorf,Burgenland,2460,,48.0208139,16.7814264,False,,,,,,,,,,,,,,,,,,,,,,,,,,,,,,,,,,,,,,,,,,,,,,,,,,,,,,,,,,,,,,,,,,,,,,,,,,,,,,,,30522
523,Ärztezentrum Gloggnitz,Wiener Straße 5,Gloggnitz,Niederösterreich,2640,,47.6750214,15.9409721,False,,,,,,,,,,,,,,,,,,,,,,,,,,,,,,,,,,,,,,,,,,,,,,,,,,,,,,,,,,,,,,,,,,,,,,,,,,,,,,,,30523
