,USPS,ST,NAME,ZCTA5,LAT,LON
0,East Riding Of Yorkshire,ERY,Saltmarshe,DN14,53.7216,-0.8049
1,East Riding Of Yorkshire,ERY,Howden,DN14,53.7421,-0.8657
2,East Riding Of Yorkshire,ERY,Faxfleet,DN14,53.7067,-0.6939
3,East Riding Of Yorkshire,ERY,Rawcliffe,DN14,53.6833,-0.95
4,East Riding Of Yorkshire,ERY,Blacktoft,DN14,53.708,-0.7273
5,East Riding Of Yorkshire,ERY,Balkholme,DN14,53.7432,-0.8087
6,East Riding Of Yorkshire,ERY,Swinefleet,DN14,53.6921,-0.8333
7,East Riding Of Yorkshire,ERY,Adlingfleet,DN14,53.6788,-0.7231
8,East Riding Of Yorkshire,ERY,Spaldington,DN14,53.7927,-0.849
9,East Riding Of Yorkshire,ERY,Goole,DN14,53.7167,-0.8667
10,East Riding Of Yorkshire,ERY,Whitgift,DN14,53.6953,-0.7671
11,East Riding Of Yorkshire,ERY,Hook,DN14,53.7205,-0.8479
12,East Riding Of Yorkshire,ERY,Kilpin,DN14,53.7316,-0.8312
13,East Riding Of Yorkshire,ERY,Barmby on the Marsh,DN14,53.749,-0.9561
14,East Riding Of Yorkshire,ERY,Airmyn,DN14,53.7207,-0.8996
15,East Riding Of Yorkshire,ERY,Laxton,DN14,53.7167,-0.8
16,East Riding Of Yorkshire,ERY,Snaith,DN14,53.6911,-1.0286
17,East Riding Of Yorkshire,ERY,Pollington,DN14,53.6709,-1.0724
18,East Riding Of Yorkshire,ERY,Ousefleet,DN14,53.6982,-0.7409
19,East Riding Of Yorkshire,ERY,Asselby,DN14,53.7427,-0.8849
20,East Riding Of Yorkshire,ERY,Eastrington,DN14,53.7604,-0.7932
21,East Riding Of Yorkshire,ERY,Skelton,DN14,53.7167,-0.8333
22,East Riding Of Yorkshire,ERY,Gowdall,DN14,53.693,-1.0597
23,East Riding Of Yorkshire,ERY,Reedness,DN14,53.6993,-0.7986
24,East Riding Of Yorkshire,ERY,Knedlington,DN14,53.7427,-0.8849
25,East Riding Of Yorkshire,ERY,Yokefleet,DN14,53.708,-0.7574
26,East Riding Of Yorkshire,ERY,Gribthorpe,DN14,53.7125,-0.8909
27,East Riding Of Yorkshire,ERY,East Cowick,DN14,53.7125,-0.8909
28,East Riding Of Yorkshire,ERY,Old Goole,DN14,53.7125,-0.8909
29,East Riding Of Yorkshire,ERY,Rawcliffe Bridge,DN14,53.7125,-0.8909
30,East Riding Of Yorkshire,ERY,Newsholme,DN14,53.7125,-0.8909
31,East Riding Of Yorkshire,ERY,Bellasize,DN14,53.7125,-0.8909
32,East Riding Of Yorkshire,ERY,Low Eggborough,DN14,53.7125,-0.8909
33,East Riding Of Yorkshire,ERY,Kingston upon Hull,HU1,53.7446,-0.3353
34,East Riding Of Yorkshire,ERY,Willerby,HU10,53.761,-0.4419
35,East Riding Of Yorkshire,ERY,Anlaby,HU10,53.7512,-0.4417
36,East Riding Of Yorkshire,ERY,Kirk Ella,HU10,53.754,-0.4549
37,East Riding Of Yorkshire,ERY,Sigglesthorne,HU11,53.8983,-0.2438
38,East Riding Of Yorkshire,ERY,Long Riston,HU11,53.865,-0.2889
39,East Riding Of Yorkshire,ERY,Sproatley,HU11,53.7938,-0.1913
40,East Riding Of Yorkshire,ERY,Withernwick,HU11,53.8489,-0.1874
41,East Riding Of Yorkshire,ERY,Great Cowden,HU11,53.8655,-0.1348
42,East Riding Of Yorkshire,ERY,Garton,HU11,53.8003,-0.0829
43,East Riding Of Yorkshire,ERY,Aldbrough,HU11,53.8289,-0.1147
44,East Riding Of Yorkshire,ERY,Rise,HU11,53.863,-0.2463
45,East Riding Of Yorkshire,ERY,Humbleton,HU11,53.7833,-0.15
46,East Riding Of Yorkshire,ERY,Flinton,HU11,53.8078,-0.148
47,East Riding Of Yorkshire,ERY,Great Hatfield,HU11,53.8273,-0.2206
48,East Riding Of Yorkshire,ERY,Swine,HU11,53.8063,-0.2759
49,East Riding Of Yorkshire,ERY,New Ellerby,HU11,53.8273,-0.2206
50,East Riding Of Yorkshire,ERY,Ganstead,HU11,53.8273,-0.2206
51,East Riding Of Yorkshire,ERY,Seaton,HU11,53.9072,-0.2349
52,East Riding Of Yorkshire,ERY,Goxhill,HU11,53.8273,-0.2206
53,East Riding Of Yorkshire,ERY,Bilton,HU11,53.7814,-0.2406
54,East Riding Of Yorkshire,ERY,Old Ellerby,HU11,53.8273,-0.2206
55,East Riding Of Yorkshire,ERY,West Newton,HU11,53.8273,-0.2206
56,East Riding Of Yorkshire,ERY,Coniston,HU11,53.7991,-0.2462
57,East Riding Of Yorkshire,ERY,Marton,HU11,53.8273,-0.2206
58,East Riding Of Yorkshire,ERY,South Skirlaugh,HU11,53.8273,-0.2206
59,East Riding Of Yorkshire,ERY,Tunstall,HU12,53.7688,-0.0201
60,East Riding Of Yorkshire,ERY,Burstwick,HU12,53.7321,-0.1396
61,East Riding Of Yorkshire,ERY,Winestead,HU12,53.702,-0.0327
62,East Riding Of Yorkshire,ERY,Keyingham,HU12,53.7096,-0.1133
63,East Riding Of Yorkshire,ERY,Ottringham,HU12,53.7009,-0.0791
64,East Riding Of Yorkshire,ERY,Sunk Island,HU12,53.6517,-0.0841
65,East Riding Of Yorkshire,ERY,Hedon,HU12,53.7396,-0.1966
66,East Riding Of Yorkshire,ERY,Easington,HU12,53.6536,0.115
67,East Riding Of Yorkshire,ERY,Welwick,HU12,53.6682,0.0316
68,East Riding Of Yorkshire,ERY,Paull,HU12,53.7201,-0.233
69,East Riding Of Yorkshire,ERY,Thorngumbald,HU12,53.721,-0.1717
70,East Riding Of Yorkshire,ERY,Patrington,HU12,53.6839,-0.0133
71,East Riding Of Yorkshire,ERY,Halsham,HU12,53.7299,-0.0745
72,East Riding Of Yorkshire,ERY,Old Hall,HU12,53.716,-0.1398
73,East Riding Of Yorkshire,ERY,Burton Pidsea,HU12,53.7633,-0.107
74,East Riding Of Yorkshire,ERY,Skeffling,HU12,53.6536,0.0738
75,East Riding Of Yorkshire,ERY,Lelley,HU12,53.716,-0.1398
76,East Riding Of Yorkshire,ERY,Roos,HU12,53.7529,-0.0446
77,East Riding Of Yorkshire,ERY,Haven Side,HU12,53.716,-0.1398
78,East Riding Of Yorkshire,ERY,Weeton,HU12,53.7244,-0.1277
79,East Riding Of Yorkshire,ERY,Wadworth Hill,HU12,53.716,-0.1398
80,East Riding Of Yorkshire,ERY,Elstronwick,HU12,53.7695,-0.139
81,East Riding Of Yorkshire,ERY,Preston,HU12,53.7509,-0.2072
82,East Riding Of Yorkshire,ERY,Kilnsea,HU12,53.7244,-0.1277
83,East Riding Of Yorkshire,ERY,Owstwick,HU12,53.716,-0.1398
84,East Riding Of Yorkshire,ERY,Hessle,HU13,53.7245,-0.4384
85,East Riding Of Yorkshire,ERY,Swanland,HU14,53.7373,-0.4917
86,East Riding Of Yorkshire,ERY,North Ferriby,HU14,53.7212,-0.5052
87,East Riding Of Yorkshire,ERY,West Ella,HU14,53.7293,-0.4984
88,East Riding Of Yorkshire,ERY,Scalby,HU15,53.7667,-0.7167
89,East Riding Of Yorkshire,ERY,Newport,HU15,53.7633,-0.6999
90,East Riding Of Yorkshire,ERY,Broomfleet,HU15,53.7333,-0.6667
91,East Riding Of Yorkshire,ERY,Ellerker,HU15,53.7532,-0.6042
92,East Riding Of Yorkshire,ERY,Welton,HU15,53.7321,-0.5523
93,East Riding Of Yorkshire,ERY,Elloughton,HU15,53.7378,-0.5699
94,East Riding Of Yorkshire,ERY,Sandholme,HU15,53.7662,-0.7455
95,East Riding Of Yorkshire,ERY,North Cave,HU15,53.7801,-0.6497
96,East Riding Of Yorkshire,ERY,Brantingham,HU15,53.7518,-0.577
97,East Riding Of Yorkshire,ERY,South Cave,HU15,53.7699,-0.6011
98,East Riding Of Yorkshire,ERY,Everthorpe,HU15,53.7686,-0.6369
99,East Riding Of Yorkshire,ERY,Riplingham,HU15,53.7508,-0.6477
100,East Riding Of Yorkshire,ERY,Staddlethorpe,HU15,53.7439,-0.7324
101,East Riding Of Yorkshire,ERY,Brough,HU15,53.7481,-0.6189
102,East Riding Of Yorkshire,ERY,Gilberdyke,HU15,53.7439,-0.7324
103,East Riding Of Yorkshire,ERY,Cottingham,HU16,53.7806,-0.4154
104,East Riding Of Yorkshire,ERY,Skidby,HU16,53.7892,-0.4613
105,East Riding Of Yorkshire,ERY,Eppleworth,HU16,53.7849,-0.4384
106,East Riding Of Yorkshire,ERY,Routh,HU17,53.8696,-0.3438
107,East Riding Of Yorkshire,ERY,Leven,HU17,53.8833,-0.3167
108,East Riding Of Yorkshire,ERY,Bishop Burton,HU17,53.8456,-0.4981
109,East Riding Of Yorkshire,ERY,Walkington,HU17,53.8195,-0.4896
110,East Riding Of Yorkshire,ERY,Tickton,HU17,53.8623,-0.3833
111,East Riding Of Yorkshire,ERY,Etton,HU17,53.8667,-0.5167
112,East Riding Of Yorkshire,ERY,Cherry Burton,HU17,53.8667,-0.5
113,East Riding Of Yorkshire,ERY,Leconfield,HU17,53.8773,-0.4573
114,East Riding Of Yorkshire,ERY,Beverley,HU17,53.8459,-0.4233
115,East Riding Of Yorkshire,ERY,Arram,HU17,53.8846,-0.4269
116,East Riding Of Yorkshire,ERY,Catwick,HU17,53.8921,-0.2782
117,East Riding Of Yorkshire,ERY,South Dalton,HU17,53.8955,-0.5301
118,East Riding Of Yorkshire,ERY,Holme on the Wolds,HU17,53.8622,-0.4318
119,East Riding Of Yorkshire,ERY,Bentley,HU17,53.8471,-0.4278
120,East Riding Of Yorkshire,ERY,Moles-croft,HU17,53.8622,-0.4318
121,East Riding Of Yorkshire,ERY,Thearne,HU17,53.8622,-0.4318
122,East Riding Of Yorkshire,ERY,Gardham,HU17,53.8622,-0.4318
123,East Riding Of Yorkshire,ERY,Woodmansey,HU17,53.8284,-0.4227
124,East Riding Of Yorkshire,ERY,Little Catwick,HU17,53.8622,-0.4318
125,East Riding Of Yorkshire,ERY,Hornsea,HU18,53.9104,-0.1681
126,East Riding Of Yorkshire,ERY,Mappleton,HU18,53.8769,-0.1366
127,East Riding Of Yorkshire,ERY,Rolston,HU18,53.8936,-0.1523
128,East Riding Of Yorkshire,ERY,Waxholme,HU19,53.7411,0.0089
129,East Riding Of Yorkshire,ERY,Withernsea,HU19,53.7311,0.0335
130,East Riding Of Yorkshire,ERY,Hollym,HU19,53.704,0.0401
131,East Riding Of Yorkshire,ERY,Out Newton,HU19,53.6757,0.0906
132,East Riding Of Yorkshire,ERY,Holmpton,HU19,53.6877,0.0658
133,East Riding Of Yorkshire,ERY,Rimswell,HU19,53.7232,0.0346
134,East Riding Of Yorkshire,ERY,Hull,HU2,53.7446,-0.3353
135,East Riding Of Yorkshire,ERY,Little Weighton,HU20,53.7902,-0.5068
136,East Riding Of Yorkshire,ERY,Rowley,HU20,53.7902,-0.5068
137,East Riding Of Yorkshire,ERY,Hull,HU3,53.7446,-0.3353
138,East Riding Of Yorkshire,ERY,Hull,HU4,53.7446,-0.3353
139,East Riding Of Yorkshire,ERY,Hull,HU5,53.7603,-0.3758
140,East Riding Of Yorkshire,ERY,Dunswell,HU6,53.8011,-0.3714
141,East Riding Of Yorkshire,ERY,Sutton-on-Hull,HU7,53.7799,-0.305
142,East Riding Of Yorkshire,ERY,Wawne,HU7,53.8171,-0.3484
143,East Riding Of Yorkshire,ERY,Stoneferry,HU7,53.7985,-0.3267
144,East Riding Of Yorkshire,ERY,Hull,HU8,53.7693,-0.2998
145,East Riding Of Yorkshire,ERY,Marfleet,HU9,53.7495,-0.2726
146,East Riding Of Yorkshire,ERY,Bempton,YO15,54.1304,-0.1785
147,East Riding Of Yorkshire,ERY,Fraisthorpe,YO15,54.0365,-0.2413
148,East Riding Of Yorkshire,ERY,Flamborough,YO15,54.1149,-0.1227
149,East Riding Of Yorkshire,ERY,Buckton,YO15,54.0939,-0.1808
150,East Riding Of Yorkshire,ERY,Hilderthorpe,YO15,54.0939,-0.1808
151,East Riding Of Yorkshire,ERY,Sewerby,YO15,54.0939,-0.1808
152,East Riding Of Yorkshire,ERY,Grindale,YO16,54.1245,-0.2736
153,East Riding Of Yorkshire,ERY,Bessingby,YO16,54.0763,-0.2302
154,East Riding Of Yorkshire,ERY,Carnaby,YO16,54.0726,-0.2493
155,East Riding Of Yorkshire,ERY,Boynton,YO16,54.0975,-0.2648
156,East Riding Of Yorkshire,ERY,Bridlington,YO16,54.0831,-0.1919
157,East Riding Of Yorkshire,ERY,Garton-on-the-Wolds,YO25,54.021,-0.5028
158,East Riding Of Yorkshire,ERY,Beswick,YO25,53.9326,-0.4809
159,East Riding Of Yorkshire,ERY,Foston on the Wolds,YO25,53.9822,-0.328
160,East Riding Of Yorkshire,ERY,Burshill,YO25,53.9167,-0.3333
161,East Riding Of Yorkshire,ERY,Lund,YO25,53.9192,-0.5221
162,East Riding Of Yorkshire,ERY,Rudston,YO25,54.0909,-0.3282
163,East Riding Of Yorkshire,ERY,Lissett,YO25,54.0053,-0.2516
164,East Riding Of Yorkshire,ERY,Skipsea,YO25,53.9767,-0.2208
165,East Riding Of Yorkshire,ERY,Fimber,YO25,54.0333,-0.633
166,East Riding Of Yorkshire,ERY,Nafferton,YO25,54.0196,-0.3919
167,East Riding Of Yorkshire,ERY,Sledmere,YO25,54.0714,-0.5766
168,East Riding Of Yorkshire,ERY,Wold Newton,YO25,54.1333,-0.4
169,East Riding Of Yorkshire,ERY,North Dalton,YO25,53.9572,-0.5759
170,East Riding Of Yorkshire,ERY,Kilnwick,YO25,53.9326,-0.4809
171,East Riding Of Yorkshire,ERY,Barmston,YO25,54.0141,-0.2286
172,East Riding Of Yorkshire,ERY,Atwick,YO25,53.9401,-0.189
173,East Riding Of Yorkshire,ERY,Dunnington,YO25,53.95,-0.25
174,East Riding Of Yorkshire,ERY,Beeford,YO25,53.97,-0.2891
175,East Riding Of Yorkshire,ERY,Middleton-on-the-Wolds,YO25,53.9335,-0.5609
176,East Riding Of Yorkshire,ERY,Ruston Parva,YO25,54.0437,-0.3778
177,East Riding Of Yorkshire,ERY,Lowthorpe,YO25,54.0283,-0.3496
178,East Riding Of Yorkshire,ERY,Kilham,YO25,54.05,-0.3667
179,East Riding Of Yorkshire,ERY,Harpham,YO25,54.039,-0.3269
180,East Riding Of Yorkshire,ERY,Fridaythorpe,YO25,54.0201,-0.6653
181,East Riding Of Yorkshire,ERY,Wetwang,YO25,54.0175,-0.5774
182,East Riding Of Yorkshire,ERY,Brigham,YO25,53.9667,-0.35
183,East Riding Of Yorkshire,ERY,Ulrome,YO25,53.992,-0.2297
184,East Riding Of Yorkshire,ERY,Watton,YO25,53.9333,-0.45
185,East Riding Of Yorkshire,ERY,Skerne,YO25,53.9836,-0.4069
186,East Riding Of Yorkshire,ERY,Thwing,YO25,54.1155,-0.3895
187,East Riding Of Yorkshire,ERY,Fordon,YO25,54.15,-0.3833
188,East Riding Of Yorkshire,ERY,Lockington,YO25,53.9141,-0.4857
189,East Riding Of Yorkshire,ERY,Bewholme,YO25,53.9331,-0.2266
190,East Riding Of Yorkshire,ERY,Brandesburton,YO25,53.9111,-0.3012
191,East Riding Of Yorkshire,ERY,Bainton,YO25,53.95,-0.5333
192,East Riding Of Yorkshire,ERY,Burton Fleming,YO25,54.1356,-0.3409
193,East Riding Of Yorkshire,ERY,Kirkburn,YO25,53.9834,-0.504
194,East Riding Of Yorkshire,ERY,Hutton Cranswick,YO25,53.9512,-0.3783
195,East Riding Of Yorkshire,ERY,Towthorpe,YO25,53.9377,-0.4425
196,East Riding Of Yorkshire,ERY,Little Driffield,YO25,54.0022,-0.4661
197,East Riding Of Yorkshire,ERY,Tibthorpe,YO25,53.9866,-0.5369
198,East Riding Of Yorkshire,ERY,Wansford,YO25,53.9947,-0.3815
199,East Riding Of Yorkshire,ERY,Burton Agnes,YO25,54.0514,-0.3156
200,East Riding Of Yorkshire,ERY,Thornholme,YO25,53.9377,-0.4425
201,East Riding Of Yorkshire,ERY,Rotsea,YO25,53.9512,-0.3783
202,East Riding Of Yorkshire,ERY,Southburn,YO25,53.9762,-0.4927
203,East Riding Of Yorkshire,ERY,Swaythorpe,YO25,53.9377,-0.4425
204,East Riding Of Yorkshire,ERY,North Frodingham,YO25,53.9595,-0.3239
205,East Riding Of Yorkshire,ERY,Langtoft,YO25,54.0883,-0.4583
206,East Riding Of Yorkshire,ERY,Little Burton,YO25,53.9377,-0.4425
207,East Riding Of Yorkshire,ERY,Church End,YO25,54.0044,-0.4154
208,East Riding Of Yorkshire,ERY,Thorpe,YO25,54.0044,-0.4154
209,East Riding Of Yorkshire,ERY,Old Sunderlandwick,YO25,53.9377,-0.4425
210,East Riding Of Yorkshire,ERY,Great Kelk,YO25,53.9377,-0.4425
211,East Riding Of Yorkshire,ERY,Scorborough,YO25,54.0044,-0.4154
212,East Riding Of Yorkshire,ERY,Hempholme,YO25,53.9377,-0.4425
213,East Riding Of Yorkshire,ERY,Cottam,YO25,54.0732,-0.5082
214,East Riding Of Yorkshire,ERY,Great Driffield,YO25,53.9377,-0.4425
215,East Riding Of Yorkshire,ERY,Elmswell,YO25,53.9377,-0.4425
216,East Riding Of Yorkshire,ERY,Kelleythorpe,YO25,53.9377,-0.4425
217,East Riding Of Yorkshire,ERY,West End,YO25,53.9377,-0.4425
218,East Riding Of Yorkshire,ERY,Gransmoor,YO25,53.9377,-0.4425
219,East Riding Of Yorkshire,ERY,Octon,YO25,53.9377,-0.4425
220,East Riding Of Yorkshire,ERY,Haisthorpe,YO25,53.9377,-0.4425
221,East Riding Of Yorkshire,ERY,Gembling,YO25,53.9377,-0.4425
222,East Riding Of Yorkshire,ERY,Eastburn,YO25,53.9377,-0.4425
223,East Riding Of Yorkshire,ERY,Cowlam Manor,YO25,53.9377,-0.4425
224,East Riding Of Yorkshire,ERY,Aike,YO25,53.9377,-0.4425
225,East Riding Of Yorkshire,ERY,Wilberfoss,YO41,53.9485,-0.8895
226,East Riding Of Yorkshire,ERY,Helmsley,YO41,53.9697,-0.9024
227,East Riding Of Yorkshire,ERY,Skirpenbeck,YO41,54.0039,-0.8621
228,East Riding Of Yorkshire,ERY,Huggate,YO42,53.9855,-0.6567
229,East Riding Of Yorkshire,ERY,Barmby Moor,YO42,53.9308,-0.8152
230,East Riding Of Yorkshire,ERY,Meltonby,YO42,53.9185,-0.7737
231,East Riding Of Yorkshire,ERY,Hayton,YO42,53.9,-0.75
232,East Riding Of Yorkshire,ERY,Laytham,YO42,53.9185,-0.7737
233,East Riding Of Yorkshire,ERY,Pocklington,YO42,53.9334,-0.7811
234,East Riding Of Yorkshire,ERY,Storwood,YO42,53.9185,-0.7737
235,East Riding Of Yorkshire,ERY,Everingham,YO42,53.8738,-0.7802
236,East Riding Of Yorkshire,ERY,Melbourne,YO42,53.8875,-0.8593
237,East Riding Of Yorkshire,ERY,Bielby,YO42,53.8842,-0.7975
238,East Riding Of Yorkshire,ERY,North Newbald,YO43,53.8167,-0.6167
239,East Riding Of Yorkshire,ERY,Hotham,YO43,53.7958,-0.6425
240,East Riding Of Yorkshire,ERY,Shiptonthorpe,YO43,53.8252,-0.6414
241,East Riding Of Yorkshire,ERY,Market Weighton,YO43,53.8631,-0.6651
242,East Riding Of Yorkshire,ERY,Holme-on-Spalding-Moor,YO43,53.8252,-0.6414
243,East Riding Of Yorkshire,ERY,Foggathorpe,YO8,53.8294,-0.8554
244,East Riding Of Yorkshire,ERY,Wressle,YO8,53.7737,-0.9247
245,East Riding Of Yorkshire,ERY,Breighton,YO8,53.7969,-0.9241
246,East Riding Of Yorkshire,ERY,Bubwith,YO8,53.819,-0.9197
247,East Riding Of Yorkshire,ERY,Highfield,YO8,53.8179,-0.9011
248,Rutland,RUT,Clipsham,LE15,52.7361,-0.5655
249,Rutland,RUT,Upper Hambleton,LE15,52.6585,-0.6698
250,Rutland,RUT,Edith Weston,LE15,52.6379,-0.6319
251,Rutland,RUT,North Luffenham,LE15,52.6211,-0.6199
252,Rutland,RUT,Greetham,LE15,52.7206,-0.6307
253,Rutland,RUT,Oakham,LE15,52.6667,-0.7333
254,Rutland,RUT,Empingham,LE15,52.6672,-0.596
255,Rutland,RUT,Cottesmore,LE15,52.7138,-0.6633
256,Rutland,RUT,Ridlington,LE15,52.6134,-0.756
257,Rutland,RUT,Uppingham,LE15,52.588,-0.7227
258,Rutland,RUT,Morcott,LE15,52.5967,-0.637
259,Rutland,RUT,Seaton,LE15,52.5749,-0.6676
260,Rutland,RUT,Thistleton,LE15,52.7514,-0.6484
261,Rutland,RUT,Burley,LE15,52.6851,-0.6961
262,Rutland,RUT,Manton,LE15,52.6322,-0.7004
263,Rutland,RUT,Langham,LE15,52.6915,-0.7539
264,Rutland,RUT,Market Overton,LE15,52.7381,-0.6863
265,Rutland,RUT,Exton,LE15,52.6911,-0.6346
266,Rutland,RUT,Wing,LE15,52.6177,-0.6827
267,Rutland,RUT,South Luffenham,LE15,52.6086,-0.6123
268,Rutland,RUT,Lyddington,LE15,52.5646,-0.7107
269,Rutland,RUT,Braunston,LE15,52.6517,-0.7689
270,Rutland,RUT,Barrowden,LE15,52.5903,-0.6024
271,Rutland,RUT,Brooke,LE15,52.6432,-0.7464
272,Rutland,RUT,Wardley,LE15,52.5934,-0.7721
273,Rutland,RUT,Belton,LE15,52.6019,-0.795
274,Rutland,RUT,Pilton,LE15,52.6164,-0.6504
275,Rutland,RUT,Ashwell,LE15,52.714,-0.7192
276,Rutland,RUT,Egleton,LE15,52.6572,-0.7068
277,Rutland,RUT,Thorpe by Water,LE15,52.6377,-0.7436
278,Rutland,RUT,Cold Overton,LE15,52.6377,-0.7436
279,Rutland,RUT,Whitwell,LE15,52.6678,-0.6343
280,Rutland,RUT,Stretton,LE15,52.7396,-0.5937
281,Rutland,RUT,Preston,LE15,52.6125,-0.7143
282,Rutland,RUT,Normanton,LE15,52.646,-0.6203
283,Rutland,RUT,Barrow,LE15,52.7262,-0.6801
284,Rutland,RUT,Ayston,LE15,52.6005,-0.7299
285,Rutland,RUT,Marefield,LE15,52.6561,-0.7007
286,Rutland,RUT,Barleythorpe,LE15,52.6791,-0.742
287,Rutland,RUT,Whissendine,LE15,52.7187,-0.7786
288,Rutland,RUT,Teigh,LE15,52.7351,-0.7242
289,Rutland,RUT,Stoke Dry,LE15,52.5637,-0.738
290,Rutland,RUT,Lyndon,LE15,52.6294,-0.6574
291,Rutland,RUT,Glaston,LE15,52.5949,-0.6762
292,Rutland,RUT,Bisbrooke,LE15,52.5869,-0.696
293,Rutland,RUT,Ketton,PE9,52.628,-0.5546
294,Rutland,RUT,Ryhall,PE9,52.6859,-0.4685
295,Rutland,RUT,Essendine,PE9,52.7019,-0.4525
296,Rutland,RUT,Tinwell,PE9,52.6463,-0.515
297,Rutland,RUT,Pickworth,PE9,52.7131,-0.5332
298,Rutland,RUT,Tickencote,PE9,52.675,-0.537
299,Rutland,RUT,Great Casterton,PE9,52.6736,-0.5209
300,Rutland,RUT,Little Casterton,PE9,52.6714,-0.5021
301,Rutland,RUT,Tixover,PE9,52.5996,-0.5568
302,Shropshire,SHR,Woore,CW3,52.977,-2.4024
303,Shropshire,SHR,Kinlet,DY12,52.4197,-2.4146
304,Shropshire,SHR,Cleobury Mortimer,DY14,52.3785,-2.482
305,Shropshire,SHR,Farlow,DY14,52.4225,-2.5301
306,Shropshire,SHR,Silvington,DY14,52.4167,-2.5667
307,Shropshire,SHR,Neen Savage,DY14,52.3932,-2.4792
308,Shropshire,SHR,Stottesdon,DY14,52.4361,-2.4808
309,Shropshire,SHR,Milson,DY14,52.355,-2.5296
310,Shropshire,SHR,Neen Sollars,DY14,52.3467,-2.498
311,Shropshire,SHR,Doddington,DY14,52.3805,-2.4665
312,Shropshire,SHR,Hopton Wafers,DY14,52.3922,-2.5496
313,Shropshire,SHR,Llanfair Waterdine,LD7,52.3833,-3.1167
314,Shropshire,SHR,Quabbs,LD7,52.4105,-3.0078
315,Shropshire,SHR,Five Turnings,LD7,52.4105,-3.0078
316,Shropshire,SHR,Milebrook,LD7,52.4105,-3.0078
317,Shropshire,SHR,Dutlas,LD7,52.4105,-3.0078
318,Shropshire,SHR,Panpunton,LD7,52.4105,-3.0078
319,Shropshire,SHR,Lloyney,LD7,52.4105,-3.0078
320,Shropshire,SHR,Pilleth,LD7,52.4105,-3.0078
321,Shropshire,SHR,Rhos-y-Meirch,LD7,52.4105,-3.0078
322,Shropshire,SHR,Stowe,LD7,52.3522,-3.0334
323,Shropshire,SHR,Shrewsbury,SY1,52.7101,-2.7521
324,Shropshire,SHR,Battlefield,SY1,52.7234,-2.7415
325,Shropshire,SHR,Selattyn,SY10,52.9,-3.0833
326,Shropshire,SHR,Rhydycroesau,SY10,52.8676,-3.1203
327,Shropshire,SHR,Llynclys,SY10,52.8097,-3.0661
328,Shropshire,SHR,Ball,SY10,52.8167,-3.0333
329,Shropshire,SHR,Maesbury Marsh,SY10,52.8167,-3.0167
330,Shropshire,SHR,Pant,SY10,52.7833,-3.0667
331,Shropshire,SHR,Trefonen,SY10,52.8333,-3.1
332,Shropshire,SHR,Knockin,SY10,52.7965,-2.9967
333,Shropshire,SHR,Llanyblodwel,SY10,52.7991,-3.1252
334,Shropshire,SHR,Gobowen,SY10,52.8961,-3.0369
335,Shropshire,SHR,Kinnerley,SY10,52.7839,-2.9855
336,Shropshire,SHR,Llawnt,SY10,52.8394,-3.1236
337,Shropshire,SHR,Lledrod,SY10,52.8394,-3.1236
338,Shropshire,SHR,Morda,SY10,52.8394,-3.1236
339,Shropshire,SHR,Nantmawr,SY10,52.8394,-3.1236
340,Shropshire,SHR,Treflach,SY10,52.8394,-3.1236
341,Shropshire,SHR,Craignant,SY10,52.8394,-3.1236
342,Shropshire,SHR,Crickheath,SY10,52.8394,-3.1236
343,Shropshire,SHR,Alltforgan,SY10,52.8394,-3.1236
344,Shropshire,SHR,Bwlch-y-ddar,SY10,52.8394,-3.1236
345,Shropshire,SHR,Edgerley,SY10,52.8394,-3.1236
346,Shropshire,SHR,Weston Rhyn,SY10,52.9155,-3.0673
347,Shropshire,SHR,Woolston,SY10,52.8394,-3.1236
348,Shropshire,SHR,Abertridwr,SY10,52.8394,-3.1236
349,Shropshire,SHR,Cefn-coch,SY10,52.8394,-3.1236
350,Shropshire,SHR,Tan-y-pistyll,SY10,52.8394,-3.1236
351,Shropshire,SHR,Tyn-y-ffridd,SY10,52.8394,-3.1236
352,Shropshire,SHR,Preesgweene,SY10,52.8394,-3.1236
353,Shropshire,SHR,Penygarnedd,SY10,52.8394,-3.1236
354,Shropshire,SHR,Penisarcwn,SY10,52.8394,-3.1236
355,Shropshire,SHR,Pencraig,SY10,52.8394,-3.1236
356,Shropshire,SHR,Hengoed,SY10,52.8394,-3.1236
357,Shropshire,SHR,Morton,SY10,52.8394,-3.1236
358,Shropshire,SHR,Cedig,SY10,52.8394,-3.1236
359,Shropshire,SHR,Porth-y-waen,SY10,52.8394,-3.1236
360,Shropshire,SHR,Pentre,SY10,52.8394,-3.1236
361,Shropshire,SHR,Rhiwargor,SY10,52.8394,-3.1236
362,Shropshire,SHR,Rhewl,SY10,52.8394,-3.1236
363,Shropshire,SHR,Rhiwlas,SY10,52.8394,-3.1236
364,Shropshire,SHR,Pentrefelin,SY10,52.8394,-3.1236
365,Shropshire,SHR,Brogyntyn,SY10,52.8394,-3.1236
366,Shropshire,SHR,Croesau Bach,SY10,52.8394,-3.1236
367,Shropshire,SHR,Dovaston,SY10,52.8394,-3.1236
368,Shropshire,SHR,Moelfre,SY10,52.8394,-3.1236
369,Shropshire,SHR,Eardiston,SY11,52.8167,-2.9333
370,Shropshire,SHR,Rednal,SY11,52.8486,-2.9475
371,Shropshire,SHR,Haughton,SY11,52.8388,-2.9359
372,Shropshire,SHR,Whittington,SY11,52.8667,-3
373,Shropshire,SHR,Oswestry,SY11,52.8619,-3.055
374,Shropshire,SHR,Ifton Heath,SY11,52.9254,-3.0062
375,Shropshire,SHR,West Felton,SY11,52.8249,-2.9735
376,Shropshire,SHR,St Martin's,SY11,52.8054,-2.9458
377,Shropshire,SHR,Hindford,SY11,52.8904,-2.9913
378,Shropshire,SHR,Queen's Head,SY11,52.8054,-2.9458
379,Shropshire,SHR,Street Dinas,SY11,52.8054,-2.9458
380,Shropshire,SHR,Rhyn,SY11,52.8054,-2.9458
381,Shropshire,SHR,Middleton,SY11,52.8695,-3.0318
382,Shropshire,SHR,New Marton,SY11,52.8054,-2.9458
383,Shropshire,SHR,Grimpo,SY11,52.8054,-2.9458
384,Shropshire,SHR,Babbinswood,SY11,52.8054,-2.9458
385,Shropshire,SHR,Welsh Frankton,SY11,52.8054,-2.9458
386,Shropshire,SHR,Weirbrook,SY11,52.8054,-2.9458
387,Shropshire,SHR,Ellesmere,SY12,52.9167,-2.8833
388,Shropshire,SHR,Cockshutt,SY12,52.8568,-2.8409
389,Shropshire,SHR,Colemere,SY12,52.8893,-2.8429
390,Shropshire,SHR,Welshampton,SY12,52.9099,-2.8385
391,Shropshire,SHR,Dudleston Heath,SY12,52.8888,-2.8656
392,Shropshire,SHR,Tetchill,SY12,52.8888,-2.8656
393,Shropshire,SHR,Lower Hordley,SY12,52.8888,-2.8656
394,Shropshire,SHR,Perthy,SY12,52.8888,-2.8656
395,Shropshire,SHR,Lee,SY12,52.8888,-2.8656
396,Shropshire,SHR,English Frankton,SY12,52.8888,-2.8656
397,Shropshire,SHR,Lyneal,SY12,52.8888,-2.8656
398,Shropshire,SHR,Sodylt Bank,SY12,52.8888,-2.8656
399,Shropshire,SHR,Elson,SY12,52.8888,-2.8656
400,Shropshire,SHR,Hordley,SY12,52.8511,-2.8975
401,Shropshire,SHR,Kenwick,SY12,52.8888,-2.8656
402,Shropshire,SHR,Bagley,SY12,52.8888,-2.8656
403,Shropshire,SHR,Whitchurch,SY13,52.9667,-2.6833
404,Shropshire,SHR,Prees,SY13,52.8969,-2.664
405,Shropshire,SHR,Tilstock,SY13,52.9356,-2.6838
406,Shropshire,SHR,Broughall,SY13,52.9441,-2.6649
407,Shropshire,SHR,Fauls,SY13,52.8904,-2.6129
408,Shropshire,SHR,Ightfield,SY13,52.9413,-2.6058
409,Shropshire,SHR,Whixall,SY13,52.9054,-2.721
410,Shropshire,SHR,Calverhall,SY13,52.9441,-2.6649
411,Shropshire,SHR,Marley Green,SY13,52.9441,-2.6649
412,Shropshire,SHR,Prees Higher Heath,SY13,52.9441,-2.6649
413,Shropshire,SHR,Platt Lane,SY13,52.9441,-2.6649
414,Shropshire,SHR,Edgeley,SY13,52.9441,-2.6649
415,Shropshire,SHR,Alkington,SY13,52.9441,-2.6649
416,Shropshire,SHR,Prees Green,SY13,52.9523,-2.6903
417,Shropshire,SHR,Millenheath,SY13,52.9441,-2.6649
418,Shropshire,SHR,Eglwys Cross,SY13,52.9441,-2.6649
419,Shropshire,SHR,Horseman's Green,SY13,52.9441,-2.6649
420,Shropshire,SHR,The Chequer,SY13,52.9441,-2.6649
421,Shropshire,SHR,Wilkesley,SY13,52.9441,-2.6649
422,Shropshire,SHR,Arowry,SY13,52.9441,-2.6649
423,Shropshire,SHR,Bronington,SY13,52.9441,-2.6649
424,Shropshire,SHR,Burleydam,SY13,52.9441,-2.6649
425,Shropshire,SHR,Darliston,SY13,52.9441,-2.6649
426,Shropshire,SHR,Welsh End,SY13,52.9441,-2.6649
427,Shropshire,SHR,Ash Magna,SY13,52.9441,-2.6649
428,Shropshire,SHR,Hollinwood,SY13,52.9523,-2.6903
429,Shropshire,SHR,Chirbury,SY15,52.5783,-3.0903
430,Shropshire,SHR,Sutton,SY2,52.7065,-2.7295
431,Shropshire,SHR,Marton,SY21,52.6167,-3.05
432,Shropshire,SHR,Meole Brace,SY3,52.6872,-2.7561
433,Shropshire,SHR,Bayston Hill,SY3,52.6755,-2.7616
434,Shropshire,SHR,Bicton,SY3,52.7333,-2.8167
435,Shropshire,SHR,Great Lyth,SY3,52.699,-2.7725
436,Shropshire,SHR,Shelton,SY3,52.699,-2.7725
437,Shropshire,SHR,Bicton Heath,SY3,52.699,-2.7725
438,Shropshire,SHR,The Isle,SY3,52.699,-2.7725
439,Shropshire,SHR,Astley,SY4,52.7667,-2.7
440,Shropshire,SHR,Tilley,SY4,52.8333,-2.7333
441,Shropshire,SHR,Petton,SY4,52.8333,-2.8333
442,Shropshire,SHR,Lee Brockhurst,SY4,52.8399,-2.6737
443,Shropshire,SHR,Moreton Corbet,SY4,52.8058,-2.657
444,Shropshire,SHR,Baschurch,SY4,52.7885,-2.8528
445,Shropshire,SHR,Hadnall,SY4,52.7738,-2.71
446,Shropshire,SHR,Albrighton,SY4,52.75,-2.75
447,Shropshire,SHR,Wem,SY4,52.8584,-2.7183
448,Shropshire,SHR,Weston,SY4,52.8547,-2.647
449,Shropshire,SHR,Preston Gubbals,SY4,52.7721,-2.7531
450,Shropshire,SHR,Burlton,SY4,52.829,-2.8067
451,Shropshire,SHR,Myddle,SY4,52.8102,-2.789
452,Shropshire,SHR,Shrawardine,SY4,52.732,-2.8904
453,Shropshire,SHR,Little Ness,SY4,52.7713,-2.8796
454,Shropshire,SHR,Clive,SY4,52.8,-2.7167
455,Shropshire,SHR,Withington,SY4,52.7167,-2.6
456,Shropshire,SHR,Merrington,SY4,52.7823,-2.7847
457,Shropshire,SHR,Wilcott,SY4,52.7633,-2.9271
458,Shropshire,SHR,Leaton,SY4,52.7618,-2.7913
459,Shropshire,SHR,Great Ness,SY4,52.7638,-2.8915
460,Shropshire,SHR,Walford,SY4,52.8,-2.8333
461,Shropshire,SHR,Weston Lullingfields,SY4,52.8187,-2.8546
462,Shropshire,SHR,Stanton upon Hine Heath,SY4,52.8117,-2.6408
463,Shropshire,SHR,Haughton,SY4,52.8388,-2.9359
464,Shropshire,SHR,Montford,SY4,52.732,-2.8904
465,Shropshire,SHR,Edstaston,SY4,52.8821,-2.7167
466,Shropshire,SHR,Marchamley,SY4,52.8615,-2.6007
467,Shropshire,SHR,Rodington,SY4,52.7255,-2.61
468,Shropshire,SHR,Loppington,SY4,52.8589,-2.7875
469,Shropshire,SHR,Shawbury,SY4,52.7833,-2.65
470,Shropshire,SHR,Kinton,SY4,52.7683,-2.9336
471,Shropshire,SHR,Grinshill,SY4,52.806,-2.7118
472,Shropshire,SHR,Yorton,SY4,52.8092,-2.7385
473,Shropshire,SHR,Fitz,SY4,52.7558,-2.8195
474,Shropshire,SHR,Paddolgreen,SY4,52.691,-2.6049
475,Shropshire,SHR,Upton Magna,SY4,52.7081,-2.6604
476,Shropshire,SHR,Newtown,SY4,52.7981,-2.752
477,Shropshire,SHR,Aston,SY4,52.7981,-2.752
478,Shropshire,SHR,Forton,SY4,52.7981,-2.752
479,Shropshire,SHR,Alderton,SY4,52.7981,-2.752
480,Shropshire,SHR,Norton,SY4,52.7981,-2.752
481,Shropshire,SHR,Northwood,SY4,52.7981,-2.752
482,Shropshire,SHR,Grafton,SY4,52.7981,-2.752
483,Shropshire,SHR,Yeaton,SY4,52.691,-2.6049
484,Shropshire,SHR,Stanwardine in the Fields,SY4,52.691,-2.6049
485,Shropshire,SHR,Preston Brockhurst,SY4,52.691,-2.6049
486,Shropshire,SHR,Poynton Green,SY4,52.691,-2.6049
487,Shropshire,SHR,Harmer Hill,SY4,52.691,-2.6049
488,Shropshire,SHR,Great Wytheford,SY4,52.691,-2.6049
489,Shropshire,SHR,Nesscliffe,SY4,52.691,-2.6049
490,Shropshire,SHR,Felton Butler,SY4,52.691,-2.6049
491,Shropshire,SHR,Quina Brook,SY4,52.691,-2.6049
492,Shropshire,SHR,Noneley,SY4,52.691,-2.6049
493,Shropshire,SHR,Ensdon,SY4,52.691,-2.6049
494,Shropshire,SHR,High Hatton,SY4,52.691,-2.6049
495,Shropshire,SHR,Booley,SY4,52.691,-2.6049
496,Shropshire,SHR,Wykey,SY4,52.691,-2.6049
497,Shropshire,SHR,Myddlewood,SY4,52.691,-2.6049
498,Shropshire,SHR,Besford,SY4,52.7981,-2.752
499,Shropshire,SHR,Pentre,SY4,52.7981,-2.752
500,Shropshire,SHR,Montford Bridge,SY4,52.691,-2.6049
501,Shropshire,SHR,Edgebolton,SY4,52.691,-2.6049
502,Shropshire,SHR,Bomere Heath,SY4,52.691,-2.6049
503,Shropshire,SHR,Wolverley,SY4,52.7981,-2.752
504,Shropshire,SHR,Prescott,SY4,52.7981,-2.752
505,Shropshire,SHR,Uffington,SY4,52.7217,-2.7002
506,Shropshire,SHR,Ruyton-XI-Towns,SY4,52.7972,-2.9055
507,Shropshire,SHR,Milford,SY4,52.7981,-2.752
508,Shropshire,SHR,Westbury,SY5,52.6833,-2.95
509,Shropshire,SHR,Longnor,SY5,52.6,-2.75
510,Shropshire,SHR,Minsterley,SY5,52.6399,-2.9281
511,Shropshire,SHR,Wroxeter,SY5,52.6704,-2.6476
512,Shropshire,SHR,Pontesbury,SY5,52.6483,-2.8903
513,Shropshire,SHR,Yockleton,SY5,52.6855,-2.8892
514,Shropshire,SHR,Hughley,SY5,52.5775,-2.6433
515,Shropshire,SHR,Alberbury,SY5,52.7223,-2.9507
516,Shropshire,SHR,Pulverbatch,SY5,52.6202,-2.8443
517,Shropshire,SHR,Pitchford,SY5,52.6284,-2.6955
518,Shropshire,SHR,Atcham,SY5,52.6796,-2.6797
519,Shropshire,SHR,Acton Burnell,SY5,52.6139,-2.6947
520,Shropshire,SHR,Church Pulverbatch,SY5,52.6202,-2.8443
521,Shropshire,SHR,Habberley,SY5,52.6167,-2.8833
522,Shropshire,SHR,Shelve,SY5,52.5848,-2.9801
523,Shropshire,SHR,Berrington,SY5,52.65,-2.7
524,Shropshire,SHR,Stapleton,SY5,52.6333,-2.7833
525,Shropshire,SHR,Worthen,SY5,52.6358,-2.9951
526,Shropshire,SHR,Condover,SY5,52.6483,-2.7503
527,Shropshire,SHR,Wollaston,SY5,52.7,-3
528,Shropshire,SHR,Meadowtown,SY5,52.6042,-3.0185
529,Shropshire,SHR,Cressage,SY5,52.6336,-2.605
530,Shropshire,SHR,Great Hanwood,SY5,52.6833,-2.8167
531,Shropshire,SHR,Brockton,SY5,52.6333,-3
532,Shropshire,SHR,Harley,SY5,52.6,-2.6
533,Shropshire,SHR,Asterley,SY5,52.6576,-2.9256
534,Shropshire,SHR,Exfords Green,SY5,52.6515,-2.8327
535,Shropshire,SHR,Dorrington,SY5,52.6167,-2.7833
536,Shropshire,SHR,Ratlinghope,SY5,52.565,-2.883
537,Shropshire,SHR,Ford,SY5,52.7167,-2.85
538,Shropshire,SHR,Kenley,SY5,52.6,-2.6333
539,Shropshire,SHR,Plealey,SY5,52.6568,-2.8546
540,Shropshire,SHR,Hinton,SY5,52.6515,-2.8327
541,Shropshire,SHR,Cardeston,SY5,52.7051,-2.8969
542,Shropshire,SHR,Hope,SY5,52.6515,-2.8327
543,Shropshire,SHR,Cound,SY5,52.6401,-2.6545
544,Shropshire,SHR,Leigh,SY5,52.6515,-2.8327
545,Shropshire,SHR,Frodesley,SY5,52.6079,-2.7202
546,Shropshire,SHR,Donnington,SY5,52.6515,-2.8327
547,Shropshire,SHR,Dryton,SY5,52.6515,-2.8327
548,Shropshire,SHR,The Marsh,SY5,52.6515,-2.8327
549,Shropshire,SHR,Rowley,SY5,52.6515,-2.8327
550,Shropshire,SHR,Farley,SY5,52.6515,-2.8327
551,Shropshire,SHR,Bridges,SY5,52.6515,-2.8327
552,Shropshire,SHR,Edge,SY5,52.6515,-2.8327
553,Shropshire,SHR,Upper Cound,SY5,52.6515,-2.8327
554,Shropshire,SHR,Great Ryton,SY5,52.6515,-2.8327
555,Shropshire,SHR,Eaton Constantine,SY5,52.6515,-2.8327
556,Shropshire,SHR,Cross Houses,SY5,52.6515,-2.8327
557,Shropshire,SHR,Cantlop,SY5,52.6515,-2.8327
558,Shropshire,SHR,Black Marsh,SY5,52.6515,-2.8327
559,Shropshire,SHR,Betton,SY5,52.6515,-2.8327
560,Shropshire,SHR,Aston Rogers,SY5,52.6515,-2.8327
561,Shropshire,SHR,Acton Pigott,SY5,52.6515,-2.8327
562,Shropshire,SHR,Wrentnall,SY5,52.6515,-2.8327
563,Shropshire,SHR,Stoney Stretton,SY5,52.6515,-2.8327
564,Shropshire,SHR,Nox,SY5,52.6515,-2.8327
565,Shropshire,SHR,Crewgreen,SY5,52.6515,-2.8327
566,Shropshire,SHR,Leighton,SY5,52.6515,-2.8327
567,Shropshire,SHR,Cruckton,SY5,52.6515,-2.8327
568,Shropshire,SHR,Cruckmeole,SY5,52.6515,-2.8327
569,Shropshire,SHR,Lea,SY5,52.6515,-2.8327
570,Shropshire,SHR,Longden,SY5,52.6563,-2.8175
571,Shropshire,SHR,Sheinton,SY5,52.6309,-2.5734
572,Shropshire,SHR,Westley,SY5,52.6515,-2.8327
573,Shropshire,SHR,Perkins Beach,SY5,52.6515,-2.8327
574,Shropshire,SHR,Shoot Hill,SY5,52.6515,-2.8327
575,Shropshire,SHR,The Bog,SY5,52.6515,-2.8327
576,Shropshire,SHR,Gravels,SY5,52.6515,-2.8327
577,Shropshire,SHR,Snailbeach,SY5,52.6515,-2.8327
578,Shropshire,SHR,Pontesford,SY5,52.6515,-2.8327
579,Shropshire,SHR,Pennerley,SY5,52.6515,-2.8327
580,Shropshire,SHR,Longwood,SY5,52.6515,-2.8327
581,Shropshire,SHR,Halfway House,SY5,52.6515,-2.8327
582,Shropshire,SHR,Binweston,SY5,52.6515,-2.8327
583,Shropshire,SHR,Annscroft,SY5,52.6515,-2.8327
584,Shropshire,SHR,Vennington,SY5,52.6515,-2.8327
585,Shropshire,SHR,Stretton Heath,SY5,52.6515,-2.8327
586,Shropshire,SHR,Ruckley,SY5,52.6515,-2.8327
587,Shropshire,SHR,Ploxgreen,SY5,52.6515,-2.8327
588,Shropshire,SHR,Lower Wallop,SY5,52.6515,-2.8327
589,Shropshire,SHR,Hook-a-Gate,SY5,52.6515,-2.8327
590,Shropshire,SHR,Golding,SY5,52.6515,-2.8327
591,Shropshire,SHR,Marshbrook,SY6,52.5035,-2.8238
592,Shropshire,SHR,Acton Scott,SY6,52.501,-2.8048
593,Shropshire,SHR,Hope Bowdler,SY6,52.5274,-2.7757
594,Shropshire,SHR,Ticklerton,SY6,52.5129,-2.7615
595,Shropshire,SHR,Eaton,SY6,52.5,-2.75
596,Shropshire,SHR,Picklescott,SY6,52.5899,-2.8347
597,Shropshire,SHR,Woolstaston,SY6,52.5808,-2.81
598,Shropshire,SHR,All Stretton,SY6,52.5539,-2.7979
599,Shropshire,SHR,Rushbury,SY6,52.5226,-2.7182
600,Shropshire,SHR,Church Stretton,SY6,52.5378,-2.8015
601,Shropshire,SHR,Little Stretton,SY6,52.5167,-2.8167
602,Shropshire,SHR,Cardington,SY6,52.55,-2.7333
603,Shropshire,SHR,Leebotwood,SY6,52.5846,-2.7752
604,Shropshire,SHR,Gretton,SY6,52.5364,-2.7923
605,Shropshire,SHR,Alcaston,SY6,52.5364,-2.7923
606,Shropshire,SHR,Woolston,SY6,52.5364,-2.7923
607,Shropshire,SHR,Whittingslow,SY6,52.5364,-2.7923
608,Shropshire,SHR,Harton,SY6,52.5364,-2.7923
609,Shropshire,SHR,Hatton,SY6,52.5364,-2.7923
610,Shropshire,SHR,Church Preen,SY6,52.5775,-2.6727
611,Shropshire,SHR,Wall Bank,SY6,52.5364,-2.7923
612,Shropshire,SHR,Wall under Heywood,SY6,52.5364,-2.7923
613,Shropshire,SHR,Plaish,SY6,52.5364,-2.7923
614,Shropshire,SHR,Enchmarsh,SY6,52.5364,-2.7923
615,Shropshire,SHR,Minton,SY6,52.5364,-2.7923
616,Shropshire,SHR,Upper Affcot,SY6,52.5364,-2.7923
617,Shropshire,SHR,Lydbury North,SY7,52.4676,-2.957
618,Shropshire,SHR,Newcastle,SY7,52.4333,-3.1167
619,Shropshire,SHR,Broome,SY7,52.4167,-2.8833
620,Shropshire,SHR,Sibdon Carwood,SY7,52.443,-2.8661
621,Shropshire,SHR,Clunton,SY7,52.426,-2.9798
622,Shropshire,SHR,Clungunford,SY7,52.4039,-2.8848
623,Shropshire,SHR,Craven Arms,SY7,52.4431,-2.8356
624,Shropshire,SHR,Plowden,SY7,52.4841,-2.9152
625,Shropshire,SHR,Hoptonheath,SY7,52.3833,-2.9167
626,Shropshire,SHR,Edgton,SY7,52.4669,-2.9038
627,Shropshire,SHR,Bettws-y-crwyn,SY7,52.4333,-3.1667
628,Shropshire,SHR,Clun,SY7,52.4214,-3.0275
629,Shropshire,SHR,Horderley,SY7,52.4764,-2.8704
630,Shropshire,SHR,Clunbury,SY7,52.4187,-2.9255
631,Shropshire,SHR,Clee St Margaret,SY7,52.45,-2.65
632,Shropshire,SHR,Wistanstow,SY7,52.4647,-2.8376
633,Shropshire,SHR,Tugford,SY7,52.4806,-2.6535
634,Shropshire,SHR,Bedstone,SY7,52.3748,-2.9273
635,Shropshire,SHR,Halford,SY7,52.4467,-2.8256
636,Shropshire,SHR,Diddlebury,SY7,52.4658,-2.7325
637,Shropshire,SHR,Abdon,SY7,52.4806,-2.6535
638,Shropshire,SHR,Llwyn,SY7,52.451,-2.7599
639,Shropshire,SHR,Bucknell,SY7,52.3667,-2.95
640,Shropshire,SHR,Onibury,SY7,52.4083,-2.8031
641,Shropshire,SHR,Stokesay,SY7,52.4283,-2.83
642,Shropshire,SHR,Munslow,SY7,52.4849,-2.7057
643,Shropshire,SHR,Hopesay,SY7,52.4454,-2.8982
644,Shropshire,SHR,Kempton,SY7,52.451,-2.7599
645,Shropshire,SHR,Hopton Castle,SY7,52.3902,-2.9459
646,Shropshire,SHR,Myndtown,SY7,52.5109,-2.8973
647,Shropshire,SHR,Newton,SY7,52.4258,-2.8872
648,Shropshire,SHR,Anchor,SY7,52.4258,-2.8872
649,Shropshire,SHR,Wootton,SY7,52.4258,-2.8872
650,Shropshire,SHR,Norton,SY7,52.4258,-2.8872
651,Shropshire,SHR,Upper Heath,SY7,52.451,-2.7599
652,Shropshire,SHR,Twitchen,SY7,52.451,-2.7599
653,Shropshire,SHR,New Invention,SY7,52.451,-2.7599
654,Shropshire,SHR,Bicton,SY7,52.4258,-2.8872
655,Shropshire,SHR,Walcot,SY7,52.4258,-2.8872
656,Shropshire,SHR,Woodside,SY7,52.4258,-2.8872
657,Shropshire,SHR,Letton,SY7,52.4258,-2.8872
658,Shropshire,SHR,Brockton,SY7,52.4258,-2.8872
659,Shropshire,SHR,Asterton,SY7,52.451,-2.7599
660,Shropshire,SHR,Aston Munslow,SY7,52.451,-2.7599
661,Shropshire,SHR,Bouldon,SY7,52.451,-2.7599
662,Shropshire,SHR,Broadstone,SY7,52.451,-2.7599
663,Shropshire,SHR,Aston on Clun,SY7,52.451,-2.7599
664,Shropshire,SHR,Cheney Longville,SY7,52.451,-2.7599
665,Shropshire,SHR,Middlehope,SY7,52.451,-2.7599
666,Shropshire,SHR,Shelderton,SY7,52.451,-2.7599
667,Shropshire,SHR,Lower Dinchope,SY7,52.451,-2.7599
668,Shropshire,SHR,Obley,SY7,52.451,-2.7599
669,Shropshire,SHR,Peaton,SY7,52.451,-2.7599
670,Shropshire,SHR,Strefford,SY7,52.451,-2.7599
671,Shropshire,SHR,Vernolds Common,SY7,52.451,-2.7599
672,Shropshire,SHR,Whitcott Keysett,SY7,52.451,-2.7599
673,Shropshire,SHR,Buckton,SY7,52.451,-2.7599
674,Shropshire,SHR,Chapel Lawn,SY7,52.451,-2.7599
675,Shropshire,SHR,Hall of the Forest,SY7,52.451,-2.7599
676,Shropshire,SHR,Hobarris,SY7,52.451,-2.7599
677,Shropshire,SHR,Little Brampton,SY7,52.451,-2.7599
678,Shropshire,SHR,Lower Down,SY7,52.451,-2.7599
679,Shropshire,SHR,Purlogue,SY7,52.451,-2.7599
680,Shropshire,SHR,Walford,SY7,52.4258,-2.8872
681,Shropshire,SHR,Kinton,SY7,52.4258,-2.8872
682,Shropshire,SHR,Purslow,SY7,52.451,-2.7599
683,Shropshire,SHR,Eyton,SY7,52.4258,-2.8872
684,Shropshire,SHR,Birtley,SY7,52.451,-2.7599
685,Shropshire,SHR,Corfton,SY7,52.451,-2.7599
686,Shropshire,SHR,Westhope,SY7,52.451,-2.7599
687,Shropshire,SHR,Stanton Lacy,SY8,52.4048,-2.7426
688,Shropshire,SHR,Ashford Carbonel,SY8,52.3318,-2.6991
689,Shropshire,SHR,Culmington,SY8,52.4339,-2.7473
690,Shropshire,SHR,Coreley,SY8,52.3597,-2.5616
691,Shropshire,SHR,Bromfield,SY8,52.3833,-2.7667
692,Shropshire,SHR,Ludlow,SY8,52.3743,-2.7131
693,Shropshire,SHR,Caynham,SY8,52.3537,-2.6617
694,Shropshire,SHR,Stoke St Milborough,SY8,52.4333,-2.6333
695,Shropshire,SHR,Woofferton,SY8,52.3126,-2.7051
696,Shropshire,SHR,Hope Bagot,SY8,52.3627,-2.6049
697,Shropshire,SHR,Bitterley,SY8,52.393,-2.6449
698,Shropshire,SHR,Hopton Cangeford,SY8,52.4196,-2.6673
699,Shropshire,SHR,Siefton,SY8,52.383,-2.6942
700,Shropshire,SHR,Richard's Castle,SY8,52.3126,-2.7051
701,Shropshire,SHR,Knowbury,SY8,52.383,-2.6942
702,Shropshire,SHR,Middleton,SY8,52.3833,-2.6833
703,Shropshire,SHR,Comberton,SY8,52.3654,-2.6954
704,Shropshire,SHR,Farden,SY8,52.383,-2.6942
705,Shropshire,SHR,Aston,SY8,52.3654,-2.6954
706,Shropshire,SHR,Greete,SY8,52.3394,-2.6404
707,Shropshire,SHR,Ashford Bowdler,SY8,52.331,-2.713
708,Shropshire,SHR,Hayton's Bent,SY8,52.383,-2.6942
709,Shropshire,SHR,Downton on the Rock,SY8,52.383,-2.6942
710,Shropshire,SHR,Whitton,SY8,52.3529,-2.6243
711,Shropshire,SHR,Cleehill,SY8,52.383,-2.6942
712,Shropshire,SHR,Cleedownton,SY8,52.383,-2.6942
713,Shropshire,SHR,Lower Hayton,SY8,52.383,-2.6942
714,Shropshire,SHR,Upper Hayton,SY8,52.383,-2.6942
715,Shropshire,SHR,Nash,SY8,52.3534,-2.5843
716,Shropshire,SHR,Great Sutton,SY8,52.3654,-2.6954
717,Shropshire,SHR,Snitton,SY8,52.383,-2.6942
718,Shropshire,SHR,Overton,SY8,52.3654,-2.6954
719,Shropshire,SHR,Hints,SY8,52.383,-2.6942
720,Shropshire,SHR,Wyson,SY8,52.383,-2.6942
721,Shropshire,SHR,Knowle,SY8,52.3654,-2.6954
722,Shropshire,SHR,Ludford,SY8,52.383,-2.6942
723,Shropshire,SHR,Henley,SY8,52.383,-2.6942
724,Shropshire,SHR,Middleton on the Hill,SY8,52.3654,-2.6954
725,Shropshire,SHR,Orleton Common,SY8,52.383,-2.6942
726,Shropshire,SHR,Acton,SY9,52.45,-3.0167
727,Shropshire,SHR,Wentnor,SY9,52.5294,-2.9093
728,Shropshire,SHR,Lydham,SY9,52.5148,-2.9797
729,Shropshire,SHR,Norbury,SY9,52.5333,-2.95
730,Shropshire,SHR,More,SY9,52.5175,-2.9692
731,Shropshire,SHR,Bishop's Castle,SY9,52.4921,-3.0021
732,Shropshire,SHR,Mainstone,SY9,52.4833,-3.0833
733,Shropshire,SHR,Shrewsbury,SY99,52.7101,-2.7521
734,Shropshire,SHR,Wellington,TF1,52.7,-2.5167
735,Shropshire,SHR,Hadley,TF1,52.7,-2.4833
736,Shropshire,SHR,Arleston,TF1,52.7,-2.5
737,Shropshire,SHR,Leegomery,TF1,52.7,-2.5
738,Shropshire,SHR,Newport,TF10,52.7833,-2.3833
739,Shropshire,SHR,Forton,TF10,52.7833,-2.3667
740,Shropshire,SHR,Tibberton,TF10,52.7833,-2.4667
741,Shropshire,SHR,Lilleshall,TF10,52.7342,-2.4032
742,Shropshire,SHR,Woodcote,TF10,52.7333,-2.3333
743,Shropshire,SHR,Longford,TF10,52.7592,-2.4119
744,Shropshire,SHR,Edgmond,TF10,52.774,-2.4097
745,Shropshire,SHR,Chetwynd Aston,TF10,52.7549,-2.3676
746,Shropshire,SHR,Church Aston,TF10,52.7579,-2.3854
747,Shropshire,SHR,Sutton,TF10,52.7689,-2.3882
748,Shropshire,SHR,Beckbury,TF11,52.6121,-2.3482
749,Shropshire,SHR,Sutton Maddock,TF11,52.61,-2.4104
750,Shropshire,SHR,Sheriffhales,TF11,52.6959,-2.3582
751,Shropshire,SHR,Tong,TF11,52.6667,-2.3
752,Shropshire,SHR,Ryton,TF11,52.6167,-2.35
753,Shropshire,SHR,Shifnal,TF11,52.6704,-2.3725
754,Shropshire,SHR,Crackleybank,TF11,52.6959,-2.3582
755,Shropshire,SHR,Tong Norton,TF11,52.6306,-2.3342
756,Shropshire,SHR,Brineton,TF11,52.6306,-2.3342
757,Shropshire,SHR,Kemberton,TF11,52.6384,-2.3987
758,Shropshire,SHR,Heath Hill,TF11,52.6306,-2.3342
759,Shropshire,SHR,Stockton,TF11,52.5988,-2.3999
760,Shropshire,SHR,The Wyke,TF11,52.6306,-2.3342
761,Shropshire,SHR,Norton,TF11,52.6641,-2.3583
762,Shropshire,SHR,Weston Heath,TF11,52.6306,-2.3342
763,Shropshire,SHR,Grindle,TF11,52.6306,-2.3342
764,Shropshire,SHR,Brockton,TF11,52.6641,-2.3583
765,Shropshire,SHR,Broseley,TF12,52.6132,-2.4827
766,Shropshire,SHR,Benthall,TF12,52.6192,-2.4963
767,Shropshire,SHR,Willey,TF12,52.5833,-2.4833
768,Shropshire,SHR,Barrow,TF12,52.6032,-2.4897
769,Shropshire,SHR,Stanton Long,TF13,52.5119,-2.631
770,Shropshire,SHR,Much Wenlock,TF13,52.5958,-2.5575
771,Shropshire,SHR,Easthope,TF13,52.5533,-2.6407
772,Shropshire,SHR,Presthope,TF13,52.5727,-2.6179
773,Shropshire,SHR,Bourton,TF13,52.5667,-2.6
774,Shropshire,SHR,Longville in the Dale,TF13,52.5397,-2.6803
775,Shropshire,SHR,East Wall,TF13,52.5793,-2.5809
776,Shropshire,SHR,Stretton Westwood,TF13,52.5793,-2.5809
777,Shropshire,SHR,Shipton,TF13,52.525,-2.6452
778,Shropshire,SHR,Homer,TF13,52.5793,-2.5809
779,Shropshire,SHR,Holdgate,TF13,52.5793,-2.5809
780,Shropshire,SHR,Wyke,TF13,52.5793,-2.5809
781,Shropshire,SHR,Weston,TF13,52.5793,-2.5809
782,Shropshire,SHR,Brockton,TF13,52.5793,-2.5809
783,Shropshire,SHR,Trench,TF2,52.7167,-2.4667
784,Shropshire,SHR,Oakengates,TF2,52.695,-2.4504
785,Shropshire,SHR,Redhill,TF2,52.7041,-2.4402
786,Shropshire,SHR,Donnington,TF2,52.7041,-2.4402
787,Shropshire,SHR,Telford,TF3,52.6766,-2.4493
788,Shropshire,SHR,Stirchley,TF3,52.6766,-2.4493
789,Shropshire,SHR,Hollinswood,TF3,52.6766,-2.4493
790,Shropshire,SHR,Oldpark,TF3,52.6766,-2.4493
791,Shropshire,SHR,Horsehay,TF4,52.6589,-2.4886
792,Shropshire,SHR,Lawley,TF4,52.6833,-2.4833
793,Shropshire,SHR,Dawley,TF4,52.6649,-2.4674
794,Shropshire,SHR,Admaston,TF5,52.7167,-2.55
795,Shropshire,SHR,Little Wenlock,TF6,52.6799,-2.5369
796,Shropshire,SHR,Walcot,TF6,52.7,-2.6
797,Shropshire,SHR,Great Bolas,TF6,52.7891,-2.5223
798,Shropshire,SHR,Wrockwardine,TF6,52.7045,-2.5568
799,Shropshire,SHR,Cherrington,TF6,52.7763,-2.4964
800,Shropshire,SHR,Eyton upon the Weald Moors,TF6,52.7333,-2.5167
801,Shropshire,SHR,Rowton,TF6,52.7667,-2.5833
802,Shropshire,SHR,High Ercall,TF6,52.7541,-2.6024
803,Shropshire,SHR,Crudgington,TF6,52.7592,-2.5491
804,Shropshire,SHR,Preston upon the Weald Moors,TF6,52.7357,-2.4732
805,Shropshire,SHR,Uppington,TF6,52.6704,-2.6476
806,Shropshire,SHR,Aston,TF6,52.7365,-2.5555
807,Shropshire,SHR,Muckleton,TF6,52.7365,-2.5555
808,Shropshire,SHR,Poynton,TF6,52.7365,-2.5555
809,Shropshire,SHR,Roden,TF6,52.7365,-2.5555
810,Shropshire,SHR,Kynnersley,TF6,52.7501,-2.4928
811,Shropshire,SHR,Rushton,TF6,52.7365,-2.5555
812,Shropshire,SHR,Walton,TF6,52.7365,-2.5555
813,Shropshire,SHR,Long Waste,TF6,52.7365,-2.5555
814,Shropshire,SHR,Longdon upon Tern,TF6,52.7365,-2.5555
815,Shropshire,SHR,Rushmoor,TF6,52.7365,-2.5555
816,Shropshire,SHR,Isombridge,TF6,52.7365,-2.5555
817,Shropshire,SHR,Waters Upton,TF6,52.7706,-2.5364
818,Shropshire,SHR,Osbaston,TF6,52.7365,-2.5555
819,Shropshire,SHR,Sleapford,TF6,52.7365,-2.5555
820,Shropshire,SHR,Marsh Green,TF6,52.7365,-2.5555
821,Shropshire,SHR,Ellerdine Heath,TF6,52.7365,-2.5555
822,Shropshire,SHR,Madeley,TF7,52.6333,-2.4333
823,Shropshire,SHR,Coalport,TF8,52.6192,-2.4507
824,Shropshire,SHR,Ironbridge,TF8,52.6279,-2.4847
825,Shropshire,SHR,Coalbrookdale,TF8,52.6382,-2.4917
826,Shropshire,SHR,Buildwas,TF8,52.6343,-2.5267
827,Shropshire,SHR,Peplow,TF9,52.8166,-2.5456
828,Shropshire,SHR,Lockleywood,TF9,52.8515,-2.46
829,Shropshire,SHR,Moreton Say,TF9,52.9061,-2.5524
830,Shropshire,SHR,Market Drayton,TF9,52.9054,-2.4901
831,Shropshire,SHR,Ollerton,TF9,52.8971,-2.4704
832,Shropshire,SHR,Adderley,TF9,52.954,-2.5047
833,Shropshire,SHR,Hodnet,TF9,52.8505,-2.5682
834,Shropshire,SHR,Child's Ercall,TF9,52.8248,-2.4925
835,Shropshire,SHR,Hinstock,TF9,52.8371,-2.4576
836,Shropshire,SHR,Longford,TF9,52.8971,-2.4704
837,Shropshire,SHR,Pipe Gate,TF9,52.9632,-2.3915
838,Shropshire,SHR,Aston,TF9,52.8971,-2.4704
839,Shropshire,SHR,Ternhill,TF9,52.8857,-2.5431
840,Shropshire,SHR,Cheswardine,TF9,52.8652,-2.4145
841,Shropshire,SHR,Norton in Hales,TF9,52.9441,-2.4431
842,Shropshire,SHR,Hopton,TF9,52.8971,-2.4704
843,Shropshire,SHR,Soudley,TF9,52.8971,-2.4704
844,Shropshire,SHR,Knighton,TF9,52.8971,-2.4704
845,Shropshire,SHR,Sutton,TF9,52.8971,-2.4704
846,Shropshire,SHR,Boraston,WR15,52.3263,-2.5673
847,Shropshire,SHR,Romsley,WV15,52.45,-2.3167
848,Shropshire,SHR,Alveley,WV15,52.4571,-2.3543
849,Shropshire,SHR,Worfield,WV15,52.5581,-2.3576
850,Shropshire,SHR,Quatt,WV15,52.4913,-2.3616
851,Shropshire,SHR,Hilton,WV15,52.5667,-2.3167
852,Shropshire,SHR,Quatford,WV15,52.5164,-2.3875
853,Shropshire,SHR,Chesterton,WV15,52.5154,-2.375
854,Shropshire,SHR,Six Ashes,WV15,52.5154,-2.375
855,Shropshire,SHR,Allscot,WV15,52.5154,-2.375
856,Shropshire,SHR,Swancote,WV15,52.5154,-2.375
857,Shropshire,SHR,Roughton,WV15,52.5154,-2.375
858,Shropshire,SHR,Birdsgreen,WV15,52.5154,-2.375
859,Shropshire,SHR,Wyken,WV15,52.5154,-2.375
860,Shropshire,SHR,Bridgnorth,WV16,52.5366,-2.4203
861,Shropshire,SHR,Morville,WV16,52.5442,-2.4892
862,Shropshire,SHR,Glazeley,WV16,52.4905,-2.4413
863,Shropshire,SHR,Cleobury North,WV16,52.4777,-2.5561
864,Shropshire,SHR,Monkhopton,WV16,52.5383,-2.5531
865,Shropshire,SHR,Burwarton,WV16,52.4624,-2.5609
866,Shropshire,SHR,Hampton,WV16,52.4667,-2.3833
867,Shropshire,SHR,Neenton,WV16,52.4873,-2.5373
868,Shropshire,SHR,Astley Abbotts,WV16,52.562,-2.4309
869,Shropshire,SHR,Ditton Priors,WV16,52.4991,-2.5775
870,Shropshire,SHR,Highley,WV16,52.4487,-2.3825
871,Shropshire,SHR,Acton Round,WV16,52.5571,-2.5372
872,Shropshire,SHR,Billingsley,WV16,52.4555,-2.4233
873,Shropshire,SHR,Eardington,WV16,52.5141,-2.4121
874,Shropshire,SHR,Aston Botterell,WV16,52.4548,-2.5428
875,Shropshire,SHR,Loughton,WV16,52.4333,-2.5667
876,Shropshire,SHR,Chetton,WV16,52.5108,-2.4966
877,Shropshire,SHR,Nordley,WV16,52.5642,-2.4534
878,Shropshire,SHR,Aston Eyre,WV16,52.5472,-2.5131
879,Shropshire,SHR,Sutton,WV16,52.5642,-2.4534
880,Shropshire,SHR,Woodhill,WV16,52.5642,-2.4534
881,Shropshire,SHR,Wheathill,WV16,52.4328,-2.582
882,Shropshire,SHR,Middleton Priors,WV16,52.5642,-2.4534
883,Shropshire,SHR,Tasley,WV16,52.5642,-2.4534
884,Shropshire,SHR,Cross Lane Head,WV16,52.5642,-2.4534
885,Shropshire,SHR,The Smithies,WV16,52.5642,-2.4534
886,Shropshire,SHR,Woodlands,WV16,52.5642,-2.4534
887,Shropshire,SHR,Chelmarsh,WV16,52.4843,-2.4053
888,Shropshire,SHR,Haughton,WV16,52.5108,-2.4404
889,Shropshire,SHR,Oldbury,WV16,52.5108,-2.4404
890,Shropshire,SHR,Deuxhill,WV16,52.4795,-2.4451
891,Shropshire,SHR,Middleton Scriven,WV16,52.4889,-2.4803
892,Shropshire,SHR,Upton Cressett,WV16,52.5285,-2.5171
893,Shropshire,SHR,Chorley,WV16,52.5108,-2.4404
894,Shropshire,SHR,Sidbury,WV16,52.4633,-2.4613
895,Shropshire,SHR,Claverley,WV5,52.5379,-2.3065
896,Shropshire,SHR,Badger,WV6,52.5928,-2.3444
897,Shropshire,SHR,Albrighton,WV7,52.6333,-2.2667
898,Shropshire,SHR,Cosford,WV7,52.6358,-2.2794
899,Shropshire,SHR,Shackerley,WV7,52.6358,-2.2794
900,Shropshire,SHR,Boningale,WV7,52.6203,-2.272
901,Wiltshire,WIL,Monkton Deverill,BA12,51.1348,-2.209
902,Wiltshire,WIL,Kingston Deverill,BA12,51.1326,-2.2167
903,Wiltshire,WIL,Stourton,BA12,51.105,-2.3156
904,Wiltshire,WIL,Brixton Deverill,BA12,51.1473,-2.198
905,Wiltshire,WIL,Norton Bavant,BA12,51.187,-2.1306
906,Wiltshire,WIL,Codford St Mary,BA12,51.1558,-2.0389
907,Wiltshire,WIL,Knook,BA12,51.1759,-2.0906
908,Wiltshire,WIL,Fisherton de la Mere,BA12,51.1457,-2.0017
909,Wiltshire,WIL,Corsley,BA12,51.2189,-2.2481
910,Wiltshire,WIL,Boreham,BA12,51.1994,-2.1656
911,Wiltshire,WIL,Sutton Veny,BA12,51.1782,-2.1499
912,Wiltshire,WIL,Chitterne,BA12,51.1995,-2.008
913,Wiltshire,WIL,Upton Scudamore,BA12,51.23,-2.1933
914,Wiltshire,WIL,Zeals,BA12,51.0856,-2.3123
915,Wiltshire,WIL,Sherrington,BA12,51.1511,-2.0564
916,Wiltshire,WIL,Bishopstrow,BA12,51.1931,-2.1553
917,Wiltshire,WIL,West Knoyle,BA12,51.0878,-2.2076
918,Wiltshire,WIL,Heytesbury,BA12,51.1824,-2.1068
919,Wiltshire,WIL,Mere,BA12,51.0889,-2.2669
920,Wiltshire,WIL,Tytherington,BA12,51.1683,-2.1211
921,Wiltshire,WIL,Corton,BA12,51.1631,-2.09
922,Wiltshire,WIL,Barrow Street,BA12,51.1594,-2.1537
923,Wiltshire,WIL,Longbridge Deverill,BA12,51.1665,-2.1883
924,Wiltshire,WIL,Warminster,BA12,51.2043,-2.1787
925,Wiltshire,WIL,Boyton,BA12,51.155,-2.0711
926,Wiltshire,WIL,Horningsham,BA12,51.1695,-2.2707
927,Wiltshire,WIL,Corsley Heath,BA12,51.2069,-2.2578
928,Wiltshire,WIL,Norton Ferris,BA12,51.1594,-2.1537
929,Wiltshire,WIL,Stockton,BA12,51.1453,-2.0319
930,Wiltshire,WIL,Kilmington,BA12,51.1269,-2.3269
931,Wiltshire,WIL,Kilmington Street,BA12,51.1594,-2.1537
932,Wiltshire,WIL,Codford St Peter,BA12,51.1597,-2.0531
933,Wiltshire,WIL,Crockerton,BA12,51.1594,-2.1537
934,Wiltshire,WIL,Wylye,BA12,51.1371,-1.9895
935,Wiltshire,WIL,Shear Cross,BA12,51.1594,-2.1537
936,Wiltshire,WIL,Maiden Bradley,BA12,51.1497,-2.2858
937,Wiltshire,WIL,Upton Lovell,BA12,51.1685,-2.0785
938,Wiltshire,WIL,Deptford,BA12,51.15,-1.9833
939,Wiltshire,WIL,Bratton,BA13,51.2706,-2.1244
940,Wiltshire,WIL,Dilton Marsh,BA13,51.2478,-2.2183
941,Wiltshire,WIL,Westbury,BA13,51.26,-2.1875
942,Wiltshire,WIL,Chapmanslade,BA13,51.2292,-2.2489
943,Wiltshire,WIL,Coulston,BA13,51.2859,-2.0715
944,Wiltshire,WIL,Hawkeridge,BA13,51.2615,-2.1595
945,Wiltshire,WIL,Edington,BA13,51.2758,-2.1064
946,Wiltshire,WIL,Westbury Leigh,BA13,51.2615,-2.1595
947,Wiltshire,WIL,Heywood,BA13,51.2768,-2.1987
948,Wiltshire,WIL,Keevil,BA14,51.3213,-2.115
949,Wiltshire,WIL,Holt,BA14,51.3556,-2.1972
950,Wiltshire,WIL,West Ashton,BA14,51.2988,-2.1738
951,Wiltshire,WIL,Steeple Ashton,BA14,51.3103,-2.1354
952,Wiltshire,WIL,Southwick,BA14,51.2969,-2.2325
953,Wiltshire,WIL,North Bradley,BA14,51.295,-2.2047
954,Wiltshire,WIL,Semington,BA14,51.3449,-2.148
955,Wiltshire,WIL,Trowbridge,BA14,51.3189,-2.2086
956,Wiltshire,WIL,Staverton,BA14,51.3399,-2.2071
957,Wiltshire,WIL,Hilperton,BA14,51.3367,-2.1949
958,Wiltshire,WIL,Wingfield,BA14,51.3089,-2.2528
959,Wiltshire,WIL,Ashton Common,BA14,51.3194,-2.2026
960,Wiltshire,WIL,Trowle Common,BA14,51.3194,-2.2026
961,Wiltshire,WIL,Yarnbrook,BA14,51.3194,-2.2026
962,Wiltshire,WIL,Great Hinton,BA14,51.3299,-2.1373
963,Wiltshire,WIL,South Wraxall,BA15,51.3818,-2.2424
964,Wiltshire,WIL,Bradford-on-Avon,BA15,51.3477,-2.2506
965,Wiltshire,WIL,Westwood,BA15,51.3311,-2.2739
966,Wiltshire,WIL,Bradford Leigh,BA15,51.3536,-2.2556
967,Wiltshire,WIL,Monkton Farleigh,BA15,51.3858,-2.2814
968,Wiltshire,WIL,Winsley,BA15,51.3497,-2.2858
969,Wiltshire,WIL,Chilton Foliat,RG17,51.4324,-1.5391
970,Wiltshire,WIL,Swindon,SN1,51.558,-1.7812
971,Wiltshire,WIL,Bishops Cannings,SN10,51.3766,-1.948
972,Wiltshire,WIL,Devizes,SN10,51.3508,-1.9942
973,Wiltshire,WIL,Rowde,SN10,51.3633,-2.031
974,Wiltshire,WIL,Poulshot,SN10,51.3355,-2.0449
975,Wiltshire,WIL,Roundway,SN10,51.368,-1.9808
976,Wiltshire,WIL,Marston,SN10,51.3108,-2.0497
977,Wiltshire,WIL,Patney,SN10,51.3279,-1.8978
978,Wiltshire,WIL,Bulkington,SN10,51.3236,-2.0836
979,Wiltshire,WIL,Little Cheverell,SN10,51.281,-2.0133
980,Wiltshire,WIL,Market Lavington,SN10,51.2876,-1.9773
981,Wiltshire,WIL,Urchfont,SN10,51.3122,-1.9429
982,Wiltshire,WIL,Potterne,SN10,51.3292,-2.0052
983,Wiltshire,WIL,Great Cheverell,SN10,51.2878,-2.0269
984,Wiltshire,WIL,Worton,SN10,51.3161,-2.0411
985,Wiltshire,WIL,Erlestoke,SN10,51.2847,-2.0544
986,Wiltshire,WIL,Calstone Wellington,SN10,51.3369,-1.9872
987,Wiltshire,WIL,Eastcott,SN10,51.3255,-2.0607
988,Wiltshire,WIL,Stert,SN10,51.3332,-1.9548
989,Wiltshire,WIL,Chirton,SN10,51.3143,-1.8971
990,Wiltshire,WIL,All Cannings,SN10,51.3574,-1.898
991,Wiltshire,WIL,Easterton,SN10,51.2965,-1.9718
992,Wiltshire,WIL,Potterne Wick,SN10,51.3255,-2.0607
993,Wiltshire,WIL,Wedhampton,SN10,51.3255,-2.0607
994,Wiltshire,WIL,Coate,SN10,51.3255,-2.0607
995,Wiltshire,WIL,Littleton Panell,SN10,51.3255,-2.0607
996,Wiltshire,WIL,Allington,SN10,51.3369,-1.9872
997,Wiltshire,WIL,Horton,SN10,51.3369,-1.9872
998,Wiltshire,WIL,Marden,SN10,51.3211,-1.8777
999,Wiltshire,WIL,West Lavington,SN10,51.2787,-1.9963
1000,Wiltshire,WIL,Etchilhampton,SN10,51.3422,-1.933
1001,Wiltshire,WIL,Cherhill,SN11,51.4299,-1.9509
1002,Wiltshire,WIL,Bremhill,SN11,51.4567,-2.0303
1003,Wiltshire,WIL,Highway,SN11,51.4667,-1.9333
1004,Wiltshire,WIL,Compton Bassett,SN11,51.4495,-1.9481
1005,Wiltshire,WIL,Studley,SN11,51.4422,-2.0497
1006,Wiltshire,WIL,Hilmarton,SN11,51.4766,-1.9719
1007,Wiltshire,WIL,Yatesbury,SN11,51.442,-1.908
1008,Wiltshire,WIL,Clevancy,SN11,51.4503,-1.9747
1009,Wiltshire,WIL,Calne,SN11,51.4388,-2.0057
1010,Wiltshire,WIL,Mile Elm,SN11,51.4503,-1.9747
1011,Wiltshire,WIL,Heddington,SN11,51.3973,-2.0086
1012,Wiltshire,WIL,Blackland,SN11,51.4503,-1.9747
1013,Wiltshire,WIL,Goatacre,SN11,51.4503,-1.9747
1014,Wiltshire,WIL,Charlcutt,SN11,51.4503,-1.9747
1015,Wiltshire,WIL,Spirthill,SN11,51.4503,-1.9747
1016,Wiltshire,WIL,Stockley,SN11,51.4503,-1.9747
1017,Wiltshire,WIL,Quemerford,SN11,51.4503,-1.9747
1018,Wiltshire,WIL,Derry Hill,SN11,51.4503,-1.9747
1019,Wiltshire,WIL,Beanacre,SN12,51.3929,-2.1402
1020,Wiltshire,WIL,Seend,SN12,51.3481,-2.0847
1021,Wiltshire,WIL,Atworth,SN12,51.3923,-2.193
1022,Wiltshire,WIL,Melksham,SN12,51.3728,-2.14
1023,Wiltshire,WIL,Broughton Gifford,SN12,51.3721,-2.1755
1024,Wiltshire,WIL,Norrington Common,SN12,51.3723,-2.1373
1025,Wiltshire,WIL,Shaw,SN12,51.3723,-2.1373
1026,Wiltshire,WIL,Melksham Forest,SN12,51.3723,-2.1373
1027,Wiltshire,WIL,Seend Cleeve,SN12,51.3723,-2.1373
1028,Wiltshire,WIL,Sells Green,SN12,51.3723,-2.1373
1029,Wiltshire,WIL,Sandridge,SN12,51.3723,-2.1373
1030,Wiltshire,WIL,Gastard,SN13,51.4158,-2.1667
1031,Wiltshire,WIL,Box,SN13,51.4147,-2.2456
1032,Wiltshire,WIL,Corsham,SN13,51.4343,-2.1844
1033,Wiltshire,WIL,Cross Keys,SN13,51.4411,-2.1853
1034,Wiltshire,WIL,Neston,SN13,51.4122,-2.2006
1035,Wiltshire,WIL,Hawthorn,SN13,51.4242,-2.2236
1036,Wiltshire,WIL,Easton,SN13,51.4255,-2.2106
1037,Wiltshire,WIL,Ashley,SN13,51.4255,-2.2106
1038,Wiltshire,WIL,Hullavington,SN14,51.5378,-2.1516
1039,Wiltshire,WIL,Castle Combe,SN14,51.4929,-2.229
1040,Wiltshire,WIL,Biddestone,SN14,51.4608,-2.1983
1041,Wiltshire,WIL,Slaughterford,SN14,51.4641,-2.2317
1042,Wiltshire,WIL,Luckington,SN14,51.5544,-2.2422
1043,Wiltshire,WIL,North Wraxall,SN14,51.4734,-2.263
1044,Wiltshire,WIL,West Kington,SN14,51.4955,-2.2728
1045,Wiltshire,WIL,Nettleton,SN14,51.5022,-2.2625
1046,Wiltshire,WIL,Yatton Keynell,SN14,51.4861,-2.1934
1047,Wiltshire,WIL,Sopworth,SN14,51.5744,-2.2512
1048,Wiltshire,WIL,Colerne,SN14,51.4383,-2.2628
1049,Wiltshire,WIL,Stanton St Quintin,SN14,51.5178,-2.1353
1050,Wiltshire,WIL,Hardenhuish,SN14,51.4703,-2.1311
1051,Wiltshire,WIL,Grittleton,SN14,51.5186,-2.2057
1052,Wiltshire,WIL,Leigh Delamere,SN14,51.451,-2.1347
1053,Wiltshire,WIL,Kington St Michael,SN14,51.4961,-2.1403
1054,Wiltshire,WIL,Lower Stanton St Quintin,SN14,51.451,-2.1347
1055,Wiltshire,WIL,West Littleton,SN14,51.451,-2.1347
1056,Wiltshire,WIL,Alderton,SN14,51.4756,-2.1985
1057,Wiltshire,WIL,Thickwood,SN14,51.451,-2.1347
1058,Wiltshire,WIL,Burton,SN14,51.4756,-2.1985
1059,Wiltshire,WIL,The Shoe,SN14,51.451,-2.1347
1060,Wiltshire,WIL,Pennsylvania,SN14,51.451,-2.1347
1061,Wiltshire,WIL,Ford,SN14,51.4756,-2.1985
1062,Wiltshire,WIL,Ditteridge,SN14,51.451,-2.1347
1063,Wiltshire,WIL,Littleton Drew,SN14,51.451,-2.1347
1064,Wiltshire,WIL,Upper Wraxall,SN14,51.451,-2.1347
1065,Wiltshire,WIL,Sutton Benger,SN15,51.5069,-2.0801
1066,Wiltshire,WIL,Chippenham,SN15,51.46,-2.1247
1067,Wiltshire,WIL,Chittoe,SN15,51.3994,-2.0662
1068,Wiltshire,WIL,Christian Malford,SN15,51.5104,-2.0551
1069,Wiltshire,WIL,Tytherton Lucas,SN15,51.4678,-2.0764
1070,Wiltshire,WIL,Foxham,SN15,51.4943,-2.036
1071,Wiltshire,WIL,Lyneham,SN15,51.5167,-1.9667
1072,Wiltshire,WIL,Lacock,SN15,51.4153,-2.1219
1073,Wiltshire,WIL,Kington Langley,SN15,51.4888,-2.1166
1074,Wiltshire,WIL,Upper Seagry,SN15,51.526,-2.0783
1075,Wiltshire,WIL,Brinkworth,SN15,51.5589,-1.9822
1076,Wiltshire,WIL,Stanley,SN15,51.4721,-2.0837
1077,Wiltshire,WIL,Great Somerford,SN15,51.5435,-2.0521
1078,Wiltshire,WIL,Preston,SN15,51.4721,-2.0837
1079,Wiltshire,WIL,Little Somerford,SN15,51.5588,-2.0492
1080,Wiltshire,WIL,Cleverton,SN15,51.4721,-2.0837
1081,Wiltshire,WIL,Langley Burrell,SN15,51.4721,-2.0837
1082,Wiltshire,WIL,Church End,SN15,51.4721,-2.0837
1083,Wiltshire,WIL,Callow Hill,SN15,51.4721,-2.0837
1084,Wiltshire,WIL,Bewley Common,SN15,51.4721,-2.0837
1085,Wiltshire,WIL,Dauntsey,SN15,51.5343,-2.0108
1086,Wiltshire,WIL,Bromham,SN15,51.388,-2.0489
1087,Wiltshire,WIL,Bradenstoke,SN15,51.4721,-2.0837
1088,Wiltshire,WIL,Startley,SN15,51.4721,-2.0837
1089,Wiltshire,WIL,Notton,SN15,51.4721,-2.0837
1090,Wiltshire,WIL,St Edith's Marsh,SN15,51.4721,-2.0837
1091,Wiltshire,WIL,Sandy Lane,SN15,51.4721,-2.0837
1092,Wiltshire,WIL,Grittenham,SN15,51.4721,-2.0837
1093,Wiltshire,WIL,Netherstreet,SN15,51.4721,-2.0837
1094,Wiltshire,WIL,East Tytherton,SN15,51.4721,-2.0837
1095,Wiltshire,WIL,Lower Seagry,SN15,51.4721,-2.0837
1096,Wiltshire,WIL,Bowden Hill,SN15,51.4721,-2.0837
1097,Wiltshire,WIL,Lea,SN16,51.5753,-2.0631
1098,Wiltshire,WIL,Brokenborough,SN16,51.6013,-2.1186
1099,Wiltshire,WIL,Garsdon,SN16,51.5893,-2.0461
1100,Wiltshire,WIL,Easton Grey,SN16,51.588,-2.1729
1101,Wiltshire,WIL,Charlton,SN16,51.5992,-2.0564
1102,Wiltshire,WIL,Foxley,SN16,51.5722,-2.155
1103,Wiltshire,WIL,Malmesbury,SN16,51.5817,-2.0971
1104,Wiltshire,WIL,Minety,SN16,51.6167,-1.95
1105,Wiltshire,WIL,Oaksey,SN16,51.6413,-2.017
1106,Wiltshire,WIL,Crudwell,SN16,51.6332,-2.0696
1107,Wiltshire,WIL,Sherston,SN16,51.572,-2.2128
1108,Wiltshire,WIL,Hankerton,SN16,51.6144,-2.045
1109,Wiltshire,WIL,Corston,SN16,51.5561,-2.1108
1110,Wiltshire,WIL,Chedglow,SN16,51.6434,-2.0165
1111,Wiltshire,WIL,Upper Minety,SN16,51.6434,-2.0165
1112,Wiltshire,WIL,Chelworth,SN16,51.6434,-2.0165
1113,Wiltshire,WIL,Eastcourt,SN16,51.6434,-2.0165
1114,Wiltshire,WIL,Rodbourne,SN16,51.6434,-2.0165
1115,Wiltshire,WIL,Norton,SN16,51.5611,-2.1625
1116,Wiltshire,WIL,Broad Blunsdon,SN2,51.5787,-1.7833
1117,Wiltshire,WIL,Haydon Wick,SN2,51.5912,-1.8191
1118,Wiltshire,WIL,Blunsdon St Andrew,SN2,51.5787,-1.7833
1119,Wiltshire,WIL,Swindon,SN25,51.558,-1.7812
1120,Wiltshire,WIL,Swindon,SN26,51.6124,-1.7873
1121,Wiltshire,WIL,South Marston,SN3,51.5892,-1.7194
1122,Wiltshire,WIL,Coate,SN3,51.5892,-1.7194
1123,Wiltshire,WIL,Stratton St Margaret,SN3,51.5892,-1.7194
1124,Wiltshire,WIL,Swindon,SN38,51.558,-1.7812
1125,Wiltshire,WIL,Liddington,SN4,51.5316,-1.703
1126,Wiltshire,WIL,Winterbourne Bassett,SN4,51.4727,-1.8519
1127,Wiltshire,WIL,Tockenham,SN4,51.5124,-1.9452
1128,Wiltshire,WIL,Broad Town,SN4,51.4985,-1.8702
1129,Wiltshire,WIL,Broad Hinton,SN4,51.4887,-1.8479
1130,Wiltshire,WIL,Wanborough,SN4,51.5426,-1.6984
1131,Wiltshire,WIL,Wootton Bassett,SN4,51.5419,-1.9045
1132,Wiltshire,WIL,Wroughton,SN4,51.5241,-1.7956
1133,Wiltshire,WIL,Hinton Parva,SN4,51.4849,-1.7519
1134,Wiltshire,WIL,Chiseldon,SN4,51.5161,-1.7321
1135,Wiltshire,WIL,Berwick Bassett,SN4,51.4592,-1.858
1136,Wiltshire,WIL,Winterbourne Monkton,SN4,51.5301,-1.8364
1137,Wiltshire,WIL,Badbury,SN4,51.4849,-1.7519
1138,Wiltshire,WIL,Tockenham Wick,SN4,51.4849,-1.7519
1139,Wiltshire,WIL,Bushton,SN4,51.4849,-1.7519
1140,Wiltshire,WIL,Clyffe Pypard,SN4,51.5014,-1.9071
1141,Wiltshire,WIL,Hook,SN4,51.5301,-1.8364
1142,Wiltshire,WIL,Uffcott,SN4,51.4849,-1.7519
1143,Wiltshire,WIL,North Wroughton,SN4,51.4849,-1.7519
1144,Wiltshire,WIL,Lydiard Millicent,SN5,51.5712,-1.8635
1145,Wiltshire,WIL,Purton Stoke,SN5,51.6132,-1.8723
1146,Wiltshire,WIL,Purton,SN5,51.5833,-1.8667
1147,Wiltshire,WIL,Shaw,SN5,51.5661,-1.8396
1148,Wiltshire,WIL,Nine Elms,SN5,51.5661,-1.8396
1149,Wiltshire,WIL,Stanton Fitzwarren,SN6,51.612,-1.7446
1150,Wiltshire,WIL,Castle Eaton,SN6,51.6605,-1.7921
1151,Wiltshire,WIL,Cricklade,SN6,51.6406,-1.8574
1152,Wiltshire,WIL,Hannington,SN6,51.6333,-1.75
1153,Wiltshire,WIL,Ashton Keynes,SN6,51.6452,-1.9323
1154,Wiltshire,WIL,Bishopstone,SN6,51.5513,-1.647
1155,Wiltshire,WIL,Latton,SN6,51.6589,-1.8706
1156,Wiltshire,WIL,Leigh,SN6,51.6167,-1.9
1157,Wiltshire,WIL,Highworth,SN6,51.6305,-1.711
1158,Wiltshire,WIL,Hannington Wick,SN6,51.6165,-1.7412
1159,Wiltshire,WIL,Marston Meysey,SN6,51.6732,-1.8167
1160,Wiltshire,WIL,Sevenhampton,SN6,51.6,-1.7
1161,Wiltshire,WIL,Upper Inglesham,SN6,51.6165,-1.7412
1162,Wiltshire,WIL,Inglesham,SN6,51.6708,-1.7043
1163,Wiltshire,WIL,Avebury,SN8,51.4167,-1.8667
1164,Wiltshire,WIL,Oare,SN8,51.3651,-1.7749
1165,Wiltshire,WIL,Great Bedwyn,SN8,51.3795,-1.6015
1166,Wiltshire,WIL,Manton,SN8,51.4152,-1.7562
1167,Wiltshire,WIL,Mildenhall,SN8,51.4256,-1.6999
1168,Wiltshire,WIL,Aldbourne,SN8,51.481,-1.6183
1169,Wiltshire,WIL,Baydon,SN8,51.5004,-1.597
1170,Wiltshire,WIL,Ogbourne St George,SN8,51.469,-1.7141
1171,Wiltshire,WIL,Wootton Rivers,SN8,51.3677,-1.7187
1172,Wiltshire,WIL,Beckhampton,SN8,51.4194,-1.8746
1173,Wiltshire,WIL,Oxenwood,SN8,51.3303,-1.5648
1174,Wiltshire,WIL,Alton Priors,SN8,51.3601,-1.8429
1175,Wiltshire,WIL,Marlborough,SN8,51.4203,-1.7295
1176,Wiltshire,WIL,Fyfield,SN8,51.4167,-1.7833
1177,Wiltshire,WIL,Burbage,SN8,51.3518,-1.6709
1178,Wiltshire,WIL,Ham,SN8,51.3652,-1.5259
1179,Wiltshire,WIL,Collingbourne Ducis,SN8,51.2852,-1.6525
1180,Wiltshire,WIL,Tidcombe,SN8,51.3238,-1.5854
1181,Wiltshire,WIL,Huish,SN8,51.3711,-1.7927
1182,Wiltshire,WIL,Froxfield,SN8,51.4108,-1.572
1183,Wiltshire,WIL,Fosbury,SN8,51.3203,-1.5425
1184,Wiltshire,WIL,Shalbourne,SN8,51.3636,-1.5505
1185,Wiltshire,WIL,Little Bedwyn,SN8,51.3918,-1.5824
1186,Wiltshire,WIL,Buttermere,SN8,51.3474,-1.5116
1187,Wiltshire,WIL,Everleigh,SN8,51.2815,-1.7095
1188,Wiltshire,WIL,Collingbourne Kingston,SN8,51.3011,-1.6588
1189,Wiltshire,WIL,Ramsbury,SN8,51.4437,-1.6026
1190,Wiltshire,WIL,Rockley,SN8,51.3524,-1.6468
1191,Wiltshire,WIL,Ogbourne St Andrew,SN8,51.4484,-1.7283
1192,Wiltshire,WIL,Crofton,SN8,51.3524,-1.6468
1193,Wiltshire,WIL,Wexcombe,SN8,51.3304,-1.6094
1194,Wiltshire,WIL,East Kennett,SN8,51.4054,-1.8301
1195,Wiltshire,WIL,Durley,SN8,51.4067,-1.6872
1196,Wiltshire,WIL,West Overton,SN8,51.4071,-1.7995
1197,Wiltshire,WIL,Stibb Green,SN8,51.3524,-1.6468
1198,Wiltshire,WIL,Axford,SN8,51.4067,-1.6872
1199,Wiltshire,WIL,West Grafton,SN8,51.3524,-1.6468
1200,Wiltshire,WIL,Upper Upham,SN8,51.3524,-1.6468
1201,Wiltshire,WIL,Stanton St Bernard,SN8,51.3524,-1.6468
1202,Wiltshire,WIL,Chisbury,SN8,51.3524,-1.6468
1203,Wiltshire,WIL,Ogbourne Maizey,SN8,51.3524,-1.6468
1204,Wiltshire,WIL,West Stowell,SN8,51.3524,-1.6468
1205,Wiltshire,WIL,Whittonditch,SN8,51.3524,-1.6468
1206,Wiltshire,WIL,Woodsend,SN8,51.3524,-1.6468
1207,Wiltshire,WIL,Clench Common,SN8,51.3524,-1.6468
1208,Wiltshire,WIL,Stock Lane,SN8,51.3524,-1.6468
1209,Wiltshire,WIL,West Kennett,SN8,51.3524,-1.6468
1210,Wiltshire,WIL,Cadley,SN8,51.3524,-1.6468
1211,Wiltshire,WIL,Wilton,SN8,51.4067,-1.6872
1212,Wiltshire,WIL,Rivar,SN8,51.3524,-1.6468
1213,Wiltshire,WIL,East Grafton,SN8,51.3524,-1.6468
1214,Wiltshire,WIL,Lockeridge,SN8,51.3524,-1.6468
1215,Wiltshire,WIL,Rushall,SN9,51.2833,-1.8167
1216,Wiltshire,WIL,Alton Barnes,SN9,51.3592,-1.8496
1217,Wiltshire,WIL,North Newnton,SN9,51.3233,-1.8372
1218,Wiltshire,WIL,Manningford Bohune,SN9,51.3209,-1.8071
1219,Wiltshire,WIL,Hilcott,SN9,51.3233,-1.8372
1220,Wiltshire,WIL,Manningford Abbots,SN9,51.3167,-1.8
1221,Wiltshire,WIL,Upavon,SN9,51.2946,-1.8079
1222,Wiltshire,WIL,Wilcot,SN9,51.3491,-1.7958
1223,Wiltshire,WIL,Pewsey,SN9,51.3385,-1.7655
1224,Wiltshire,WIL,Beechingstoke,SN9,51.3323,-1.8761
1225,Wiltshire,WIL,Wilsford,SN9,51.3,-1.85
1226,Wiltshire,WIL,Enford,SN9,51.2628,-1.8
1227,Wiltshire,WIL,Woodborough,SN9,51.3333,-1.8333
1228,Wiltshire,WIL,Manningford Bruce,SN9,51.3252,-1.8018
1229,Wiltshire,WIL,Charlton,SN9,51.3033,-1.8381
1230,Wiltshire,WIL,Longstreet,SN9,51.3259,-1.7871
1231,Wiltshire,WIL,East Chisenbury,SN9,51.332,-1.8334
1232,Wiltshire,WIL,Easton Royal,SN9,51.332,-1.8334
1233,Wiltshire,WIL,Milton Lilbourne,SN9,51.3454,-1.7336
1234,Wiltshire,WIL,Swindon,SN99,51.558,-1.7812
1235,Wiltshire,WIL,Salisbury,SP1,51.0693,-1.7957
1236,Wiltshire,WIL,Stratford sub Castle,SP1,51.0693,-1.7957
1237,Wiltshire,WIL,Laverstock,SP1,51.0693,-1.7957
1238,Wiltshire,WIL,Ludgershall,SP11,51.2556,-1.6222
1239,Wiltshire,WIL,Wilton,SP2,51.0793,-1.8621
1240,Wiltshire,WIL,Great Wishford,SP2,51.119,-1.8884
1241,Wiltshire,WIL,South Newton,SP2,51.1065,-1.8753
1242,Wiltshire,WIL,Burcombe,SP2,51.1016,-1.8753
1243,Wiltshire,WIL,Harnham,SP2,51.1016,-1.8753
1244,Wiltshire,WIL,Netherhampton,SP2,51.063,-1.8296
1245,Wiltshire,WIL,Fugglestone St Peter,SP2,51.1016,-1.8753
1246,Wiltshire,WIL,Quidhampton,SP2,51.0787,-1.8442
1247,Wiltshire,WIL,Stoford,SP2,51.1016,-1.8753
1248,Wiltshire,WIL,Tilshead,SP3,51.2297,-1.951
1249,Wiltshire,WIL,Ansty,SP3,51.0364,-2.0639
1250,Wiltshire,WIL,Dinton,SP3,51.0833,-1.9833
1251,Wiltshire,WIL,Tisbury,SP3,51.0628,-2.0806
1252,Wiltshire,WIL,Little Langford,SP3,51.1275,-1.9303
1253,Wiltshire,WIL,Rollestone,SP3,51.1898,-1.8992
1254,Wiltshire,WIL,East Knoyle,SP3,51.0744,-2.1705
1255,Wiltshire,WIL,Baverstock,SP3,51.0834,-1.9608
1256,Wiltshire,WIL,Hanging Langford,SP3,51.133,-1.9555
1257,Wiltshire,WIL,Fovant,SP3,51.0559,-1.9921
1258,Wiltshire,WIL,Shrewton,SP3,51.1919,-1.9026
1259,Wiltshire,WIL,The Green,SP3,51.1507,-1.8909
1260,Wiltshire,WIL,Steeple Langford,SP3,51.1365,-1.9481
1261,Wiltshire,WIL,Winterbourne Stoke,SP3,51.1673,-1.8981
1262,Wiltshire,WIL,Swallowcliffe,SP3,51.0401,-2.0425
1263,Wiltshire,WIL,Stapleford,SP3,51.1167,-1.9
1264,Wiltshire,WIL,Orcheston,SP3,51.2072,-1.9175
1265,Wiltshire,WIL,Barford St Martin,SP3,51.1507,-1.8909
1266,Wiltshire,WIL,Teffont Evias,SP3,51.0804,-2.013
1267,Wiltshire,WIL,Chicklade,SP3,51.1092,-2.1267
1268,Wiltshire,WIL,Teffont Magna,SP3,51.0897,-2.0169
1269,Wiltshire,WIL,Compton Chamberlayne,SP3,51.0672,-1.9614
1270,Wiltshire,WIL,Chilmark,SP3,51.0918,-2.0438
1271,Wiltshire,WIL,Berwick St James,SP3,51.1557,-1.8987
1272,Wiltshire,WIL,Hindon,SP3,51.0922,-2.1258
1273,Wiltshire,WIL,Fonthill Bishop,SP3,51.0977,-2.0926
1274,Wiltshire,WIL,Fonthill Gifford,SP3,51.0824,-2.1079
1275,Wiltshire,WIL,Sutton Mandeville,SP3,51.0588,-2.0253
1276,Wiltshire,WIL,East Hatch,SP3,51.1507,-1.8909
1277,Wiltshire,WIL,Berwick St Leonard,SP3,51.1507,-1.8909
1278,Wiltshire,WIL,Newtown,SP3,51.1023,-2.0104
1279,Wiltshire,WIL,Ridge,SP3,51.1023,-2.0104
1280,Wiltshire,WIL,Cholderton,SP4,51.1793,-1.6785
1281,Wiltshire,WIL,Bulford,SP4,51.1893,-1.7601
1282,Wiltshire,WIL,Amesbury,SP4,51.1751,-1.7806
1283,Wiltshire,WIL,Netheravon,SP4,51.2361,-1.7908
1284,Wiltshire,WIL,Larkhill,SP4,51.2,-1.8167
1285,Wiltshire,WIL,Allington,SP4,51.15,-1.7
1286,Wiltshire,WIL,Boscombe,SP4,51.15,-1.7167
1287,Wiltshire,WIL,Winterbourne Gunner,SP4,51.1161,-1.7444
1288,Wiltshire,WIL,Figheldean,SP4,51.2232,-1.7827
1289,Wiltshire,WIL,Winterbourne Dauntsey,SP4,51.1122,-1.75
1290,Wiltshire,WIL,Fittleton,SP4,51.2456,-1.7913
1291,Wiltshire,WIL,Porton,SP4,51.1284,-1.7323
1292,Wiltshire,WIL,Milston,SP4,51.2062,-1.769
1293,Wiltshire,WIL,Durrington,SP4,51.1987,-1.7718
1294,Wiltshire,WIL,Idmiston,SP4,51.1376,-1.7208
1295,Wiltshire,WIL,Upper Woodford,SP4,51.1679,-1.7646
1296,Wiltshire,WIL,Winterbourne Earls,SP4,51.1063,-1.755
1297,Wiltshire,WIL,Wilsford,SP4,51.1679,-1.7646
1298,Wiltshire,WIL,Newton Tony,SP4,51.1644,-1.6899
1299,Wiltshire,WIL,Countess,SP4,51.1679,-1.7646
1300,Wiltshire,WIL,West Amesbury,SP4,51.1679,-1.7646
1301,Wiltshire,WIL,Lake,SP4,51.1679,-1.7646
1302,Wiltshire,WIL,Lower Woodford,SP4,51.1679,-1.7646
1303,Wiltshire,WIL,Bulford Camp,SP4,51.1679,-1.7646
1304,Wiltshire,WIL,Middle Woodford,SP4,51.1679,-1.7646
1305,Wiltshire,WIL,Gomeldon,SP4,51.1679,-1.7646
1306,Wiltshire,WIL,Great Durnford,SP4,51.1679,-1.7646
1307,Wiltshire,WIL,Netton,SP4,51.1679,-1.7646
1308,Wiltshire,WIL,East Grimstead,SP5,51.0505,-1.6785
1309,Wiltshire,WIL,Bowerchalke,SP5,51,-1.9667
1310,Wiltshire,WIL,Britford,SP5,51.0542,-1.7735
1311,Wiltshire,WIL,Downton,SP5,51,-1.7333
1312,Wiltshire,WIL,Landford,SP5,50.9683,-1.6354
1313,Wiltshire,WIL,Odstock,SP5,51.0344,-1.7926
1314,Wiltshire,WIL,Tollard Royal,SP5,50.9596,-2.0805
1315,Wiltshire,WIL,West Dean,SP5,51.0426,-1.6351
1316,Wiltshire,WIL,Farley,SP5,51.05,-1.6833
1317,Wiltshire,WIL,Alvediston,SP5,51.0101,-2.0348
1318,Wiltshire,WIL,Pitton,SP5,51.0667,-1.7
1319,Wiltshire,WIL,Winterslow,SP5,51.0972,-1.6631
1320,Wiltshire,WIL,Broad Chalke,SP5,51.0272,-1.9485
1321,Wiltshire,WIL,Middle Winterslow,SP5,51.0935,-1.6545
1322,Wiltshire,WIL,Bishopstone,SP5,51.0303,-1.9027
1323,Wiltshire,WIL,Coombe Bissett,SP5,51.0363,-1.8458
1324,Wiltshire,WIL,Alderbury,SP5,51.0435,-1.7338
1325,Wiltshire,WIL,West Grimstead,SP5,51.0393,-1.7009
1326,Wiltshire,WIL,Redlynch,SP5,50.9873,-1.7116
1327,Wiltshire,WIL,Wick,SP5,51.0209,-1.7739
1328,Wiltshire,WIL,Whiteparish,SP5,51.0104,-1.6486
1329,Wiltshire,WIL,Deanland,SP5,51.1024,-1.8434
1330,Wiltshire,WIL,West Winterslow,SP5,51.0898,-1.6705
1331,Wiltshire,WIL,Whaddon,SP5,51.0209,-1.7739
1332,Wiltshire,WIL,Lopcombe Corner,SP5,51.1024,-1.8434
1333,Wiltshire,WIL,Nomansland,SP5,51.1024,-1.8434
1334,Wiltshire,WIL,Morgan's Vale,SP5,51.1024,-1.8434
1335,Wiltshire,WIL,North Charford,SP5,51.1024,-1.8434
1336,Wiltshire,WIL,Bodenham,SP5,51.0209,-1.7739
1337,Wiltshire,WIL,Woodminton,SP5,51.1024,-1.8434
1338,Wiltshire,WIL,Homington,SP5,51.1024,-1.8434
1339,Wiltshire,WIL,Newton,SP5,51.0209,-1.7739
1340,Wiltshire,WIL,Nunton,SP5,51.1024,-1.8434
1341,Wiltshire,WIL,Dean,SP5,51.1024,-1.8434
1342,Wiltshire,WIL,Woodcutts,SP5,51.1024,-1.8434
1343,Wiltshire,WIL,Mead End,SP5,51.1024,-1.8434
1344,Wiltshire,WIL,Ebbesborne Wake,SP5,51.0147,-2.0119
1345,Wiltshire,WIL,Hamptworth,SP5,51.1024,-1.8434
1346,Wiltshire,WIL,Woodyates,SP5,51.1024,-1.8434
1347,Wiltshire,WIL,Fifield Bavant,SP5,51.1024,-1.8434
1348,Wiltshire,WIL,Woodfalls,SP5,51.1024,-1.8434
1349,Wiltshire,WIL,Lover,SP5,51.1024,-1.8434
1350,Wiltshire,WIL,Firs Road,SP5,51.1024,-1.8434
1351,Wiltshire,WIL,The Common,SP5,51.1024,-1.8434
1352,Wiltshire,WIL,Stratford Tony,SP5,51.1024,-1.8434
1353,Wiltshire,WIL,Charlton-All-Saints,SP5,51.1024,-1.8434
1354,Wiltshire,WIL,Donhead St Andrew,SP7,51.0208,-2.1206
1355,Wiltshire,WIL,Semley,SP7,51.0414,-2.1558
1356,Wiltshire,WIL,Ludwell,SP7,51.0032,-2.1398
1357,Wiltshire,WIL,Sedgehill,SP7,51.0533,-2.1917
1358,Wiltshire,WIL,Berwick St John,SP7,51,-2.0667
1359,Wiltshire,WIL,Bedchester,SP7,50.9985,-2.0847
1360,Wiltshire,WIL,Donhead St Mary,SP7,50.9985,-2.0847
1361,Wiltshire,WIL,Guy's Marsh,SP7,50.9985,-2.0847
1362,Wiltshire,WIL,Coppleridge,SP7,50.9985,-2.0847
1363,Wiltshire,WIL,Stour Row,SP7,50.9985,-2.0847
1364,Wiltshire,WIL,Cann Common,SP7,50.9985,-2.0847
1365,Wiltshire,WIL,South Tidworth,SP9,51.2314,-1.6632
1366,Wiltshire,WIL,North Tidworth,SP9,51.2333,-1.6667
1367,Wiltshire,WIL,Shipton Bellinger,SP9,51.2324,-1.665
1368,Isle Of Wight,IOW,Mottistone,PO30,50.6518,-1.4271
1369,Isle Of Wight,IOW,Calbourne,PO30,50.6777,-1.4002
1370,Isle Of Wight,IOW,Shalfleet,PO30,50.7014,-1.415
1371,Isle Of Wight,IOW,Newbridge,PO30,50.6869,-1.4193
1372,Isle Of Wight,IOW,Downend,PO30,50.6868,-1.2469
1373,Isle Of Wight,IOW,Newtown,PO30,50.7138,-1.4011
1374,Isle Of Wight,IOW,Shorwell,PO30,50.6445,-1.3549
1375,Isle Of Wight,IOW,Bowcombe,PO30,50.6793,-1.338
1376,Isle Of Wight,IOW,Arreton,PO30,50.678,-1.245
1377,Isle Of Wight,IOW,Merstone,PO30,50.6653,-1.2591
1378,Isle Of Wight,IOW,Brighstone,PO30,50.6426,-1.3948
1379,Isle Of Wight,IOW,Newport,PO30,50.7015,-1.2912
1380,Isle Of Wight,IOW,Blackwater,PO30,50.6667,-1.2833
1381,Isle Of Wight,IOW,Carisbrooke,PO30,50.6928,-1.3175
1382,Isle Of Wight,IOW,Chillerton,PO30,50.6916,-1.3132
1383,Isle Of Wight,IOW,Limerstone,PO30,50.6916,-1.3132
1384,Isle Of Wight,IOW,Gatcombe,PO30,50.6916,-1.3132
1385,Isle Of Wight,IOW,Hunny Hill,PO30,50.6916,-1.3132
1386,Isle Of Wight,IOW,Ningwood,PO30,50.6916,-1.3132
1387,Isle Of Wight,IOW,Yafford,PO30,50.6916,-1.3132
1388,Isle Of Wight,IOW,Parkhurst,PO30,50.6916,-1.3132
1389,Isle Of Wight,IOW,Brook,PO30,50.6916,-1.3132
1390,Isle Of Wight,IOW,Staplers,PO30,50.6916,-1.3132
1391,Isle Of Wight,IOW,Moortown,PO30,50.6916,-1.3132
1392,Isle Of Wight,IOW,Gunville,PO30,50.6916,-1.3132
1393,Isle Of Wight,IOW,Porchfield,PO30,50.6916,-1.3132
1394,Isle Of Wight,IOW,Cowes,PO31,50.7631,-1.2977
1395,Isle Of Wight,IOW,Gurnard,PO31,50.7606,-1.3241
1396,Isle Of Wight,IOW,Northwood,PO31,50.741,-1.3119
1397,Isle Of Wight,IOW,East Cowes,PO32,50.7577,-1.2881
1398,Isle Of Wight,IOW,Osborne,PO32,50.7507,-1.275
1399,Isle Of Wight,IOW,Whippingham,PO32,50.7375,-1.2686
1400,Isle Of Wight,IOW,Wootton Bridge,PO33,50.7244,-1.2369
1401,Isle Of Wight,IOW,Ryde,PO33,50.73,-1.1621
1402,Isle Of Wight,IOW,Fishbourne,PO33,50.733,-1.2118
1403,Isle Of Wight,IOW,Havenstreet,PO33,50.7112,-1.2054
1404,Isle Of Wight,IOW,Wootton Common,PO33,50.7247,-1.2041
1405,Isle Of Wight,IOW,East Ashey,PO33,50.7247,-1.2041
1406,Isle Of Wight,IOW,Quarr Hill,PO33,50.7247,-1.2041
1407,Isle Of Wight,IOW,St Helens,PO33,50.7247,-1.2041
1408,Isle Of Wight,IOW,Binstead,PO33,50.7247,-1.2041
1409,Isle Of Wight,IOW,Haylands,PO33,50.7247,-1.2041
1410,Isle Of Wight,IOW,Seaview,PO34,50.7196,-1.1116
1411,Isle Of Wight,IOW,Nettlestone,PO34,50.7102,-1.1196
1412,Isle Of Wight,IOW,Bembridge,PO35,50.6863,-1.0828
1413,Isle Of Wight,IOW,Hillway,PO35,50.6863,-1.0828
1414,Isle Of Wight,IOW,Sandown,PO36,50.6516,-1.161
1415,Isle Of Wight,IOW,Brading,PO36,50.6799,-1.1457
1416,Isle Of Wight,IOW,Newchurch,PO36,50.6674,-1.2083
1417,Isle Of Wight,IOW,Alverstone,PO36,50.6674,-1.186
1418,Isle Of Wight,IOW,Branstone,PO36,50.666,-1.1739
1419,Isle Of Wight,IOW,Apse Heath,PO36,50.666,-1.1739
1420,Isle Of Wight,IOW,Yaverland,PO36,50.666,-1.1739
1421,Isle Of Wight,IOW,Shanklin,PO37,50.6261,-1.1785
1422,Isle Of Wight,IOW,Luccombe Village,PO37,50.6261,-1.1785
1423,Isle Of Wight,IOW,Chale,PO38,50.5956,-1.3184
1424,Isle Of Wight,IOW,Whitwell,PO38,50.5984,-1.2642
1425,Isle Of Wight,IOW,Ventnor,PO38,50.5948,-1.2037
1426,Isle Of Wight,IOW,Kingston,PO38,50.6301,-1.3234
1427,Isle Of Wight,IOW,Bonchurch,PO38,50.5995,-1.186
1428,Isle Of Wight,IOW,Rookley,PO38,50.6551,-1.2833
1429,Isle Of Wight,IOW,Little Atherfield,PO38,50.605,-1.242
1430,Isle Of Wight,IOW,St Lawrence,PO38,50.5857,-1.2547
1431,Isle Of Wight,IOW,Wroxall,PO38,50.6163,-1.2229
1432,Isle Of Wight,IOW,Niton,PO38,50.587,-1.2849
1433,Isle Of Wight,IOW,Roud,PO38,50.605,-1.242
1434,Isle Of Wight,IOW,Bierley,PO38,50.605,-1.242
1435,Isle Of Wight,IOW,Pyle,PO38,50.605,-1.242
1436,Isle Of Wight,IOW,Whiteley Bank,PO38,50.605,-1.242
1437,Isle Of Wight,IOW,Sandford,PO38,50.605,-1.242
1438,Isle Of Wight,IOW,Godshill,PO38,50.6317,-1.2572
1439,Isle Of Wight,IOW,Chale Green,PO38,50.605,-1.242
1440,Isle Of Wight,IOW,Blackgang,PO38,50.605,-1.242
1441,Isle Of Wight,IOW,Totland,PO39,50.6847,-1.5369
1442,Isle Of Wight,IOW,Freshwater,PO40,50.692,-1.5079
1443,Isle Of Wight,IOW,Easton,PO40,50.6824,-1.5219
1444,Isle Of Wight,IOW,Norton Green,PO40,50.6824,-1.5219
1445,Isle Of Wight,IOW,Yarmouth,PO41,50.7053,-1.4993
1446,Isle Of Wight,IOW,Shalcombe,PO41,50.7007,-1.4768
1447,Isle Of Wight,IOW,Norton,PO41,50.7007,-1.4768
1448,Isle Of Wight,IOW,Thorley Street,PO41,50.7007,-1.4768
1449,Isle Of Wight,IOW,Cranmore,PO41,50.7007,-1.4768
1450,Isle Of Wight,IOW,Hamstead,PO41,50.7007,-1.4768
1451,Isle Of Wight,IOW,Wellow,PO41,50.7007,-1.4768
1452,County Of Bristol,,City of Bristol,BS0,51.4646,-2.5636
1453,County Of Bristol,,Bristol,BS1,51.4552,-2.5966
1454,County Of Bristol,,Henbury,BS10,51.5028,-2.6217
1455,County Of Bristol,,Catbrain,BS10,51.5099,-2.6354
1456,County Of Bristol,,Shirehampton,BS11,51.4892,-2.6753
1457,County Of Bristol,,Avonmouth,BS11,51.5101,-2.689
1458,County Of Bristol,,Bishopsworth,BS13,51.4121,-2.612
1459,County Of Bristol,,Fishponds,BS16,51.4817,-2.5236
1460,County Of Bristol,,Bristol,BS2,51.4552,-2.5966
1461,County Of Bristol,,Bristol,BS3,51.4552,-2.5966
1462,County Of Bristol,,Brislington,BS4,51.4335,-2.5472
1463,County Of Bristol,,Knowle,BS4,51.4355,-2.5633
1464,County Of Bristol,,Bristol,BS5,51.462,-2.5519
1465,County Of Bristol,,Bristol,BS6,51.4552,-2.5966
1466,County Of Bristol,,Redland,BS6,51.4708,-2.6003
1467,County Of Bristol,,Cotham,BS6,51.4708,-2.6003
1468,County Of Bristol,,Stapleton,BS7,51.4767,-2.5572
1469,County Of Bristol,,Horfield,BS7,51.4767,-2.5572
1470,County Of Bristol,,Clifton,BS8,51.4611,-2.62
1471,County Of Bristol,,Weston-Super-Mare,BS80,51.502,-2.6153
1472,County Of Bristol,,Westbury on Trym,BS9,51.4874,-2.6266
1473,County Of Bristol,,City of Bristol,BS98,51.4646,-2.5636
1474,County Of Bristol,,Bristol (PO Boxes),BS99,51.4646,-2.5636
1475,Herefordshire,HEF,Ocle Pychard,HR1,52.1167,-2.6
1476,Herefordshire,HEF,Mordiford,HR1,52.0323,-2.628
1477,Herefordshire,HEF,Lugwardine,HR1,52.0658,-2.6578
1478,Herefordshire,HEF,Bartestree,HR1,52.0684,-2.6348
1479,Herefordshire,HEF,Preston Wynne,HR1,52.1207,-2.6455
1480,Herefordshire,HEF,Westhide,HR1,52.0946,-2.606
1481,Herefordshire,HEF,Hampton Bishop,HR1,52.0405,-2.6472
1482,Herefordshire,HEF,Hereford,HR1,52.0568,-2.7148
1483,Herefordshire,HEF,Brockhampton,HR1,51.9833,-2.5833
1484,Herefordshire,HEF,Prior's Frome,HR1,52.1066,-2.5908
1485,Herefordshire,HEF,Withington,HR1,52.1,-2.6333
1486,Herefordshire,HEF,Ullingswick,HR1,52.1436,-2.5938
1487,Herefordshire,HEF,Fownhope,HR1,52.0083,-2.6152
1488,Herefordshire,HEF,Woolhope,HR1,52.018,-2.5667
1489,Herefordshire,HEF,Urdimarsh,HR1,52.1066,-2.5908
1490,Herefordshire,HEF,Bodenham,HR1,52.15,-2.6833
1491,Herefordshire,HEF,Bodenham Moor,HR1,52.1066,-2.5908
1492,Herefordshire,HEF,Holmer,HR1,52.1066,-2.5908
1493,Herefordshire,HEF,Penalt,HR1,52.1066,-2.5908
1494,Herefordshire,HEF,Fiddler's Green,HR1,52.1066,-2.5908
1495,Herefordshire,HEF,Tarrington,HR1,52.063,-2.5544
1496,Herefordshire,HEF,Shucknall,HR1,52.1066,-2.5908
1497,Herefordshire,HEF,Weston Beggard,HR1,52.0775,-2.606
1498,Herefordshire,HEF,Sutton St Nicholas,HR1,52.1066,-2.5908
1499,Herefordshire,HEF,Moreton Jeffries,HR1,52.1066,-2.5908
1500,Herefordshire,HEF,Maund Bryan,HR1,52.1066,-2.5908
1501,Herefordshire,HEF,Fawley Chapel,HR1,52.1066,-2.5908
1502,Herefordshire,HEF,Hagley,HR1,52.0642,-2.672
1503,Herefordshire,HEF,Felton,HR1,52.1295,-2.629
1504,Herefordshire,HEF,How Caple,HR1,51.9731,-2.5686
1505,Herefordshire,HEF,Kings Caple,HR1,51.9598,-2.6362
1506,Herefordshire,HEF,Dormington,HR1,52.0575,-2.6075
1507,Herefordshire,HEF,Marden,HR1,52.1273,-2.6898
1508,Herefordshire,HEF,Pipe and Lyde,HR1,52.0914,-2.7151
1509,Herefordshire,HEF,Sollers Hope,HR1,51.9896,-2.5639
1510,Herefordshire,HEF,Burley Gate,HR1,52.1066,-2.5908
1511,Herefordshire,HEF,Shelwick,HR1,52.1066,-2.5908
1512,Herefordshire,HEF,Yarkhill,HR1,52.1066,-2.5908
1513,Herefordshire,HEF,Walker's Green,HR1,52.1066,-2.5908
1514,Herefordshire,HEF,Checkley,HR1,52.0642,-2.672
1515,Herefordshire,HEF,Tupsley,HR1,52.1066,-2.5908
1516,Herefordshire,HEF,The Vauld,HR1,52.1066,-2.5908
1517,Herefordshire,HEF,Bowley,HR1,52.1066,-2.5908
1518,Herefordshire,HEF,Garway,HR2,51.9004,-2.7833
1519,Herefordshire,HEF,Clodock,HR2,51.9406,-2.9796
1520,Herefordshire,HEF,Michaelchurch Escley,HR2,52.0018,-2.9977
1521,Herefordshire,HEF,Blakemere,HR2,52.0648,-2.9319
1522,Herefordshire,HEF,Broad Oak,HR2,51.8833,-2.75
1523,Herefordshire,HEF,Kentchurch,HR2,51.9276,-2.8576
1524,Herefordshire,HEF,Madley,HR2,52.0444,-2.8474
1525,Herefordshire,HEF,Kingstone,HR2,52.0167,-2.8333
1526,Herefordshire,HEF,Longtown,HR2,51.95,-2.9833
1527,Herefordshire,HEF,Hoarwithy,HR2,51.9597,-2.6636
1528,Herefordshire,HEF,Ewyas Harold,HR2,51.9536,-2.8933
1529,Herefordshire,HEF,Llanveynoe,HR2,51.9667,-3
1530,Herefordshire,HEF,Michaelchurch,HR2,52.0018,-2.9977
1531,Herefordshire,HEF,Tyberton,HR2,52.0521,-2.9029
1532,Herefordshire,HEF,Kilpeck,HR2,51.9694,-2.8075
1533,Herefordshire,HEF,Orcop,HR2,51.9348,-2.7839
1534,Herefordshire,HEF,Pencoyd,HR2,51.9333,-2.7
1535,Herefordshire,HEF,Bacton,HR2,51.9833,-2.9167
1536,Herefordshire,HEF,Turnastone,HR2,52.0167,-2.9333
1537,Herefordshire,HEF,Thruxton,HR2,52,-2.8167
1538,Herefordshire,HEF,Vowchurch,HR2,52.0261,-2.9306
1539,Herefordshire,HEF,Holme Lacy,HR2,52.0177,-2.6505
1540,Herefordshire,HEF,Callow,HR2,52.0167,-2.7333
1541,Herefordshire,HEF,Aconbury,HR2,51.9994,-2.7027
1542,Herefordshire,HEF,Shenmore,HR2,51.9752,-2.7429
1543,Herefordshire,HEF,Rowlstone,HR2,51.9333,-2.9167
1544,Herefordshire,HEF,Little Dewchurch,HR2,51.9829,-2.6802
1545,Herefordshire,HEF,Peterchurch,HR2,52.0419,-2.9557
1546,Herefordshire,HEF,Much Dewchurch,HR2,51.9768,-2.7548
1547,Herefordshire,HEF,Pontrilas,HR2,51.9433,-2.8794
1548,Herefordshire,HEF,Lower Bullingham,HR2,52.0333,-2.7
1549,Herefordshire,HEF,Eaton Bishop,HR2,52.0457,-2.8131
1550,Herefordshire,HEF,Much Birch,HR2,51.9711,-2.7235
1551,Herefordshire,HEF,Abbey Dore,HR2,51.9667,-2.9
1552,Herefordshire,HEF,Dinedor,HR2,52.029,-2.6821
1553,Herefordshire,HEF,Allensmore,HR2,52.0188,-2.7804
1554,Herefordshire,HEF,St Weonards,HR2,51.9167,-2.7167
1555,Herefordshire,HEF,Moccas,HR2,52.077,-2.9426
1556,Herefordshire,HEF,Llanwarne,HR2,51.9501,-2.7196
1557,Herefordshire,HEF,Kerry's Gate,HR2,51.9752,-2.7429
1558,Herefordshire,HEF,Preston on Wye,HR2,52.0695,-2.8988
1559,Herefordshire,HEF,Howton,HR2,51.9752,-2.7429
1560,Herefordshire,HEF,Dewsall Court,HR2,51.9752,-2.7429
1561,Herefordshire,HEF,Ballingham,HR2,51.9853,-2.6253
1562,Herefordshire,HEF,Craswall,HR2,51.9996,-3.029
1563,Herefordshire,HEF,Kenderchurch,HR2,51.9607,-2.8515
1564,Herefordshire,HEF,Walterstone,HR2,51.9167,-2.9577
1565,Herefordshire,HEF,Wormbridge,HR2,51.9727,-2.8442
1566,Herefordshire,HEF,Bolstone,HR2,51.9913,-2.6542
1567,Herefordshire,HEF,Clehonger,HR2,52.0352,-2.7914
1568,Herefordshire,HEF,Llandinabo,HR2,51.9555,-2.7072
1569,Herefordshire,HEF,Grafton,HR2,52.0249,-2.7309
1570,Herefordshire,HEF,Hinton,HR2,52.0099,-2.7851
1571,Herefordshire,HEF,Whitfield,HR2,52.0099,-2.7851
1572,Herefordshire,HEF,Little Garway,HR2,51.9752,-2.7429
1573,Herefordshire,HEF,Kingsthorne,HR2,51.9752,-2.7429
1574,Herefordshire,HEF,Didley,HR2,51.9752,-2.7429
1575,Herefordshire,HEF,Carey,HR2,51.9752,-2.7429
1576,Herefordshire,HEF,Bagwyllydiart,HR2,51.9752,-2.7429
1577,Herefordshire,HEF,Wormelow Tump,HR2,51.9752,-2.7429
1578,Herefordshire,HEF,Webton,HR2,51.9752,-2.7429
1579,Herefordshire,HEF,Orcop Hill,HR2,51.9752,-2.7429
1580,Herefordshire,HEF,Harewood End,HR2,51.9752,-2.7429
1581,Herefordshire,HEF,Garway Hill,HR2,51.9752,-2.7429
1582,Herefordshire,HEF,Twyford Common,HR2,51.9752,-2.7429
1583,Herefordshire,HEF,St Owen's Cross,HR2,51.9752,-2.7429
1584,Herefordshire,HEF,Upper Maes-coed,HR2,51.9752,-2.7429
1585,Herefordshire,HEF,Tretire,HR2,51.9752,-2.7429
1586,Herefordshire,HEF,St Margarets,HR2,51.9752,-2.7429
1587,Herefordshire,HEF,Sandyway,HR2,51.9752,-2.7429
1588,Herefordshire,HEF,Ploughfield,HR2,51.9752,-2.7429
1589,Herefordshire,HEF,Middle Maes-coed,HR2,51.9752,-2.7429
1590,Herefordshire,HEF,Lulham,HR2,51.9752,-2.7429
1591,Herefordshire,HEF,Lower Maes-coed,HR2,51.9752,-2.7429
1592,Herefordshire,HEF,Little Birch,HR2,51.9752,-2.7429
1593,Herefordshire,HEF,Canon Bridge,HR2,51.9752,-2.7429
1594,Herefordshire,HEF,Whitney,HR3,52.1167,-3.0833
1595,Herefordshire,HEF,Eardisley,HR3,52.1404,-3.0084
1596,Herefordshire,HEF,Almeley,HR3,52.159,-2.9763
1597,Herefordshire,HEF,Willersley,HR3,52.1198,-3.0066
1598,Herefordshire,HEF,Winforton,HR3,52.1172,-3.026
1599,Herefordshire,HEF,Bredwardine,HR3,52.095,-2.9767
1600,Herefordshire,HEF,Woonton,HR3,52.1667,-2.95
1601,Herefordshire,HEF,Clifford,HR3,52.1,-3.1
1602,Herefordshire,HEF,Ailey,HR3,52.0649,-3.0304
1603,Herefordshire,HEF,Kinnersley,HR3,52.1333,-2.95
1604,Herefordshire,HEF,Priory Wood,HR3,52.0649,-3.0304
1605,Herefordshire,HEF,Letton,HR3,52.111,-2.9669
1606,Herefordshire,HEF,Dorstone,HR3,52.0667,-3
1607,Herefordshire,HEF,Upper Welson,HR3,52.0649,-3.0304
1608,Herefordshire,HEF,Rhydspence,HR3,52.0649,-3.0304
1609,Herefordshire,HEF,Upcott,HR3,52.0649,-3.0304
1610,Herefordshire,HEF,Lower Welson,HR3,52.0649,-3.0304
1611,Herefordshire,HEF,Merbach,HR3,52.0649,-3.0304
1612,Herefordshire,HEF,Hurstway Common,HR3,52.0649,-3.0304
1613,Herefordshire,HEF,Cwmbach,HR3,52.0945,-3.0906
1614,Herefordshire,HEF,The Bage,HR3,52.0649,-3.0304
1615,Herefordshire,HEF,Pen-y-Park,HR3,52.0649,-3.0304
1616,Herefordshire,HEF,Hardwicke,HR3,52.0945,-3.0906
1617,Herefordshire,HEF,Brilley,HR3,52.1348,-3.0852
1618,Herefordshire,HEF,Brobury,HR3,52.0649,-3.0304
1619,Herefordshire,HEF,Cusop,HR3,52.0722,-3.1127
1620,Herefordshire,HEF,Snodhill,HR3,52.0649,-3.0304
1621,Herefordshire,HEF,Bronydd,HR3,52.0649,-3.0304
1622,Herefordshire,HEF,Byford,HR4,52.0854,-2.8877
1623,Herefordshire,HEF,Burghill,HR4,52.0966,-2.7678
1624,Herefordshire,HEF,Credenhill,HR4,52.0835,-2.808
1625,Herefordshire,HEF,Staunton on Wye,HR4,52.1021,-2.9207
1626,Herefordshire,HEF,Yazor,HR4,52.1167,-2.8667
1627,Herefordshire,HEF,Moreton on Lugg,HR4,52.1072,-2.7223
1628,Herefordshire,HEF,Sarnesfield,HR4,52.1514,-2.922
1629,Herefordshire,HEF,Weobley,HR4,52.1596,-2.875
1630,Herefordshire,HEF,Wellington,HR4,52.1275,-2.749
1631,Herefordshire,HEF,Kenchester,HR4,52.0845,-2.8225
1632,Herefordshire,HEF,Dilwyn,HR4,52.186,-2.8561
1633,Herefordshire,HEF,Birley,HR4,52.1833,-2.8
1634,Herefordshire,HEF,Norton Canon,HR4,52.1219,-2.908
1635,Herefordshire,HEF,Breinton,HR4,52.0856,-2.7631
1636,Herefordshire,HEF,Moorhampton,HR4,52.1207,-2.8924
1637,Herefordshire,HEF,Weobley Marsh,HR4,52.0856,-2.7631
1638,Herefordshire,HEF,Sollers Dilwyn,HR4,52.0856,-2.7631
1639,Herefordshire,HEF,Tillington,HR4,52.0856,-2.7631
1640,Herefordshire,HEF,Monnington on Wye,HR4,52.0856,-2.7631
1641,Herefordshire,HEF,Ledgemoor,HR4,52.0856,-2.7631
1642,Herefordshire,HEF,Knapton Green,HR4,52.0856,-2.7631
1643,Herefordshire,HEF,Haven,HR4,52.0856,-2.7631
1644,Herefordshire,HEF,Bush Bank,HR4,52.0856,-2.7631
1645,Herefordshire,HEF,Brinsop,HR4,52.0856,-2.7631
1646,Herefordshire,HEF,Norton Wood,HR4,52.0856,-2.7631
1647,Herefordshire,HEF,Calver Hill,HR4,52.0856,-2.7631
1648,Herefordshire,HEF,Wellington Marsh,HR4,52.0856,-2.7631
1649,Herefordshire,HEF,Yarsop,HR4,52.0856,-2.7631
1650,Herefordshire,HEF,Wormsley,HR4,52.0856,-2.7631
1651,Herefordshire,HEF,Westhope,HR4,52.0856,-2.7631
1652,Herefordshire,HEF,Tillington Common,HR4,52.0856,-2.7631
1653,Herefordshire,HEF,Bishopstone,HR4,52.0828,-2.8474
1654,Herefordshire,HEF,Mansell Gamage,HR4,52.0979,-2.8854
1655,Herefordshire,HEF,Upper Breinton,HR4,52.0856,-2.7631
1656,Herefordshire,HEF,Dilwyn Common,HR4,52.0856,-2.7631
1657,Herefordshire,HEF,Swainshill,HR4,52.0856,-2.7631
1658,Herefordshire,HEF,Mansell Lacy,HR4,52.1039,-2.8458
1659,Herefordshire,HEF,King's Pyon,HR4,52.1502,-2.8338
1660,Herefordshire,HEF,Canon Pyon,HR4,52.1411,-2.7876
1661,Herefordshire,HEF,Bridge Sollers,HR4,52.0748,-2.8515
1662,Herefordshire,HEF,Stretton Sugwas,HR4,52.0856,-2.7631
1663,Herefordshire,HEF,Portway,HR4,52.0856,-2.7631
1664,Herefordshire,HEF,White Cross,HR4,52.0856,-2.7631
1665,Herefordshire,HEF,Titley,HR5,52.2345,-2.981
1666,Herefordshire,HEF,Lyonshall,HR5,52.198,-2.9747
1667,Herefordshire,HEF,Kingswood Common,HR5,52.1961,-3.0352
1668,Herefordshire,HEF,Kington,HR5,52.2041,-3.0255
1669,Herefordshire,HEF,Hengoed,HR5,52.1961,-3.0352
1670,Herefordshire,HEF,Bryngwyn,HR5,52.1961,-3.0352
1671,Herefordshire,HEF,Veaullt,HR5,52.1961,-3.0352
1672,Herefordshire,HEF,Gwaithla,HR5,52.1961,-3.0352
1673,Herefordshire,HEF,Moorcot,HR5,52.1961,-3.0352
1674,Herefordshire,HEF,Holme Marsh,HR5,52.1961,-3.0352
1675,Herefordshire,HEF,Eywood,HR5,52.1961,-3.0352
1676,Herefordshire,HEF,Dolleycanney,HR5,52.1961,-3.0352
1677,Herefordshire,HEF,Michaelchurch-on-Arrow,HR5,52.1961,-3.0352
1678,Herefordshire,HEF,Upper Hergest,HR5,52.1961,-3.0352
1679,Herefordshire,HEF,Lower Hergest,HR5,52.1961,-3.0352
1680,Herefordshire,HEF,Eardisland,HR6,52.2226,-2.852
1681,Herefordshire,HEF,Eye,HR6,52.2667,-2.7333
1682,Herefordshire,HEF,Pembridge,HR6,52.2183,-2.8926
1683,Herefordshire,HEF,Luston,HR6,52.264,-2.7541
1684,Herefordshire,HEF,Leinthall Earls,HR6,52.3052,-2.8189
1685,Herefordshire,HEF,Eyton,HR6,52.25,-2.75
1686,Herefordshire,HEF,Kingsland,HR6,52.25,-2.8
1687,Herefordshire,HEF,Risbury,HR6,52.1913,-2.6591
1688,Herefordshire,HEF,Yarpole,HR6,52.2797,-2.7813
1689,Herefordshire,HEF,Stoke Prior,HR6,52.2,-2.7
1690,Herefordshire,HEF,Kimbolton,HR6,52.25,-2.7
1691,Herefordshire,HEF,Hope under Dinmore,HR6,52.1833,-2.7167
1692,Herefordshire,HEF,Wigmore,HR6,52.3167,-2.85
1693,Herefordshire,HEF,Stockton,HR6,52.25,-2.7
1694,Herefordshire,HEF,Leominster,HR6,52.2258,-2.7449
1695,Herefordshire,HEF,Docklow,HR6,52.2139,-2.6381
1696,Herefordshire,HEF,Brierley,HR6,52.1888,-2.5893
1697,Herefordshire,HEF,Hatfield,HR6,52.2328,-2.5942
1698,Herefordshire,HEF,Shobdon,HR6,52.2512,-2.8833
1699,Herefordshire,HEF,Stretford Court,HR6,52.1888,-2.5893
1700,Herefordshire,HEF,Aymestrey,HR6,52.2832,-2.844
1701,Herefordshire,HEF,Monkland,HR6,52.1888,-2.5893
1702,Herefordshire,HEF,Marston Stannett,HR6,52.1888,-2.5893
1703,Herefordshire,HEF,Lawton,HR6,52.1888,-2.5893
1704,Herefordshire,HEF,Cobnash,HR6,52.1888,-2.5893
1705,Herefordshire,HEF,Laysters Pole,HR6,52.1888,-2.5893
1706,Herefordshire,HEF,Ivington Green,HR6,52.1888,-2.5893
1707,Herefordshire,HEF,Ivington,HR6,52.1888,-2.5893
1708,Herefordshire,HEF,Grendon Green,HR6,52.1888,-2.5893
1709,Herefordshire,HEF,Broxwood,HR6,52.1888,-2.5893
1710,Herefordshire,HEF,Steen's Bridge,HR6,52.1888,-2.5893
1711,Herefordshire,HEF,Bircher,HR6,52.1888,-2.5893
1712,Herefordshire,HEF,Yatton,HR6,52.2331,-2.7726
1713,Herefordshire,HEF,Aulden,HR6,52.1888,-2.5893
1714,Herefordshire,HEF,Whyle,HR6,52.1888,-2.5893
1715,Herefordshire,HEF,Upper Hill,HR6,52.1888,-2.5893
1716,Herefordshire,HEF,Stansbatch,HR6,52.1888,-2.5893
1717,Herefordshire,HEF,Shirl Heath,HR6,52.1888,-2.5893
1718,Herefordshire,HEF,Pudleston,HR6,52.1888,-2.5893
1719,Herefordshire,HEF,Mortimer's Cross,HR6,52.1888,-2.5893
1720,Herefordshire,HEF,Luntley,HR6,52.1888,-2.5893
1721,Herefordshire,HEF,Lower Lye,HR6,52.1888,-2.5893
1722,Herefordshire,HEF,Lower Barewood,HR6,52.1888,-2.5893
1723,Herefordshire,HEF,Ledicot,HR6,52.1888,-2.5893
1724,Herefordshire,HEF,Humber Court,HR6,52.1888,-2.5893
1725,Herefordshire,HEF,Wharton,HR6,52.2331,-2.7726
1726,Herefordshire,HEF,Barewood,HR6,52.1888,-2.5893
1727,Herefordshire,HEF,Ongar Street,HR6,52.1888,-2.5893
1728,Herefordshire,HEF,Cholstrey,HR6,52.1888,-2.5893
1729,Herefordshire,HEF,Staunton on Arrow,HR6,52.2447,-2.9435
1730,Herefordshire,HEF,Lucton,HR6,52.2734,-2.8291
1731,Herefordshire,HEF,Marston,HR6,52.2331,-2.7726
1732,Herefordshire,HEF,Moreton,HR6,52.2331,-2.7726
1733,Herefordshire,HEF,Grafton,HR6,52.2331,-2.7726
1734,Herefordshire,HEF,Ashton,HR6,52.2331,-2.7726
1735,Herefordshire,HEF,Little Cowarne,HR7,52.1548,-2.5794
1736,Herefordshire,HEF,Bromyard,HR7,52.1902,-2.5087
1737,Herefordshire,HEF,Tedstone Delamere,HR7,52.2255,-2.4512
1738,Herefordshire,HEF,Thornbury,HR7,52.2333,-2.55
1739,Herefordshire,HEF,Much Cowarne,HR7,52.1218,-2.5548
1740,Herefordshire,HEF,Stoke Lacy,HR7,52.1495,-2.5509
1741,Herefordshire,HEF,Tedstone Wafre,HR7,52.1894,-2.5418
1742,Herefordshire,HEF,Collington,HR7,52.25,-2.5167
1743,Herefordshire,HEF,Pencombe,HR7,52.1713,-2.5876
1744,Herefordshire,HEF,Edwyn Ralph,HR7,52.2188,-2.5264
1745,Herefordshire,HEF,Bredenbury,HR7,52.2076,-2.577
1746,Herefordshire,HEF,Bromyard Downs,HR7,52.1894,-2.5418
1747,Herefordshire,HEF,Edvin Loach,HR7,52.1894,-2.5418
1748,Herefordshire,HEF,Munderfield Row,HR7,52.1894,-2.5418
1749,Herefordshire,HEF,Munderfield Stocks,HR7,52.1894,-2.5418
1750,Herefordshire,HEF,Eastnor,HR8,52.0328,-2.3905
1751,Herefordshire,HEF,Castle Frome,HR8,52.1091,-2.491
1752,Herefordshire,HEF,Ashperton,HR8,52.0727,-2.5206
1753,Herefordshire,HEF,Ledbury,HR8,52.0364,-2.4263
1754,Herefordshire,HEF,Canon Frome,HR8,52.0887,-2.5102
1755,Herefordshire,HEF,Bosbury,HR8,52.0884,-2.4436
1756,Herefordshire,HEF,Much Marcle,HR8,51.9947,-2.4999
1757,Herefordshire,HEF,Preston,HR8,52.0448,-2.4451
1758,Herefordshire,HEF,Donnington,HR8,52,-2.4167
1759,Herefordshire,HEF,Putley,HR8,52.0341,-2.515
1760,Herefordshire,HEF,Little Marcle,HR8,52.0271,-2.4826
1761,Herefordshire,HEF,Ludstock,HR8,52.0448,-2.4451
1762,Herefordshire,HEF,Pow Green,HR8,52.0448,-2.4451
1763,Herefordshire,HEF,Chase End Street,HR8,52.0448,-2.4451
1764,Herefordshire,HEF,Stretton Grandison,HR8,52.0955,-2.5347
1765,Herefordshire,HEF,Aylton,HR8,52.0383,-2.4943
1766,Herefordshire,HEF,Munsley,HR8,52.0609,-2.4915
1767,Herefordshire,HEF,Rushall,HR8,52.0448,-2.4451
1768,Herefordshire,HEF,Coddington,HR8,52.0814,-2.4066
1769,Herefordshire,HEF,Wellington Heath,HR8,52.0623,-2.4253
1770,Herefordshire,HEF,Lower Egleton,HR8,52.0448,-2.4451
1771,Herefordshire,HEF,Waller's Green,HR8,52.0448,-2.4451
1772,Herefordshire,HEF,Staplow,HR8,52.0448,-2.4451
1773,Herefordshire,HEF,Fromes Hill,HR8,52.0448,-2.4451
1774,Herefordshire,HEF,Newtown,HR8,52.0448,-2.4451
1775,Herefordshire,HEF,Trumpet,HR8,52.0448,-2.4451
1776,Herefordshire,HEF,Bromsberrow Heath,HR8,52.0448,-2.4451
1777,Herefordshire,HEF,Walford,HR9,51.8833,-2.6
1778,Herefordshire,HEF,Sellack,HR9,51.95,-2.6333
1779,Herefordshire,HEF,Weston under Penyard,HR9,51.9078,-2.5369
1780,Herefordshire,HEF,Ross-on-Wye,HR9,51.9167,-2.5667
1781,Herefordshire,HEF,Symonds Yat,HR9,51.8442,-2.6484
1782,Herefordshire,HEF,Aston Ingham,HR9,51.9102,-2.4597
1783,Herefordshire,HEF,Kerne Bridge,HR9,51.8692,-2.6099
1784,Herefordshire,HEF,Peterstow,HR9,51.9177,-2.634
1785,Herefordshire,HEF,Lea,HR9,51.9,-2.5
1786,Herefordshire,HEF,Marstow,HR9,51.8667,-2.65
1787,Herefordshire,HEF,Whitchurch,HR9,51.85,-2.65
1788,Herefordshire,HEF,Goodrich,HR9,51.871,-2.619
1789,Herefordshire,HEF,Upton Bishop,HR9,51.9402,-2.5056
1790,Herefordshire,HEF,Linton,HR9,51.9333,-2.5
1791,Herefordshire,HEF,Foy,HR9,51.9522,-2.5878
1792,Herefordshire,HEF,Crow Hill,HR9,51.9333,-2.5167
1793,Herefordshire,HEF,Llangarron,HR9,51.8828,-2.6897
1794,Herefordshire,HEF,Coughton,HR9,51.9081,-2.5826
1795,Herefordshire,HEF,Ganarew,HR9,51.8453,-2.6697
1796,Herefordshire,HEF,Hope Mansell,HR9,51.8771,-2.5336
1797,Herefordshire,HEF,Rudhall,HR9,51.9222,-2.535
1798,Herefordshire,HEF,Baysham,HR9,51.9222,-2.535
1799,Herefordshire,HEF,Old Gore,HR9,51.9222,-2.535
1800,Herefordshire,HEF,Bromsash,HR9,51.9222,-2.535
1801,Herefordshire,HEF,Pencraig,HR9,51.9222,-2.535
1802,Herefordshire,HEF,Hom Green,HR9,51.9222,-2.535
1803,Herefordshire,HEF,Hole-in-the-Wall,HR9,51.9222,-2.535
1804,Herefordshire,HEF,Glewstone,HR9,51.9222,-2.535
1805,Herefordshire,HEF,Aston Crews,HR9,51.9222,-2.535
1806,Herefordshire,HEF,Pontshill,HR9,51.9222,-2.535
1807,Herefordshire,HEF,Llangrove,HR9,51.9222,-2.535
1808,Herefordshire,HEF,Gorsley Common,HR9,51.9222,-2.535
1809,Herefordshire,HEF,Bridstow,HR9,51.9179,-2.6103
1810,Herefordshire,HEF,Brampton Abbotts,HR9,51.9361,-2.5719
1811,Herefordshire,HEF,Kinsham,LD8,52.2833,-2.9333
1812,Herefordshire,HEF,Combe,LD8,52.266,-2.9627
1813,Herefordshire,HEF,Knill,LD8,52.2404,-3.0399
1814,Herefordshire,HEF,Stapleton,LD8,52.2788,-2.9972
1815,Herefordshire,HEF,Leintwardine,SY7,52.362,-2.8763
1816,Herefordshire,HEF,Brampton Bryan,SY7,52.3415,-2.9292
1817,Herefordshire,HEF,Adforton,SY7,52.3342,-2.8794
1818,Herefordshire,HEF,Lingen,SY7,52.3,-2.9333
1819,Herefordshire,HEF,Orleton,SY8,52.3,-2.75
1820,Herefordshire,HEF,Leinthall Starkes,SY8,52.3228,-2.8285
1821,Herefordshire,HEF,Elton,SY8,52.3333,-2.8
1822,Herefordshire,HEF,Burrington,SY8,52.35,-2.8167
1823,Herefordshire,HEF,Little Hereford,SY8,52.3148,-2.6555
1824,Herefordshire,HEF,Brimfield,SY8,52.3067,-2.6962
1825,Herefordshire,HEF,Mathon,WR13,52.1099,-2.3908
1826,Herefordshire,HEF,Cradley,WR13,52.1266,-2.3948
1827,Herefordshire,HEF,Whitbourne,WR6,52.2107,-2.4058
1828,Herefordshire,HEF,Stanford Bishop,WR6,52.1654,-2.455
1829,Herefordshire,HEF,Upper Sapey,WR6,52.2678,-2.4626
1830,Herefordshire,HEF,Evesbatch,WR6,52.1333,-2.45
1831,Herefordshire,HEF,Bishop's Frome,WR6,52.1355,-2.4895
1832,Herefordshire,HEF,Acton Beauchamp,WR6,52.1481,-2.4537
1833,Staffordshire,STS,Glascote,B77,52.6251,-1.6746
1834,Staffordshire,STS,Wilnecote,B77,52.6065,-1.6581
1835,Staffordshire,STS,Two Gates,B77,52.6158,-1.6664
1836,Staffordshire,STS,Amington,B77,52.6158,-1.6664
1837,Staffordshire,STS,Dosthill,B77,52.6158,-1.6664
1838,Staffordshire,STS,Kettlebrook,B77,52.6158,-1.6664
1839,Staffordshire,STS,Hopwas,B78,52.642,-1.7415
1840,Staffordshire,STS,Drayton Bassett,B78,52.6,-1.7167
1841,Staffordshire,STS,Fazeley,B78,52.6144,-1.6985
1842,Staffordshire,STS,Bonehill,B78,52.6051,-1.6748
1843,Staffordshire,STS,Hints,B78,52.622,-1.7646
1844,Staffordshire,STS,Clifton Campville,B79,52.6946,-1.6284
1845,Staffordshire,STS,Edingale,B79,52.7068,-1.6891
1846,Staffordshire,STS,Wigginton,B79,52.6573,-1.6925
1847,Staffordshire,STS,Thorpe Constantine,B79,52.6785,-1.618
1848,Staffordshire,STS,Elford,B79,52.691,-1.721
1849,Staffordshire,STS,Haunton,B79,52.6508,-1.6821
1850,Staffordshire,STS,Tamworth,B79,52.634,-1.6959
1851,Staffordshire,STS,No Man's Heath,B79,52.6508,-1.6821
1852,Staffordshire,STS,Harlaston,B79,52.6928,-1.6828
1853,Staffordshire,STS,Warton,B79,52.6508,-1.6821
1854,Staffordshire,STS,Coton,B79,52.6508,-1.6821
1855,Staffordshire,STS,Comberford,B79,52.6508,-1.6821
1856,Staffordshire,STS,Alvecote,B79,52.6508,-1.6821
1857,Staffordshire,STS,Balterley,CW2,53.0495,-2.3673
1858,Staffordshire,STS,Wrinehill,CW3,53.0207,-2.3694
1859,Staffordshire,STS,Madeley Heath,CW3,53,-2.3167
1860,Staffordshire,STS,Madeley,CW3,53,-2.3333
1861,Staffordshire,STS,Betley,CW3,53.0344,-2.3686
1862,Staffordshire,STS,Onneley,CW3,52.9835,-2.3705
1863,Staffordshire,STS,Yoxall,DE13,52.7666,-1.7907
1864,Staffordshire,STS,Tatenhill,DE13,52.7916,-1.6995
1865,Staffordshire,STS,Newborough,DE13,52.8167,-1.8
1866,Staffordshire,STS,Barton-under-Needwood,DE13,52.7627,-1.724
1867,Staffordshire,STS,Horninglow,DE13,52.8224,-1.6422
1868,Staffordshire,STS,Rolleston,DE13,52.8452,-1.646
1869,Staffordshire,STS,Tutbury,DE13,52.856,-1.6865
1870,Staffordshire,STS,Orgreave,DE13,52.8076,-1.6919
1871,Staffordshire,STS,Hanbury,DE13,52.847,-1.7447
1872,Staffordshire,STS,Anslow,DE13,52.8255,-1.6868
1873,Staffordshire,STS,Alrewas,DE13,52.7328,-1.7497
1874,Staffordshire,STS,Dunstall,DE13,52.7667,-1.7333
1875,Staffordshire,STS,Morrey,DE13,52.8076,-1.6919
1876,Staffordshire,STS,Rangemore,DE13,52.8076,-1.6919
1877,Staffordshire,STS,Hanbury Woodend,DE13,52.8076,-1.6919
1878,Staffordshire,STS,Anslow Gate,DE13,52.8076,-1.6919
1879,Staffordshire,STS,Hadley End,DE13,52.8076,-1.6919
1880,Staffordshire,STS,Woodhouses,DE13,52.8076,-1.6919
1881,Staffordshire,STS,Stretton,DE13,52.8325,-1.6279
1882,Staffordshire,STS,Hoar Cross,DE13,52.8071,-1.8093
1883,Staffordshire,STS,King's Bromley,DE13,52.7481,-1.8198
1884,Staffordshire,STS,Burton upon Trent,DE14,52.8073,-1.6426
1885,Staffordshire,STS,Winshill,DE15,52.8071,-1.6033
1886,Staffordshire,STS,Stanton,DE15,52.7986,-1.6085
1887,Staffordshire,STS,Wootton,DE6,53,-1.85
1888,Staffordshire,STS,Alstonefield,DE6,53.0983,-1.8066
1889,Staffordshire,STS,Wetton,DE6,53.0954,-1.8386
1890,Staffordshire,STS,Draycott in the Clay,DE6,52.8571,-1.7745
1891,Staffordshire,STS,Sudbury,DE6,52.8667,-1.75
1892,Staffordshire,STS,Blore,DE6,53.0333,-1.8167
1893,Staffordshire,STS,Ellastone,DE6,52.9851,-1.8266
1894,Staffordshire,STS,Ilam,DE6,53.0548,-1.7996
1895,Staffordshire,STS,Mayfield,DE6,53,-1.7667
1896,Staffordshire,STS,Stanton,DE6,53.015,-1.8179
1897,Staffordshire,STS,Himley,DY3,52.519,-2.1818
1898,Staffordshire,STS,Swindon,DY3,52.5154,-2.2071
1899,Staffordshire,STS,Halfpenny Green,DY7,52.5245,-2.2605
1900,Staffordshire,STS,Enville,DY7,52.4781,-2.2574
1901,Staffordshire,STS,Bobbington,DY7,52.5122,-2.2828
1902,Staffordshire,STS,Whittington,DY7,52.4662,-2.2309
1903,Staffordshire,STS,Potter's Cross,DY7,52.4662,-2.2309
1904,Staffordshire,STS,Gallowstree Elm,DY7,52.4662,-2.2309
1905,Staffordshire,STS,Stourton,DY7,52.4662,-2.2309
