,id,name,address,city,state,zip,county,phone,type,ownership,emergency,quality,LAT,LON
23,23,Bentley Care Centre,4834 52 ave,Bentley,AB,T0C 0J0,,1-800-622-6232,Nursing and residential care facilities,Public Health Agency of Canada,No,5,52.467743999999996,-114.04616000000001
40,40,Breton Health Centre,4919 49 ave,Breton,AB,T0C 0P0,,1-800-622-6232,Nursing and residential care facilities,Public Health Agency of Canada,No,5,53.1092291,-114.4712943
59,59,Carewest — Sarcee,1 Main Street,Calgary,AB,T3E 4T4,,1-800-622-6232,Nursing and residential care facilities,Canadian Institute for Health Information,No,5,51.0500,-114.0667
53,53,Carewest — Dr. Vernon Fanning Centre,1 Main Street,Calgary,AB,T2E 6V7,,1-800-622-6232,Nursing and residential care facilities,Canadian Institute for Health Information,No,5,51.0500,-114.0667
52,52,Carewest — Colonel Belcher,1 Main Street,Calgary,AB,T3B 5Y8,,1-800-622-6232,Nursing and residential care facilities,Canadian Institute for Health Information,No,5,51.0500,-114.0667
56,56,Carewest — Glenmore Park,1 Main Street,Calgary,AB,T2V 1P8,,1-800-622-6232,Nursing and residential care facilities,Canadian Institute for Health Information,No,5,51.0500,-114.0667
178,178,Little Bow Continuing Care Centre,316 armstrong st,Carmangay,AB,T0L 0N0,,1-800-622-6232,Nursing and residential care facilities,Public Health Agency of Canada,No,5,50.124098,-113.108947
292,292,the Good Samaritan Society — Dr. Gerald Zetter Care Centre,9649 71 ave,Edmonton,AB,T6E 5J2,,1-800-622-6232,Nursing and residential care facilities,Public Health Agency of Canada,No,5,53.5072809,-113.477577
1133,1133,Menno Extended Care Hospital,32945 marshall rd,Abbotsford,BC,V2S 1K1,,1-800-622-6232,Nursing and residential care facilities,Public Health Agency of Canada,No,5,49.0384349,-122.31174140000002
1527,1527,South Hills Tertiary Psychiatric Rehabilitation Centre,200 945 southill st,Kamloops,BC,V2B 7Z9,,1-800-622-6232,Nursing and residential care facilities,Public Health Agency of Canada,No,5,50.7033639,-120.3941722
925,925,Hillside Centre,311 columbia st,Kamloops,BC,V2C 2T1,,1-800-622-6232,Nursing and residential care facilities,Public Health Agency of Canada,No,5,50.6701949,-120.3345924
1123,1123,Mckim Cottage,916 eleventh st,Nelson,BC,V1L 7A6,,1-800-622-6232,Nursing and residential care facilities,Public Health Agency of Canada,No,5,49.508589,-117.267255
1669,1669,Trillium Lodge Extended Care Hospital,401 moilliet st,Parksville,BC,V9P 1M9,,1-800-622-6232,Nursing and residential care facilities,Public Health Agency of Canada,No,5,49.31138,-124.325
1171,1171,Mount Tolmie Hospital,3690 richmond rd,Saanich,BC,V8P 4R6,,1-800-622-6232,Nursing and residential care facilities,Public Health Agency of Canada,No,5,48.459924,-123.330454
831,831,George Pearson Centre,700 west 57 ave,Vancouver,BC,V6P 1S1,,1-800-622-6232,Nursing and residential care facilities,Public Health Agency of Canada,No,5,49.21877,-123.121144
370,370,Aberdeen Hospital - Victoria,1450 hillside ave,Victoria,BC,V8T 2B7,,1-800-622-6232,Nursing and residential care facilities,Public Health Agency of Canada,No,5,48.4418999,-123.34299999999999
1791,1791,Williams Lake Community Mental Health and Addiction Services,487 borland st,Williams Lake,BC,V2G 1R9,,1-800-622-6232,Nursing and residential care facilities,Public Health Agency of Canada,No,5,52.1297698,-122.13973680000001
824,824,Gateway Crisis Stabilization Unit,517 6 ave n,Williams Lake,BC,V2G 2G8,,1-800-622-6232,Nursing and residential care facilities,Public Health Agency of Canada,No,5,52.1383395,-122.14311550000001
1875,1875,Emerson Health Centre,26 main st,Emerson-Franklin,MB,R0A 0L0,,1-800-622-6232,Nursing and residential care facilities,Public Health Agency of Canada,No,5,49.0046511,-97.2157093
1972,1972,Riverview Health Centre,1 morley ave e,Winnipeg,MB,R3L 2P4,,1-800-622-6232,Nursing and residential care facilities,Public Health Agency of Canada,No,5,49.868759000000004,-97.119886
1866,1866,Deer Lodge Centre Inc.,2109 portage ave,Winnipeg,MB,R3J 0L3,,1-800-622-6232,Nursing and residential care facilities,Public Health Agency of Canada,No,5,49.8779998,-97.23552020000001
S55,S55,Shannex Rlc Ltd. - Monarch Hall,826 coverdale rd,Moncton,NB,J0S 1K0,,1-800-622-6232,Nursing and residential care facilities,City of Moncton,No,5,46.09155355,-64.79623634
S20,S20,Lefurgey Residence,30 lefurgey ave,Moncton,NB,J0S 1K0,,1-800-622-6232,Nursing and residential care facilities,City of Moncton,No,5,46.09155355,-64.79623634
S54,S54,the Kenneth e. Spencer Nursing Home Inc.,35 atlantic baptist ave,Moncton,NB,J0S 1K0,,1-800-622-6232,Nursing and residential care facilities,City of Moncton,No,5,46.09155355,-64.79623634
S52,S52,Shar's Care,53 weldon st,Moncton,NB,J0S 1K0,,1-800-622-6232,Nursing and residential care facilities,City of Moncton,No,5,46.09155355,-64.79623634
S21,S21,Lj Jaillet Residence Inc.,30 lockhart ave,Moncton,NB,J0S 1K0,,1-800-622-6232,Nursing and residential care facilities,City of Moncton,No,5,46.09155355,-64.79623634
S53,S53,Shar's Care Ii,72 botsford st,Moncton,NB,J0S 1K0,,1-800-622-6232,Nursing and residential care facilities,City of Moncton,No,5,46.09155355,-64.79623634
S50,S50,"Shannex Rlc Limited, Canterbury Hall",824 coverdale rd,Moncton,NB,J0S 1K0,,1-800-622-6232,Nursing and residential care facilities,City of Moncton,No,5,46.09155355,-64.79623634
S49,S49,Residence Austin Inc,620 latour st,Moncton,NB,J0S 1K0,,1-800-622-6232,Nursing and residential care facilities,City of Moncton,No,5,46.09155355,-64.79623634
S48,S48,Residence Virginia Inc,175 virginia ave,Moncton,NB,J0S 1K0,,1-800-622-6232,Nursing and residential care facilities,City of Moncton,No,5,46.09155355,-64.79623634
S47,S47,RESIDENCE REINE DE LA PAIX,700 champlain st,Moncton,NB,J0S 1K0,,1-800-622-6232,Nursing and residential care facilities,City of Moncton,No,5,46.09155355,-64.79623634
S45,S45,Residence Moncton - Aile Centennaire,270 john st,Moncton,NB,J0S 1K0,,1-800-622-6232,Nursing and residential care facilities,City of Moncton,No,5,46.09155355,-64.79623634
S42,S42,Mazerolle Special Care Home Ltd.,448 gauvin rd,Moncton,NB,J0S 1K0,,1-800-622-6232,Nursing and residential care facilities,City of Moncton,No,5,46.09155355,-64.79623634
S22,S22,Maison Bonheur,406 high st,Moncton,NB,J0S 1K0,,1-800-622-6232,Nursing and residential care facilities,City of Moncton,No,5,46.09155355,-64.79623634
S41,S41,Burns Manor,26 bromley ave,Moncton,NB,J0S 1K0,,1-800-622-6232,Nursing and residential care facilities,City of Moncton,No,5,46.09155355,-64.79623634
S23,S23,Manoir Notre-Dame Manor,110 murphy ave,Moncton,NB,J0S 1K0,,1-800-622-6232,Nursing and residential care facilities,City of Moncton,No,5,46.09155355,-64.79623634
S40,S40,Emery House,88 emery st,Moncton,NB,J0S 1K0,,1-800-622-6232,Nursing and residential care facilities,City of Moncton,No,5,46.09155355,-64.79623634
S39,S39,Daly's Home Care Inc,28 trider ct,Moncton,NB,J0S 1K0,,1-800-622-6232,Nursing and residential care facilities,City of Moncton,No,5,46.09155355,-64.79623634
S24,S24,Open Arms Special Care Home,98 glengrove rd,Moncton,NB,J0S 1K0,,1-800-622-6232,Nursing and residential care facilities,City of Moncton,No,5,46.09155355,-64.79623634
S38,S38,AUBERGE DU SOLEIL,125 aucoin st,Moncton,NB,J0S 1K0,,1-800-622-6232,Nursing and residential care facilities,City of Moncton,No,5,46.09155355,-64.79623634
S37,S37,ALOUETTE SPECIAL CARE HOME/FOYER DE SOINS SPECIAUX,2100 amirault st,Moncton,NB,J0S 1K0,,1-800-622-6232,Nursing and residential care facilities,City of Moncton,No,5,46.09155355,-64.79623634
S36,S36,Grass Home Ltd.,774 coverdale rd,Moncton,NB,J0S 1K0,,1-800-622-6232,Nursing and residential care facilities,City of Moncton,No,5,46.09155355,-64.79623634
S25,S25,Residence Aventure,1076 elmwood dr,Moncton,NB,J0S 1K0,,1-800-622-6232,Nursing and residential care facilities,City of Moncton,No,5,46.09155355,-64.79623634
S26,S26,Residence Collette Residence Inc.,64 steadman st,Moncton,NB,J0S 1K0,,1-800-622-6232,Nursing and residential care facilities,City of Moncton,No,5,46.09155355,-64.79623634
S35,S35,Residence Helene Residence Inc,46 winnipeg st,Moncton,NB,J0S 1K0,,1-800-622-6232,Nursing and residential care facilities,City of Moncton,No,5,46.09155355,-64.79623634
S27,S27,Smith Special Care Home Ltd,56 dorchester st,Moncton,NB,J0S 1K0,,1-800-622-6232,Nursing and residential care facilities,City of Moncton,No,5,46.09155355,-64.79623634
S28,S28,Sunset Village,45 leopold f. belliveau dr,Moncton,NB,J0S 1K0,,1-800-622-6232,Nursing and residential care facilities,City of Moncton,No,5,46.09155355,-64.79623634
S34,S34,Sunshine House,164 park st,Moncton,NB,J0S 1K0,,1-800-622-6232,Nursing and residential care facilities,City of Moncton,No,5,46.09155355,-64.79623634
S66,S66,Protem Health Services Inc. - 77 Gorge Road,77 gorge rd,Moncton,NB,J0S 1K0,,1-800-622-6232,Nursing and residential care facilities,City of Moncton,No,5,46.09155355,-64.79623634
S29,S29,Residence Mcdougall,37 mcdougall ave,Moncton,NB,J0S 1K0,,1-800-622-6232,Nursing and residential care facilities,City of Moncton,No,5,46.09155355,-64.79623634
S30,S30,Brae Manor,101 ellerdale ave,Moncton,NB,J0S 1K0,,1-800-622-6232,Nursing and residential care facilities,City of Moncton,No,5,46.09155355,-64.79623634
S33,S33,Trueman House,265 church st,Moncton,NB,J0S 1K0,,1-800-622-6232,Nursing and residential care facilities,City of Moncton,No,5,46.09155355,-64.79623634
S32,S32,Carey House (the),337 cameron st,Moncton,NB,J0S 1K0,,1-800-622-6232,Nursing and residential care facilities,City of Moncton,No,5,46.09155355,-64.79623634
S31,S31,the Briarlea,75 briarlea dr,Moncton,NB,J0S 1K0,,1-800-622-6232,Nursing and residential care facilities,City of Moncton,No,5,46.09155355,-64.79623634
S73,S73,Maison Renaissance Ltee,62 botsford st,Moncton,NB,J0S 1K0,,1-800-622-6232,Nursing and residential care facilities,City of Moncton,No,5,46.09155355,-64.79623634
S76,S76,the Briarlea 4,599 ryan st,Moncton,NB,J0S 1K0,,1-800-622-6232,Nursing and residential care facilities,City of Moncton,No,5,46.09155355,-64.79623634
S75,S75,Shannex Rlc Ltd. - Pavillon Richard,189 morton ave,Moncton,NB,J0S 1K0,,1-800-622-6232,Nursing and residential care facilities,City of Moncton,No,5,46.09155355,-64.79623634
S72,S72,Residence Moncton - Aile Victoria i,240 john st,Moncton,NB,J0S 1K0,,1-800-622-6232,Nursing and residential care facilities,City of Moncton,No,5,46.09155355,-64.79623634
S68,S68,Protem Health Services Inc. - 71 Gorge Road,71 gorge rd,Moncton,NB,J0S 1K0,,1-800-622-6232,Nursing and residential care facilities,City of Moncton,No,5,46.09155355,-64.79623634
S43,S43,Residence Bellevue,36 chartersville rd,Moncton,NB,J0S 1K0,,1-800-622-6232,Nursing and residential care facilities,City of Moncton,No,5,46.09155355,-64.79623634
S67,S67,Protem Health Services Inc. - 61 Gorge Road,61 gorge rd,Moncton,NB,J0S 1K0,,1-800-622-6232,Nursing and residential care facilities,City of Moncton,No,5,46.09155355,-64.79623634
S77,S77,Foyer Chez Nous Moncton,30 burlington ave,Moncton,NB,J0S 1K0,,1-800-622-6232,Nursing and residential care facilities,City of Moncton,No,5,46.09155355,-64.79623634
S65,S65,Hillside View Special Care Home Inc,560 front mountain rd,Moncton,NB,J0S 1K0,,1-800-622-6232,Nursing and residential care facilities,City of Moncton,No,5,46.09155355,-64.79623634
S64,S64,Serenacare by Serene Living Inc,15 lady russell st,Moncton,NB,J0S 1K0,,1-800-622-6232,Nursing and residential care facilities,City of Moncton,No,5,46.09155355,-64.79623634
S78,S78,Golden Years Estate Ltd,25 jabez st,Moncton,NB,J0S 1K0,,1-800-622-6232,Nursing and residential care facilities,City of Moncton,No,5,46.09155355,-64.79623634
S79,S79,LA RéSIDENCE SIESTA LTéE,508 elmwood dr,Moncton,NB,J0S 1K0,,1-800-622-6232,Nursing and residential care facilities,City of Moncton,No,5,46.09155355,-64.79623634
S63,S63,Serenacare Inc,4 briarlea dr,Moncton,NB,J0S 1K0,,1-800-622-6232,Nursing and residential care facilities,City of Moncton,No,5,46.09155355,-64.79623634
S59,S59,Mcnair Manor - 11 Beechwood,11 beechwood ave,Moncton,NB,J0S 1K0,,1-800-622-6232,Nursing and residential care facilities,City of Moncton,No,5,46.09155355,-64.79623634
S57,S57,VILLA DU REPOS INC,125 murphy ave,Moncton,NB,J0S 1K0,,1-800-622-6232,Nursing and residential care facilities,City of Moncton,No,5,46.09155355,-64.79623634
S44,S44,RESIDENCE DU MARAIS LTEE,371 amirault st,Moncton,NB,J0S 1K0,,1-800-622-6232,Nursing and residential care facilities,City of Moncton,No,5,46.09155355,-64.79623634
S46,S46,RéSIDENCE OASIS RESIDENCE INC,855 amirault st,Moncton,NB,J0S 1K0,,1-800-622-6232,Nursing and residential care facilities,City of Moncton,No,5,46.09155355,-64.79623634
S56,S56,the Salvation Army Lakeview Manor,50 suffolk st,Moncton,NB,J0S 1K0,,1-800-622-6232,Nursing and residential care facilities,City of Moncton,No,5,46.09155355,-64.79623634
S18,S18,Autumn Lee Retirement Home Ii,2031 mountain rd,Moncton,NB,J0S 1K0,,1-800-622-6232,Nursing and residential care facilities,City of Moncton,No,5,46.09155355,-64.79623634
S19,S19,Birchmount Lodge,144 birchmount dr,Moncton,NB,J0S 1K0,,1-800-622-6232,Nursing and residential care facilities,City of Moncton,No,5,46.09155355,-64.79623634
2189,2189,the Dr. Leonard a. Miller Centre,100 forest rd,St. John's,NL,A1A 1E5,,1-800-622-6232,Nursing and residential care facilities,Public Health Agency of Canada,No,5,47.576217,-52.695163
2248,2248,Gables Lodge Limited,260 church st,Amherst,NS,B4H 3C9,,1-800-622-6232,Nursing and residential care facilities,Province of Nova Scotia,No,5,45.82493255,-64.18951872
2374,2374,Victoria Manor,14 victoria st w,Amherst,NS,B4H 1B8,,1-800-622-6232,Nursing and residential care facilities,Province of Nova Scotia,No,5,45.82972917,-64.21463348
2223,2223,Centennial Villa,258 church st,Amherst,NS,B4H 3C9,,1-800-622-6232,Nursing and residential care facilities,Province of Nova Scotia,No,5,45.82402994,-64.18990713
2301,2301,Northumberland Hall Continuing Care Residence,189 willow street,Amherst,NS,B4H 3W6,,1-800-622-6232,Nursing and residential care facilities,Province of Nova Scotia,No,5,45.82921455,-64.18958683
2201,2201,Annapolis Royal Nursing Home Limited,9745 highway 8,"Annapolis, Subd. A",NS,B0S 1A0,,1-800-622-6232,Nursing and residential care facilities,Province of Nova Scotia,No,5,44.73538941,-65.50017693
2288,2288,Mountain Lea Lodge,170 church street,"Annapolis, Subd. B",NS,B0S 1C0,,1-800-622-6232,Nursing and residential care facilities,Province of Nova Scotia,No,5,44.84888674,-65.29260802
2335,2335,Saunders Rest Home,9 freeman street,"Annapolis, Subd. B",NS,B0S 1C0,,1-800-622-6232,Nursing and residential care facilities,Province of Nova Scotia,No,5,44.84085709,-65.28885285
2366,2366,Tibbetts Home for Special Care,15074 highway 1,"Annapolis, Subd. C",NS,B0P 1R0,,1-800-622-6232,Nursing and residential care facilities,Province of Nova Scotia,No,5,44.97704128,-64.96906184
2265,2265,Highland Crest Residential Care Facility,44 hillcrest st,Antigonish,NS,B2G 1Z3,,1-800-622-6232,Nursing and residential care facilities,Province of Nova Scotia,No,5,45.6176844,-61.99047184
2328,2328,Rk Macdonald Nursing Home,64 pleasant street,Antigonish,NS,B2G 1W7,,1-800-622-6232,Nursing and residential care facilities,Province of Nova Scotia,No,5,45.62516431,-61.99132033
2341,2341,Sisters of St. Martha,45 bay street,Antigonish,NS,B2G 2G6,,1-800-622-6232,Nursing and residential care facilities,Province of Nova Scotia,No,5,45.63114048,-61.98085488
2293,2293,Nakile Home for Special Care,35 nakile drive,Argyle,NS,B0W 1W0,,1-800-622-6232,Nursing and residential care facilities,Province of Nova Scotia,No,5,43.79122868,-65.86173664
2313,2313,PONT DU MARAIS HOME LTD,1526 highway 335,Argyle,NS,B0W 2C0,,1-800-622-6232,Nursing and residential care facilities,Province of Nova Scotia,No,5,43.63821368,-65.80187492
2204,2204,Bay Side Home Corporation,96 bayside drive,Barrington,NS,B0W 1E0,,1-800-622-6232,Nursing and residential care facilities,Province of Nova Scotia,No,5,43.54844926,-65.59817351
2267,2267,Hillside Pines Home for Special Care,77 exhibition dr,Bridgewater,NS,B4V 3K6,,1-800-622-6232,Nursing and residential care facilities,Province of Nova Scotia,No,5,44.36887146,-64.52064795
2332,2332,Ryan Hall,313 hollingsworth drive,Bridgewater,NS,B4V 0A3,,1-800-622-6232,Nursing and residential care facilities,Province of Nova Scotia,No,5,44.38345744,-64.50550609
2286,2286,Miner's Memorial Manor,15 lorne st,Cape Breton,NS,B1V 3B9,,1-800-622-6232,Nursing and residential care facilities,Province of Nova Scotia,No,5,46.23959752,-60.21829662
2337,2337,Seaview Manor,275 south street,Cape Breton,NS,B1A 1W6,,1-800-622-6232,Nursing and residential care facilities,Province of Nova Scotia,No,5,46.18448967,-59.93643857
2279,2279,Maple Hill Manor,700 king st,Cape Breton,NS,B1H 3Z5,,1-800-622-6232,Nursing and residential care facilities,Province of Nova Scotia,No,5,46.24071186,-60.08543333
2258,2258,Harbourstone Enhanced Care Limited,84 kenwood dr,Cape Breton,NS,B1S 3V7,,1-800-622-6232,Nursing and residential care facilities,Province of Nova Scotia,No,5,46.10704016,-60.21381807
2354,2354,Taigh Na Mara Facility,974 main street,Cape Breton,NS,B1A 4Z8,,1-800-622-6232,Nursing and residential care facilities,Province of Nova Scotia,No,5,46.19945045,-59.977686899999995
2355,2355,Taigh Solas,520 purves street,Cape Breton,NS,B2A 3M4,,1-800-622-6232,Nursing and residential care facilities,Province of Nova Scotia,No,5,46.21820836,-60.23555151
2220,2220,Carefield Manor Ltd,1 dryden ave,Cape Breton,NS,B1S 1V3,,1-800-622-6232,Nursing and residential care facilities,Province of Nova Scotia,No,5,46.1708223,-60.1673939
2345,2345,Southview Guest Home Ltd.,2027 highway 28,Cape Breton,NS,B1N 3H6,,1-800-622-6232,Nursing and residential care facilities,Province of Nova Scotia,No,5,46.186236799999996,-60.19756978
2358,2358,the Cove Guest Home,320 alexandra street,Cape Breton,NS,B1S 2G1,,1-800-622-6232,Nursing and residential care facilities,Province of Nova Scotia,No,5,46.12106735,-60.19770963
2234,2234,Dutch Brook Guest Home,2400 highway 327,Cape Breton,NS,B1L 1G1,,1-800-622-6232,Nursing and residential care facilities,Province of Nova Scotia,No,5,46.05163944,-60.20140324
2298,2298,Northside Community Guest Home,11 queen st,Cape Breton,NS,B2A 1A2,,1-800-622-6232,Nursing and residential care facilities,Province of Nova Scotia,No,5,46.19500767,-60.26263014
2233,2233,Dominion Community Guest Home,79 commercial st,Cape Breton,NS,B1G 1B3,,1-800-622-6232,Nursing and residential care facilities,Province of Nova Scotia,No,5,46.21071558,-60.02235419
2373,2373,Victoria Haven Nursing Home,5 third st,Cape Breton,NS,B1A 5V2,,1-800-622-6232,Nursing and residential care facilities,Province of Nova Scotia,No,5,46.21158569,-59.96484069
2222,2222,Celtic Court,16 st anthony drive,Cape Breton,NS,B1S 2R5,,1-800-622-6232,Nursing and residential care facilities,Province of Nova Scotia,No,5,46.12197357,-60.19465838
2291,2291,My Cape Breton Home for Seniors - North Sydney,77 campbell street,Cape Breton,NS,B1P 6J1,,1-800-622-6232,Nursing and residential care facilities,Province of Nova Scotia,No,5,46.20477157,-60.26941415
2292,2292,My Cape Breton Home for Seniors - Sydney,137 riverdale drive,Cape Breton,NS,B1R 0A9,,1-800-622-6232,Nursing and residential care facilities,Province of Nova Scotia,No,5,46.11836193,-60.22143907
2326,2326,r.c. Macgillivray Guest Home,25 xavier dr,Cape Breton,NS,B1S 2R9,,1-800-622-6232,Nursing and residential care facilities,Province of Nova Scotia,No,5,46.12356627,-60.19425513
2340,2340,Shoreham Village,50 shoreham village crescent,Chester,NS,B0J 1J0,,1-800-622-6232,Nursing and residential care facilities,Province of Nova Scotia,No,5,44.54485891,-64.23220467
2246,2246,Foyer Celeste Inc,8064 highway 31,Clare,NS,B0W 2J0,,1-800-622-6232,Nursing and residential care facilities,Province of Nova Scotia,No,5,44.18382208,-66.16954720000001
2203,2203,AU LOGIS D'METEGHAN LTD.,8405 highway 1,Clare,NS,B0W 2J0,,1-800-622-6232,Nursing and residential care facilities,Province of Nova Scotia,No,5,44.19395069,-66.1529628
2376,2376,Villa Acadienne,8403 highway 1,Clare,NS,B0W 2J0,,1-800-622-6232,Nursing and residential care facilities,Province of Nova Scotia,No,5,44.19370413,-66.15414223
2384,2384,Willow Lodge,100 blair avennue,"Colchester, Subd. B",NS,B0K 1V0,,1-800-622-6232,Nursing and residential care facilities,Province of Nova Scotia,No,5,45.71116398,-63.29718836
2231,2231,Debert Court,16 dakota road,"Colchester, Subd. B",NS,B0N 1C0,,1-800-622-6232,Nursing and residential care facilities,Province of Nova Scotia,No,5,45.43524004,-63.45367776
2274,2274,Karlaine Place,104 pictou rd,"Colchester, Subd. B",NS,B2N 2S3,,1-800-622-6232,Nursing and residential care facilities,Province of Nova Scotia,No,5,45.37554221,-63.25979318
2378,2378,Vimy Court,130 vimy road,"Colchester, Subd. B",NS,B2N 4J6,,1-800-622-6232,Nursing and residential care facilities,Province of Nova Scotia,No,5,45.3793295,-63.2606517
2243,2243,Elk Court,91 carter road,"Colchester, Subd. C",NS,B0N 1C0,,1-800-622-6232,Nursing and residential care facilities,Province of Nova Scotia,No,5,45.2580136,-63.2772736
2205,2205,Bayview Memorial Health Centre,3375 highway 209,"Cumberland, Subd. A",NS,B0M 1A0,,1-800-622-6232,Nursing and residential care facilities,Province of Nova Scotia,No,5,45.3462119,-64.79483503
2224,2224,Chignecto Manor,24 bayview manor road,"Cumberland, Subd. A",NS,B0M 1A0,,1-800-622-6232,Nursing and residential care facilities,Province of Nova Scotia,No,5,45.33572452,-64.77821416
2264,2264,High - Crest Springhill Home for Special Care Ltd,11 sproul street,"Cumberland, Subd. B",NS,B0M 1X0,,1-800-622-6232,Nursing and residential care facilities,Province of Nova Scotia,No,5,45.649513,-64.04933620000001
2382,2382,White Birches Retirement Residence,189 fox ranch rd,"Cumberland, Subd. C",NS,B4H 3Y3,,1-800-622-6232,Nursing and residential care facilities,Province of Nova Scotia,No,5,45.84141239,-64.17934846
2238,2238,East Cumberland Lodge,262 gulf shore road,"Cumberland, Subd. D",NS,B0K 1L0,,1-800-622-6232,Nursing and residential care facilities,Province of Nova Scotia,No,5,45.85652617,-63.65756956
2367,2367,Tideview Terrace,74 pleasant street,Digby,NS,B0V 1A0,,1-800-622-6232,Nursing and residential care facilities,Province of Nova Scotia,No,5,44.60922277,-65.76329329
2287,2287,Mitchell's Rest Home,5153 highway 14,East Hants,NS,B1V 3B9,,1-800-622-6232,Nursing and residential care facilities,Province of Nova Scotia,No,5,45.08188105,-63.64660355
2361,2361,the Magnolia,416 highway 2,East Hants,NS,B2T 1E1,,1-800-622-6232,Nursing and residential care facilities,Province of Nova Scotia,No,5,44.95132751,-63.52747659
2385,2385,Willows Manor Limited,2844 highway 2,East Hants,NS,B0N 2H0,,1-800-622-6232,Nursing and residential care facilities,Province of Nova Scotia,No,5,45.088376000000004,-63.40760294
2338,2338,Serenity Lodge,39 russell mckeen drive,East Hants,NS,B2T 1A7,,1-800-622-6232,Nursing and residential care facilities,Province of Nova Scotia,No,5,44.95087375,-63.53505955
2285,2285,Milford Haven Corporation,10558 route 16,Guysborough,NS,B0H 1N0,,1-800-622-6232,Nursing and residential care facilities,Province of Nova Scotia,No,5,45.40211233,-61.50709367
2211,2211,Canso Seaside Manor,1748 union street,Guysborough,NS,B0H 1H0,,1-800-622-6232,Nursing and residential care facilities,Province of Nova Scotia,No,5,45.33262821,-60.98400465
2317,2317,Precision Health - Washmill Lake Drive Appartments,599 washmill lake drive,Halifax,NS,B3G 1M4,,1-800-622-6232,Nursing and residential care facilities,Province of Nova Scotia,No,5,44.65001241,-63.65366567
2259,2259,Harbourview Lodge Continuing Care Centre,22639 highway 7,Halifax,NS,B0J 3B0,,1-800-622-6232,Nursing and residential care facilities,Province of Nova Scotia,No,5,44.920405,-62.53265876
2316,2316,Precision Health - 24 Kincardine Street,24 kincardine street,Halifax,NS,B2X 1H9,,1-800-622-6232,Nursing and residential care facilities,Province of Nova Scotia,No,5,44.69142556,-63.53708654
2315,2315,Precision Health - 16 Rannoch Road,16 rannoch road,Halifax,NS,B9A 3A2,,1-800-622-6232,Nursing and residential care facilities,Province of Nova Scotia,No,5,44.69066361,-63.53563314
2310,2310,Parkstone Enhanced Care Limited,156 parkland drive,Halifax,NS,B3S 1N9,,1-800-622-6232,Nursing and residential care facilities,Province of Nova Scotia,No,5,44.66338256,-63.67207336
2334,2334,Saint Vincent's Nursing Home,2080 windsor st,Halifax,NS,B3K 5B2,,1-800-622-6232,Nursing and residential care facilities,Province of Nova Scotia,No,5,44.64791631,-63.59419064
2202,2202,Arborstone Enhanced Care,126 purcells cove rd,Halifax,NS,B3P 1B5,,1-800-622-6232,Nursing and residential care facilities,Province of Nova Scotia,No,5,44.6328756,-63.60822714
2312,2312,Peter's Place Halifax - Pjd Rehab Housing Incorporated,12 swan crescent,Halifax,NS,B3M 1T6,,1-800-622-6232,Nursing and residential care facilities,Province of Nova Scotia,No,5,44.66905884,-63.65842992
2336,2336,Seabright Rest Home Ltd.,11625 peggys cove road,Halifax,NS,B3Z 2Y1,,1-800-622-6232,Nursing and residential care facilities,Province of Nova Scotia,No,5,44.62317275,-63.92622043
2383,2383,White Hills Long Term Care Centre,297 pockwock road,Halifax,NS,B4B 1N5,,1-800-622-6232,Nursing and residential care facilities,Province of Nova Scotia,No,5,44.744603999999995,-63.805761
2272,2272,Ivy Meadows Continuing Care Centre,125 knowles crescent,Halifax,NS,B4G 1E7,,1-800-622-6232,Nursing and residential care facilities,Province of Nova Scotia,No,5,44.90232904,-63.71091493
2284,2284,Melville Lodge,50 shoreham lane,Halifax,NS,B3P 2R3,,1-800-622-6232,Nursing and residential care facilities,Province of Nova Scotia,No,5,44.62956069,-63.61525121
2307,2307,Ocean View Continuing Care Centre,1909 caldwell road,Halifax,NS,B3G 1M4,,1-800-622-6232,Nursing and residential care facilities,Province of Nova Scotia,No,5,44.60672388,-63.47021578
2306,2306,Oakwood Terrace,10 mount hope avenue,Halifax,NS,B2Y 4K1,,1-800-622-6232,Nursing and residential care facilities,Province of Nova Scotia,No,5,44.65352971,-63.54451843
2280,2280,Maplestone Enhanced Care Limited,245 main ave,Halifax,NS,B3M 1B7,,1-800-622-6232,Nursing and residential care facilities,Province of Nova Scotia,No,5,44.65374305,-63.64920759
2283,2283,Melville Gardens Nursing Home,11 ramsgate lane,Halifax,NS,B3P 2S9,,1-800-622-6232,Nursing and residential care facilities,Province of Nova Scotia,No,5,44.63200392,-63.61463688
2289,2289,Musquodoboit Valley Home for Special Care Association,126 higginsville road,Halifax,NS,B0N 1X0,,1-800-622-6232,Nursing and residential care facilities,Province of Nova Scotia,No,5,45.03997373,-63.13996247
2302,2302,Northwoodcare Bedford Incorporated- Christina & Hedley g. Ivany Place,123 gary martin drive,Halifax,NS,B4B 0G7,,1-800-622-6232,Nursing and residential care facilities,Province of Nova Scotia,No,5,44.72371655,-63.70626578
2365,2365,the Sagewood Continuing Care Centre,345 cobequid road,Halifax,NS,B4C 4E6,,1-800-622-6232,Nursing and residential care facilities,Province of Nova Scotia,No,5,44.76140286,-63.65201397
2357,2357,the Birches,7704 highway 7,Halifax,NS,B0J 2L0,,1-800-622-6232,Nursing and residential care facilities,Province of Nova Scotia,No,5,44.78303535,-63.15833345
2356,2356,the Admiral Long Term Care Centre,6 admiral street,Halifax,NS,B2X 1W4,,1-800-622-6232,Nursing and residential care facilities,Province of Nova Scotia,No,5,44.68431853,-63.54545574
2225,2225,Clarmar Residential Care Facility,200 main street,Halifax,NS,B2X 1S3,,1-800-622-6232,Nursing and residential care facilities,Province of Nova Scotia,No,5,44.68353015,-63.53262551
2206,2206,Bissett Court,74 chameau crescent,Halifax,NS,B2W 0H5,,1-800-622-6232,Nursing and residential care facilities,Province of Nova Scotia,No,5,44.67789912,-63.49031476
2250,2250,Glasgow Hall - Parklands at the Lakes Limited,76 baker dr,Halifax,NS,B2W 0C7,,1-800-622-6232,Nursing and residential care facilities,Province of Nova Scotia,No,5,44.66571626,-63.53063283
2351,2351,Sunshine Personal Home Care Inc.,38 a withrod dr,Halifax,NS,B3N 1B1,,1-800-622-6232,Nursing and residential care facilities,Province of Nova Scotia,No,5,44.63301289,-63.62351235
2303,2303,Northwoodcare Incorporated,2615 northwood terr,Halifax,NS,B3K 3S5,,1-800-622-6232,Nursing and residential care facilities,Province of Nova Scotia,No,5,44.65718076,-63.59204668
2247,2247,FOYER PИRE FISET,15092 cabot trail,"Inverness, Subd. A",NS,B0E 1H0,,1-800-622-6232,Nursing and residential care facilities,Province of Nova Scotia,No,5,46.6235201,-61.016535700000006
2269,2269,Inverary Manor,72 maple,"Inverness, Subd. B",NS,B0E 1N0,,1-800-622-6232,Nursing and residential care facilities,Province of Nova Scotia,No,5,46.22671368,-61.30384755
2360,2360,the Heritage House,55 high road,"Inverness, Subd. B",NS,B0E 2W0,,1-800-622-6232,Nursing and residential care facilities,Province of Nova Scotia,No,5,46.01450107,-61.52808448
2244,2244,Evergreen Home for Special Care,655 park st,Kentville,NS,B4N 3V7,,1-800-622-6232,Nursing and residential care facilities,Province of Nova Scotia,No,5,45.07629159,-64.54005837
2309,2309,Orchard Court Continuing Care Residence,155 river street,Kentville,NS,B4N 1G8,,1-800-622-6232,Nursing and residential care facilities,Province of Nova Scotia,No,5,45.07927263,-64.50264685
2380,2380,Wedgewood House for Seniors Limited,19 leverett avenue,Kentville,NS,B4N 2K5,,1-800-622-6232,Nursing and residential care facilities,Province of Nova Scotia,No,5,45.07685084,-64.49156123
2275,2275,Kings Regional Health & Regional Rehabilitation Centre,1349 county home road,"Kings, Subd. A",NS,B2N 2S3,,1-800-622-6232,Nursing and residential care facilities,Province of Nova Scotia,No,5,45.057382000000004,-64.666718
2294,2294,New Visions Home for Seniors,4507 highway 1,"Kings, Subd. A",NS,B0P 1E0,,1-800-622-6232,Nursing and residential care facilities,Province of Nova Scotia,No,5,45.03433004,-64.72327232
2252,2252,Grand View Manor,110 commercial street,"Kings, Subd. A",NS,B0P 1E0,,1-800-622-6232,Nursing and residential care facilities,Province of Nova Scotia,No,5,45.03538522,-64.72859639
2207,2207,Blomidon Court,58 jessicas way,"Kings, Subd. D",NS,B4P 0B2,,1-800-622-6232,Nursing and residential care facilities,Province of Nova Scotia,No,5,45.07640112,-64.40682884
2352,2352,Surf Lodge Community Continuing Care Centre,73 howe street,Lockeport,NS,B0T 1L0,,1-800-622-6232,Nursing and residential care facilities,Province of Nova Scotia,No,5,43.70157259,-65.11747788
2329,2329,Rosedale Home for Special Care,4927 highway trunk 10,Lunenburg,NS,B0R 1E0,,1-800-622-6232,Nursing and residential care facilities,Province of Nova Scotia,No,5,44.53721096,-64.71115891
2311,2311,Peter's Place (Pjd Rehab Housing Inc.),326 huey lake road,Lunenburg,NS,B0R 1G0,,1-800-622-6232,Nursing and residential care facilities,Province of Nova Scotia,No,5,44.25792189,-64.41615526
2277,2277,Lohnes Rest Home,97 lakeview dr,Lunenburg,NS,B0R 1A0,,1-800-622-6232,Nursing and residential care facilities,Province of Nova Scotia,No,5,44.58428314,-64.64425866
2257,2257,Harbour View Haven,25 blockhouse hill rd,Lunenburg,NS,B0J 2C0,,1-800-622-6232,Nursing and residential care facilities,Province of Nova Scotia,No,5,44.377073700000004,-64.30247321
2278,2278,Mahone Nursing Home,640 main,Mahone Bay,NS,B0J 2E0,,1-800-622-6232,Nursing and residential care facilities,Province of Nova Scotia,No,5,44.4477332,-64.3771694
2260,2260,Heart of the Valley - Long Term Care Centre,89 north street,Middleton,NS,B0S 1P0,,1-800-622-6232,Nursing and residential care facilities,Province of Nova Scotia,No,5,44.95050711,-65.06681003
2368,2368,Townsview Estates,310 abenaki road,Millbrook 27,NS,B2N 5Z5,,1-800-622-6232,Nursing and residential care facilities,Province of Nova Scotia,No,5,45.33779325,-63.30136407
2251,2251,Glen Haven Manor,739 east river rd,New Glasgow,NS,B2H 5E9,,1-800-622-6232,Nursing and residential care facilities,Province of Nova Scotia,No,5,45.57493525,-62.64393570000001
2262,2262,High - Crest Place,222 provost st,New Glasgow,NS,B2H 2R3,,1-800-622-6232,Nursing and residential care facilities,Province of Nova Scotia,No,5,45.58571686,-62.64514469
2261,2261,High - Crest Home New Glasgow,253 forbes st,New Glasgow,NS,B2H 4P5,,1-800-622-6232,Nursing and residential care facilities,Province of Nova Scotia,No,5,45.58562993,-62.641853399999995
2281,2281,Maritime Odd Fellows Home,143 haliburton rd,Pictou,NS,B0K 1H0,,1-800-622-6232,Nursing and residential care facilities,Province of Nova Scotia,No,5,45.67329614,-62.72274498
2339,2339,Shiretown Nursing Home,280 haliburton rd,Pictou,NS,B0K 1H0,,1-800-622-6232,Nursing and residential care facilities,Province of Nova Scotia,No,5,45.67775737,-62.72953760000001
2371,2371,Valley View Villa,6125 trafalgar road,"Pictou, Subd. B",NS,B4N 5E3,,1-800-622-6232,Nursing and residential care facilities,Province of Nova Scotia,No,5,45.53959114,-62.667273
2314,2314,Port Hawkesbury Nursing Home,2 macquarrie drive extension,Port Hawkesbury,NS,B9A 3A2,,1-800-622-6232,Nursing and residential care facilities,Province of Nova Scotia,No,5,45.619351,-61.35377710000001
2268,2268,Hillsview Acres,14 middlefield road,Queens,NS,B0T 1E0,,1-800-622-6232,Nursing and residential care facilities,Province of Nova Scotia,No,5,44.20916426,-64.86372431
2297,2297,North Queens Nursing Home,9565 highway 8,Queens,NS,B0T 1B0,,1-800-622-6232,Nursing and residential care facilities,Province of Nova Scotia,No,5,44.37646364,-65.01481319999999
2325,2325,Queens Manor,20 hollands dr,Queens,NS,B0T 1K0,,1-800-622-6232,Nursing and residential care facilities,Province of Nova Scotia,No,5,44.03617567,-64.70679145
2327,2327,Richmond Villa,9361 pepperall street,"Richmond, Subd. A",NS,B0E 3B0,,1-800-622-6232,Nursing and residential care facilities,Province of Nova Scotia,No,5,45.65842332,-60.87480584
2346,2346,St. Anne Community and Nursing Care Centre,2313 highway 206,"Richmond, Subd. C",NS,B0E 1A0,,1-800-622-6232,Nursing and residential care facilities,Province of Nova Scotia,No,5,45.51104211,-61.03191108
2331,2331,Roseway Manor Inc.,1604 lake road,Shelburne,NS,B0T 1W0,,1-800-622-6232,Nursing and residential care facilities,Province of Nova Scotia,No,5,43.74876507,-65.30896095
2282,2282,Mary's Abide-a-While Home Ltd,188 water,Shelburne,NS,B0T 1W0,,1-800-622-6232,Nursing and residential care facilities,Province of Nova Scotia,No,5,43.76568776,-65.32470646
2263,2263,High - Crest Sherbrooke Home for Special Care,53 court street,St. Mary's,NS,B0J 3C0,,1-800-622-6232,Nursing and residential care facilities,Province of Nova Scotia,No,5,45.14081795,-61.98116323
2271,2271,Ivey's Terrace Nursing Home,11 centennial drive,Trenton,NS,B0K 1X0,,1-800-622-6232,Nursing and residential care facilities,Province of Nova Scotia,No,5,45.62311588,-62.63141360000001
2389,2389,Wynn Park Villa,32 windor way,Truro,NS,B2N 0B4,,1-800-622-6232,Nursing and residential care facilities,Province of Nova Scotia,No,5,45.35569122,-63.30189093
2363,2363,the Mira,426 young st,Truro,NS,B2N 7B1,,1-800-622-6232,Nursing and residential care facilities,Province of Nova Scotia,No,5,45.34816341,-63.27478112
2221,2221,Cedarstone Enhanced Care Limited,378 young st,Truro,NS,B2N 7H2,,1-800-622-6232,Nursing and residential care facilities,Province of Nova Scotia,No,5,45.35048296,-63.27590922
2266,2266,Highland Manor,175 new haven road,"Victoria, Subd. A",NS,B0C 1N0,,1-800-622-6232,Nursing and residential care facilities,Province of Nova Scotia,No,5,46.81096704,-60.32216494
2198,2198,Alderwood,89 alderewood lane,"Victoria, Subd. B",NS,B0E 1B0,,1-800-622-6232,Nursing and residential care facilities,Province of Nova Scotia,No,5,46.09560382,-60.7655569
2386,2386,Windsor Elms Village for Continuing Care Society,174 dyke road,West Hants,NS,B0N 2T0,,1-800-622-6232,Nursing and residential care facilities,Province of Nova Scotia,No,5,44.99494045,-64.17090584
2254,2254,Haliburton Place,89 payzant drive,Windsor,NS,B0N 2T0,,1-800-622-6232,Nursing and residential care facilities,Province of Nova Scotia,No,5,44.98638355,-64.12037375
2235,2235,Dykeland Lodge,124 cottage street,Windsor,NS,B0N 2T0,,1-800-622-6232,Nursing and residential care facilities,Province of Nova Scotia,No,5,44.979763899999995,-64.12698544
2375,2375,Victoria Park Guest Home,350 king street,Windsor,NS,B0N 2T0,,1-800-622-6232,Nursing and residential care facilities,Province of Nova Scotia,No,5,44.99277128,-64.13321305
2388,2388,Wolfville Nursing Home,601 main street,Wolfville,NS,B4P 1E9,,1-800-622-6232,Nursing and residential care facilities,Province of Nova Scotia,No,5,45.08978053,-64.37227286
2387,2387,Wolfville Elms,701 main street,Wolfville,NS,B4P 2N4,,1-800-622-6232,Nursing and residential care facilities,Province of Nova Scotia,No,5,45.08685070000001,-64.37907249999999
2308,2308,Olson's Glo Estate Home for Special Care,143 route 304,Yarmouth,NS,B4A 4J7,,1-800-622-6232,Nursing and residential care facilities,Province of Nova Scotia,No,5,43.848349,-66.12773299999999
2362,2362,the Meadows - Tidal View Manor,339 pleasant st,Yarmouth,NS,B5A 2K9,,1-800-622-6232,Nursing and residential care facilities,Province of Nova Scotia,No,5,43.85050874,-66.1030679
2377,2377,Villa Saint Joseph-Du-Lac,255 highway 1,Yarmouth,NS,B5A 4A5,,1-800-622-6232,Nursing and residential care facilities,Province of Nova Scotia,No,5,43.8692446,-66.11164311
6036,6036,Westney Gardens,1010 westney road n,Ajax,ON,L1T 4K6,,1-800-622-6232,Nursing and residential care facilities,Province of Ontario,No,5,43.87634744,-79.04411590000001
3014,3014,Chartwell Harwood Retirement Residences,240 old harwood avenue,Ajax,ON,L1T 0N2,,1-800-622-6232,Nursing and residential care facilities,Province of Ontario,No,5,43.86504834,-79.02835469
2580,2580,Auberge Plein Soleil,258 telegraphe road,Alfred and Plantagenet,ON,K0B 1A0,,1-800-622-6232,Nursing and residential care facilities,Province of Ontario,No,5,45.55953881,-74.87851758
2940,2940,CENTRE D'ACCUEIL MON CHEZ NOUS,2025 rue lajoie,Alfred and Plantagenet,ON,K0B 1J0,,1-800-622-6232,Nursing and residential care facilities,Province of Ontario,No,5,45.63941613,-74.89555409
4743,4743,PENSION DU BONHEUR,176 st joseph street,Alfred and Plantagenet,ON,K0B 1A0,,1-800-622-6232,Nursing and residential care facilities,Province of Ontario,No,5,45.56088511,-74.87676008
5923,5923,Villa St. Luc,839 rue cartier,Alfred and Plantagenet,ON,K0B 1C0,,1-800-622-6232,Nursing and residential care facilities,Province of Ontario,No,5,45.490573100000006,-74.99346311
5893,5893,Victoria Street Manor,184 victoria street s,Amherstburg,ON,N9V 2K5,,1-800-622-6232,Nursing and residential care facilities,Province of Ontario,No,5,42.10341913,-83.10109981
5163,5163,Seasons Amherstburg,681 front road s,Amherstburg,ON,N9V 0B4,,1-800-622-6232,Nursing and residential care facilities,Province of Ontario,No,5,42.08716293,-83.10768001
3716,3716,"the Grove, Arnprior and District Nursing Home",275 ida street n,Arnprior,ON,K7S 3M7,,1-800-622-6232,Nursing and residential care facilities,Province of Ontario,No,5,45.43909913,-76.36088256
2562,2562,Arnprior Villa,15 arthur street,Arnprior,ON,K7S 1A1,,1-800-622-6232,Nursing and residential care facilities,Province of Ontario,No,5,45.42438943,-76.36493626
3999,3999,Island View Retirement Residence,30 jack crescent,Arnprior,ON,K7S 3Y7,,1-800-622-6232,Nursing and residential care facilities,Province of Ontario,No,5,45.43259743,-76.34723725
3444,3444,Elgin Abbey Lodge,380 first avenue n,Arran-Elderslie,ON,N0G 1L0,,1-800-622-6232,Nursing and residential care facilities,Province of Ontario,No,5,44.31058562,-81.09967099
5621,5621,the Halliday House,166 1 avenue n,Arran-Elderslie,ON,N0G 1L0,,1-800-622-6232,Nursing and residential care facilities,Province of Ontario,No,5,44.304359000000005,-81.097435
4290,4290,Maple View Retirement Residence,2281 county road 45,Asphodel-Norwood,ON,K0L 2V0,,1-800-622-6232,Nursing and residential care facilities,Province of Ontario,No,5,44.37701618,-77.97470459
4086,4086,Kingsway Arms at Aurora Retirement Centre,145 murray drive,Aurora,ON,L4G 2C7,,1-800-622-6232,Nursing and residential care facilities,Province of Ontario,No,5,43.98464644,-79.47641224
3042,3042,Chartwell Park Place Retirement Residence,15055 yonge street,Aurora,ON,L4G 6T4,,1-800-622-6232,Nursing and residential care facilities,Province of Ontario,No,5,43.99495144,-79.46604124
5524,5524,Sunrise Senior Living of Aurora,3 golf links drive,Aurora,ON,L4G 7Y4,,1-800-622-6232,Nursing and residential care facilities,Province of Ontario,No,5,43.99028724,-79.46696414
3017,3017,Chartwell Hollandview Trail Retirement Residence,200 john west way,Aurora,ON,L4G 0E4,,1-800-622-6232,Nursing and residential care facilities,Province of Ontario,No,5,44.00838574,-79.45096614
2586,2586,Aylmer Retirement Residence,258 talbot street e,Aylmer,ON,N5H 1H7,,1-800-622-6232,Nursing and residential care facilities,Province of Ontario,No,5,42.77286835,-80.97801581
3897,3897,Hospice North Hastings,141 hastings street n,Bancroft,ON,K0L 1C0,,1-800-622-6232,Nursing and residential care facilities,Province of Ontario,No,5,45.062426200000004,-77.85599012
5276,5276,Simcoe Terrace,44 donald street,Barrie,ON,L4N 1E3,,1-800-622-6232,Nursing and residential care facilities,Province of Ontario,No,5,44.3868042,-79.70197505
3993,3993,Ioof Seniors Homes Inc.,20 brooks street,Barrie,ON,L4N 7X2,,1-800-622-6232,Nursing and residential care facilities,Province of Ontario,No,5,44.368959499999995,-79.68674065
4437,4437,Mulcaster Mews,130 mulcaster street,Barrie,ON,L4M 3M9,,1-800-622-6232,Nursing and residential care facilities,Province of Ontario,No,5,44.394732899999994,-79.68659285
2986,2986,Chartwell Barrington Retirement Residence,450 yonge street,Barrie,ON,L4N 4E2,,1-800-622-6232,Nursing and residential care facilities,Province of Ontario,No,5,44.3637375,-79.65990624
3718,3718,Grove Park Home for Senior Citizens,234 cook street,Barrie,ON,L4M 4H5,,1-800-622-6232,Nursing and residential care facilities,Province of Ontario,No,5,44.406020700000006,-79.66946724
2602,2602,Barrie Manor Senior Living,340 blake street,Barrie,ON,L4M 1L3,,1-800-622-6232,Nursing and residential care facilities,Province of Ontario,No,5,44.3979773,-79.65571934
3906,3906,Hospice Simcoe,336 penetanguishene road,Barrie,ON,L4M 7C2,,1-800-622-6232,Nursing and residential care facilities,Province of Ontario,No,5,44.4141375,-79.64634494
5049,5049,Roberta Place Retirement Lodge,489 essa road,Barrie,ON,L4N 9E4,,1-800-622-6232,Nursing and residential care facilities,Province of Ontario,No,5,44.3426434,-79.7074458
2512,2512,Amica at Barrie,70 lakeside terrace,Barrie,ON,L4M 0J2,,1-800-622-6232,Nursing and residential care facilities,Province of Ontario,No,5,44.4162674,-79.66788724
3111,3111,Chartwell Whispering Pines Retirement Residence,140 letitia street,Barrie,ON,L4N 1P5,,1-800-622-6232,Nursing and residential care facilities,Province of Ontario,No,5,44.391487100000006,-79.71751146
5960,5960,Waterford Barrie Retirement Residence,132 edgehill drive,Barrie,ON,L4N 1M1,,1-800-622-6232,Nursing and residential care facilities,Province of Ontario,No,5,44.3852724,-79.71181576
5191,5191,Serenity Barrie,410 hurst drive,Barrie,ON,L4N 6N1,,1-800-622-6232,Nursing and residential care facilities,Province of Ontario,No,5,44.3733395,-79.66832374
4142,4142,Lanark Health and Community Services,30 bennett street,Beckwith,ON,K7C 4J9,,1-800-622-6232,Nursing and residential care facilities,Province of Ontario,No,5,45.12721059,-76.13043566
3134,3134,Cheshire Homes (Hastings-Prince Edward) Inc.,41 pinnacle street s,Belleville,ON,K8N 3A1,,1-800-622-6232,Nursing and residential care facilities,Province of Ontario,No,5,44.15840816,-77.37946428
4865,4865,Quinte Gardens Retirement Residence,30 college street w,Belleville,ON,K8P 0A9,,1-800-622-6232,Nursing and residential care facilities,Province of Ontario,No,5,44.17668077,-77.39264349
3436,3436,Eden Place Retirement Home,38 everett street,Belleville,ON,K8P 3K2,,1-800-622-6232,Nursing and residential care facilities,Province of Ontario,No,5,44.16443676,-77.38830509
5572,5572,the Bridge Street Retirement Residence,85 bridge street e,Belleville,ON,K8N 1L9,,1-800-622-6232,Nursing and residential care facilities,Province of Ontario,No,5,44.16413397,-77.38004118
2988,2988,Chartwell Bayview Retirement Residence,435 dundas street w,Belleville,ON,K8P 1B6,,1-800-622-6232,Nursing and residential care facilities,Province of Ontario,No,5,44.14640476,-77.40901089
4286,4286,Maple Manor Residence,132 avonlough road,Belleville,ON,K8N 4Z2,,1-800-622-6232,Nursing and residential care facilities,Province of Ontario,No,5,44.14600826,-77.421061
5672,5672,the Richmond Retirement Residence,175 north front street,Belleville,ON,K8P 4Y8,,1-800-622-6232,Nursing and residential care facilities,Province of Ontario,No,5,44.17802507,-77.39062539
2637,2637,Benbowopka Treatment Centre,144 causley street,Blind River,ON,P0R 1B0,,1-800-622-6232,Nursing and residential care facilities,Province of Ontario,No,5,46.18232273,-82.94721488
2675,2675,Blue Water Rest Home,37792 zurich-hensall road,Bluewater,ON,N0M 2T0,,1-800-622-6232,Nursing and residential care facilities,Province of Ontario,No,5,43.41978964,-81.63774028
3021,3021,Chartwell James Street Retirement Residence,148 james street,Bracebridge,ON,P1L 1S7,,1-800-622-6232,Nursing and residential care facilities,Province of Ontario,No,5,45.04370993,-79.31395439
4450,4450,Muskoka Hills Retirement Villa Inc.,690 muskoka road & highway 118 w,Bracebridge,ON,P1L 1W8,,1-800-622-6232,Nursing and residential care facilities,Province of Ontario,No,5,45.04145923,-79.34178940000001
2902,2902,Castle Peak Retirement Residence,56 douglas drive,Bracebridge,ON,P1L 0B9,,1-800-622-6232,Nursing and residential care facilities,Province of Ontario,No,5,45.06571433,-79.32255439
5634,5634,the Leblanc Rest Home,40 toronto street,Bradford West Gwillimbury,ON,L3Z 1N6,,1-800-622-6232,Nursing and residential care facilities,Province of Ontario,No,5,44.11378256,-79.57167119
5623,5623,the Helping Hand on Rhapsody,10 rhapsody crescent,Brampton,ON,L6P 4E7,,1-800-622-6232,Nursing and residential care facilities,Province of Ontario,No,5,43.78734059,-79.74182051
2515,2515,Amica at Brampton,223 main street s,Brampton,ON,L6Y 6H1,,1-800-622-6232,Nursing and residential care facilities,Province of Ontario,No,5,43.67006457,-79.7398157
3480,3480,Estherville Manor,10606 mclaughlin road n,Brampton,ON,L7A 0C9,,1-800-622-6232,Nursing and residential care facilities,Province of Ontario,No,5,43.69601307,-79.79769042
2701,2701,Bramalea Retirement Residence,30 peel centre drive,Brampton,ON,L6T 4G8,,1-800-622-6232,Nursing and residential care facilities,Province of Ontario,No,5,43.71669058,-79.7250052
3330,3330,Crescent Hill Place Retirement,3 crescent hill drive s,Brampton,ON,L6S 2P2,,1-800-622-6232,Nursing and residential care facilities,Province of Ontario,No,5,43.72163358,-79.73643050000001
5058,5058,Rosedale Retirement Residence,12 william street,Brampton,ON,L6V 1L2,,1-800-622-6232,Nursing and residential care facilities,Province of Ontario,No,5,43.69126697,-79.76581591
4895,4895,Red Maple Assistive Living,25 windermere court,Brampton,ON,L6X 2L5,,1-800-622-6232,Nursing and residential care facilities,Province of Ontario,No,5,43.68078827,-79.78407931
3921,3921,House of Wellness Assisted Living,15 milford crescent,Brampton,ON,L6S 3E3,,1-800-622-6232,Nursing and residential care facilities,Province of Ontario,No,5,43.72809588,-79.7407139
3695,3695,Greenway Retirement Village,100 ken whillans drive,Brampton,ON,L6V 0A4,,1-800-622-6232,Nursing and residential care facilities,Province of Ontario,No,5,43.69217287,-79.76373531
3978,3978,Imo's Sunnyside Home,97 curtis drive,Brampton,ON,L6Y 2J6,,1-800-622-6232,Nursing and residential care facilities,Province of Ontario,No,5,43.66526317,-79.7554343
5365,5365,Southbrook Retirement Community,400 ray lawson boulevard,Brampton,ON,L6Y 4G4,,1-800-622-6232,Nursing and residential care facilities,Province of Ontario,No,5,43.65401857,-79.7322165
6094,6094,Woodhall Park Retirement Village,10250 kennedy road,Brampton,ON,L6Z 4N7,,1-800-622-6232,Nursing and residential care facilities,Province of Ontario,No,5,43.72028488,-79.78293342
3135,3135,Cheshire Homes - Peel Cheshire Homes Inc. (Brampton),156 murray street,Brampton,ON,L6X 3L7,,1-800-622-6232,Nursing and residential care facilities,Province of Ontario,No,5,43.69888777,-79.78024741
2708,2708,Brant Community Healthcare System - Willett Hospital Site,238 grand river st n,Brant,ON,N3L 2N7,,1-800-622-6232,Nursing and residential care facilities,Public Health Agency of Canada,No,5,43.2045736,-80.38708390000001
5556,5556,Telfer Place,245 grand river street n,Brant,ON,N3L 3V8,,1-800-622-6232,Nursing and residential care facilities,Province of Ontario,No,5,43.20739846,-80.38649816
2739,2739,Brucefield Manor Retirement Home,657 mount pleasant road,Brant,ON,N0E 1K0,,1-800-622-6232,Nursing and residential care facilities,Province of Ontario,No,5,43.08867,-80.310606
4859,4859,Queensview Retirement Community,70 king edward street,Brant,ON,N3L 0C1,,1-800-622-6232,Nursing and residential care facilities,Province of Ontario,No,5,43.18908096,-80.38626696
4742,4742,Penmarvian Retirement Home,185 grand river street n,Brant,ON,N3L 2N2,,1-800-622-6232,Nursing and residential care facilities,Province of Ontario,No,5,43.19896886,-80.38400806
2977,2977,Charlotte Villa,120 darling street,Brantford,ON,N3T 5W6,,1-800-622-6232,Nursing and residential care facilities,Province of Ontario,No,5,43.14078355,-80.26118952
4703,4703,Park View Retirement Home,254 dalhousie street,Brantford,ON,N3S 3V2,,1-800-622-6232,Nursing and residential care facilities,Province of Ontario,No,5,43.14024625,-80.25491772
5165,5165,Seasons Brantford,55 diana avenue,Brantford,ON,N3T 0C2,,1-800-622-6232,Nursing and residential care facilities,Province of Ontario,No,5,43.12530695,-80.28557542
5228,5228,Sheridan Lodge,6 sheridan street,Brantford,ON,N3T 2P6,,1-800-622-6232,Nursing and residential care facilities,Province of Ontario,No,5,43.14405575,-80.26632602
2712,2712,Brantwood Community Services,25 bell lane,Brantford,ON,N3T 1E1,,1-800-622-6232,Nursing and residential care facilities,Public Health Agency of Canada,No,5,43.128167,-80.27892800000001
5046,5046,Riverview Terrace,104 brant avenue,Brantford,ON,N3T 3H3,,1-800-622-6232,Nursing and residential care facilities,Province of Ontario,No,5,43.14202985,-80.27312212
5457,5457,ST. LEONARD'S COMMUNITY SERVICES,12 market street,Brantford,ON,N3T 5P9,,1-800-622-6232,Nursing and residential care facilities,Province of Ontario,No,5,43.13946185,-80.26359902
4032,4032,John Noble Home,97 mount pleasant street,Brantford,ON,N3T 1T5,,1-800-622-6232,Nursing and residential care facilities,Province of Ontario,No,5,43.12596315,-80.27606552
2507,2507,Amber Lea Place Retirement Residence,384 st paul avenue,Brantford,ON,N3R 4N4,,1-800-622-6232,Nursing and residential care facilities,Province of Ontario,No,5,43.15713846,-80.27468682
5440,5440,St. Joseph's Lifecare Centre,99 wayne gretzky parkway,Brantford,ON,N3S 6T6,,1-800-622-6232,Nursing and residential care facilities,Province of Ontario,No,5,43.14553416,-80.23530631
3098,3098,Chartwell Tranquility Place Retirement Residence,436 powerline road,Brantford,ON,N3T 6G5,,1-800-622-6232,Nursing and residential care facilities,Province of Ontario,No,5,43.18565986,-80.27885003
2551,2551,Applefest Lodge,120 elizabeth street,Brighton,ON,K0K 1H0,,1-800-622-6232,Nursing and residential care facilities,Province of Ontario,No,5,44.04358743,-77.72759309
3652,3652,Golden Pond Retirement Residence,387 goodrich road,Brighton,ON,K0K 1R0,,1-800-622-6232,Nursing and residential care facilities,Province of Ontario,No,5,44.12413954,-77.78791971
3395,3395,Dre's Lodge Inc.,82 river street,Brock,ON,L0C 1H0,,1-800-622-6232,Nursing and residential care facilities,Province of Ontario,No,5,44.26304971,-79.06649504
4281,4281,Maple Court Retirement Residence,5 fourth street,Brockton,ON,N0G 2V0,,1-800-622-6232,Nursing and residential care facilities,Province of Ontario,No,5,44.11737428,-81.15042619
4146,4146,"Lanark, Leeds and Grenville Addictions and Mental Health",25 front avenue w,Brockville,ON,K6V 4J2,,1-800-622-6232,Nursing and residential care facilities,Province of Ontario,No,5,44.59768821,-75.68863117
2720,2720,Bridlewood Manor,1026 bridlewood drive,Brockville,ON,K6V 7J8,,1-800-622-6232,Nursing and residential care facilities,Province of Ontario,No,5,44.61785752,-75.70286837
5069,5069,Royal Brock Retirement Living Inc.,100 steward boulevard,Brockville,ON,K6V 4W3,,1-800-622-6232,Nursing and residential care facilities,Province of Ontario,No,5,44.59730891,-75.69584527
3104,3104,Chartwell Wedgewood Retirement Residence,15 market street e,Brockville,ON,K6V 0A6,,1-800-622-6232,Nursing and residential care facilities,Province of Ontario,No,5,44.59067871,-75.68220626
4190,4190,Light-Haven Home Inc.,38 desbarats street,Bruce Mines,ON,P0R 1C0,,1-800-622-6232,Nursing and residential care facilities,Province of Ontario,No,5,46.303036799999994,-83.78857256
5504,5504,Summit Housing & Outreach Programs,760 brant street,Burlington,ON,L7R 4B7,,1-800-622-6232,Nursing and residential care facilities,Province of Ontario,No,5,43.33226941,-79.80880339
3851,3851,Heritage Place,4151 kilmer drive,Burlington,ON,L7M 5A9,,1-800-622-6232,Nursing and residential care facilities,Province of Ontario,No,5,43.379940000000005,-79.801331
4158,4158,Lasalle Park Retirement Community,18 plains road w,Burlington,ON,L7T 1E9,,1-800-622-6232,Nursing and residential care facilities,Province of Ontario,No,5,43.3061966,-79.8527417
3030,3030,Chartwell Martha's Landing Retirement Residence,2109 lakeshore road,Burlington,ON,L7R 4Z4,,1-800-622-6232,Nursing and residential care facilities,Province of Ontario,No,5,43.32692581,-79.79224629
4731,4731,Pearl and Pine Retirement Residence,390 pearl street,Burlington,ON,L7R 0A4,,1-800-622-6232,Nursing and residential care facilities,Province of Ontario,No,5,43.32623411,-79.79452329
2550,2550,Appleby Place,500 appleby line,Burlington,ON,L7L 5Z6,,1-800-622-6232,Nursing and residential care facilities,Province of Ontario,No,5,43.36821872,-79.75569998
4696,4696,Park Avenue Manor,924 park avenue w,Burlington,ON,L7T 1N7,,1-800-622-6232,Nursing and residential care facilities,Province of Ontario,No,5,43.3045489,-79.8518665
5522,5522,Sunrise of Burlington,5401 lakeshore road,Burlington,ON,L7L 6S5,,1-800-622-6232,Nursing and residential care facilities,Province of Ontario,No,5,43.36880982,-79.72973777
3024,3024,Chartwell Lakeshore Retirement Residence,5314 lakeshore road,Burlington,ON,L7L 6L8,,1-800-622-6232,Nursing and residential care facilities,Province of Ontario,No,5,43.36642542,-79.73256877
5726,5726,the Williamsburg,1893 appleby line,Burlington,ON,L7L 0G5,,1-800-622-6232,Nursing and residential care facilities,Province of Ontario,No,5,43.39273432,-79.78777969
2997,2997,Chartwell Christopher Terrace Retirement Residence,3131 new street,Burlington,ON,L7N 3P8,,1-800-622-6232,Nursing and residential care facilities,Province of Ontario,No,5,43.34219451,-79.78182398
2647,2647,Bethell Hospice,18 king street e,Caledon,ON,L7E 1E8,,1-800-622-6232,Nursing and residential care facilities,Province of Ontario,No,5,43.87985701,-79.73758312
5111,5111,Saint Luke's Place,1624 franklin boulevard,Cambridge,ON,N3C 3P4,,1-800-622-6232,Nursing and residential care facilities,Province of Ontario,No,5,43.4253246,-80.31029116
3051,3051,Chartwell Queen's Square Retirement Residence,10 melville street n,Cambridge,ON,N1S 1H5,,1-800-622-6232,Nursing and residential care facilities,Province of Ontario,No,5,43.36033629,-80.31694255
5909,5909,Vila Nova Place,611 dunbar road,Cambridge,ON,N3H 2T4,,1-800-622-6232,Nursing and residential care facilities,Province of Ontario,No,5,43.38794039,-80.33758986
4312,4312,Marian Residence Retirement Home,640 hillview road,Cambridge,ON,N3H 5H3,,1-800-622-6232,Nursing and residential care facilities,Province of Ontario,No,5,43.39325349,-80.37658168
3538,3538,Fairview Suites Retirement Home,799 concession road,Cambridge,ON,N3H 4L1,,1-800-622-6232,Nursing and residential care facilities,Province of Ontario,No,5,43.398728799999994,-80.34534257
3683,3683,Granite Landing,30 light drive,Cambridge,ON,N1T 0B9,,1-800-622-6232,Nursing and residential care facilities,Province of Ontario,No,5,43.389179999999996,-80.28204865
4141,4141,Lanark County Interval House,1 Main Street,Carleton Place,ON,N7T 7Z6,,1-800-622-6232,Nursing and residential care facilities,Province of Ontario,No,5,45.14061199,-76.14654846
5967,5967,Waterside Retirement Community,105 mcneely avenue,Carleton Place,ON,K7C 0B6,,1-800-622-6232,Nursing and residential care facilities,Province of Ontario,No,5,45.14890439,-76.13653796
2886,2886,Carleton Place Terrace by Symphony,6 arthur street,Carleton Place,ON,K7C 4S4,,1-800-622-6232,Nursing and residential care facilities,Province of Ontario,No,5,45.13261569,-76.13744376
2405,2405,RéSIDENCE ST. FRANЗOIS,790 rue principale,Casselman,ON,K0A 1M0,,1-800-622-6232,Nursing and residential care facilities,Province of Ontario,No,5,45.31639206,-75.09025213
5425,5425,St. Joseph's Health Care London - Southwest Centre for Forensic Mental Health Care,401 sunset drive,Central Elgin,ON,N5R 3C6,,1-800-622-6232,Nursing and residential care facilities,Province of Ontario,No,5,42.74212,-81.190465
5217,5217,Sharbot Lake Retirement Ltd.,14244 road 38,Central Frontenac,ON,K0H 2P0,,1-800-622-6232,Nursing and residential care facilities,Province of Ontario,No,5,44.7728289,-76.68572321
3295,3295,Country View Care,9504 highway 38,Central Frontenac,ON,K0H 1T0,,1-800-622-6232,Nursing and residential care facilities,Province of Ontario,No,5,44.59712177,-76.68879979
2532,2532,Anfield Manor,26 joseph street,Central Huron,ON,N0M 1L0,,1-800-622-6232,Nursing and residential care facilities,Province of Ontario,No,5,43.614670399999994,-81.5405969
2430,2430,Addictions and Mental Health Services - Hastings Prince Edward,52 st lawrence street e,Centre Hastings,ON,K0K 2K0,,1-800-622-6232,Nursing and residential care facilities,Province of Ontario,No,5,44.50567572,-77.47198554
5750,5750,Timber Trails Retirement Residence,167 st lawrence street e,Centre Hastings,ON,K0K 2K0,,1-800-622-6232,Nursing and residential care facilities,Province of Ontario,No,5,44.50598592,-77.46813644
2851,2851,Caressant Care - Fergus,450 queen street e,Centre Wellington,ON,N1M 2Y7,,1-800-622-6232,Nursing and residential care facilities,Province of Ontario,No,5,43.70904655,-80.36985870000001
4811,4811,Portage Ontario,6681 irvine street,Centre Wellington,ON,N0B 1S0,,1-800-622-6232,Nursing and residential care facilities,Province of Ontario,No,5,43.70235774,-80.44308343
3852,3852,Heritage River Retirement Residence,25 wellington drive,Centre Wellington,ON,N0B 1S0,,1-800-622-6232,Nursing and residential care facilities,Province of Ontario,No,5,43.69075054,-80.42694572
3857,3857,Highland Manor Retirement Lodge,110 belsyde street e,Centre Wellington,ON,N1M 1Z5,,1-800-622-6232,Nursing and residential care facilities,Province of Ontario,No,5,43.70112555,-80.3684367
3849,3849,Heritage Lodge,48 wall street,Champlain,ON,K0B 1R0,,1-800-622-6232,Nursing and residential care facilities,Province of Ontario,No,5,45.51589681,-74.65250390000001
2974,2974,Chapleau General Hospital,6 broomhead rd,Chapleau,ON,P0M 1K0,,1-800-622-6232,Nursing and residential care facilities,Public Health Agency of Canada,No,5,47.84117,-83.414963
3437,3437,Eden Villa Retirement & Assisted Living,190 stanley avenue,Chatham-Kent,ON,N7M 3J9,,1-800-622-6232,Nursing and residential care facilities,Province of Ontario,No,5,42.41149633,-82.17726115
5953,5953,Wallaceburg Retirement Residence,70 duke street,Chatham-Kent,ON,N8A 5E4,,1-800-622-6232,Nursing and residential care facilities,Province of Ontario,No,5,42.590975,-82.373237
5192,5192,Serenity Blenheim Independent Living,84 marlborough street n,Chatham-Kent,ON,N0P 1A0,,1-800-622-6232,Nursing and residential care facilities,Province of Ontario,No,5,42.33324553,-82.00312039
4280,4280,Maple City Retirement Inc.,97 mcfarlane avenue,Chatham-Kent,ON,N7L 4V6,,1-800-622-6232,Nursing and residential care facilities,Province of Ontario,No,5,42.41568693,-82.20527286
5642,5642,the Meadows of Wheatley Ltd.,21205 pier road,Chatham-Kent,ON,N0P 2P0,,1-800-622-6232,Nursing and residential care facilities,Province of Ontario,No,5,42.08854906,-82.46064041
3843,3843,Heritage Court Retirement Home,479 hughes street,Chatham-Kent,ON,N0P 1M0,,1-800-622-6232,Nursing and residential care facilities,Province of Ontario,No,5,42.58796186,-82.18427927
5928,5928,Village on the Thames,850 grand avenue w,Chatham-Kent,ON,N7L 5H5,,1-800-622-6232,Nursing and residential care facilities,Province of Ontario,No,5,42.39392303,-82.21580016
5393,5393,St. Andrew's Residence,99 park street,Chatham-Kent,ON,N7M 3R5,,1-800-622-6232,Nursing and residential care facilities,Province of Ontario,No,5,42.40239323,-82.17974525
5926,5926,Village on the Ridge,9 myrtle street,Chatham-Kent,ON,N0P 2C0,,1-800-622-6232,Nursing and residential care facilities,Province of Ontario,No,5,42.43530685,-81.88026626
4702,4702,Park Street Place,650 park street,Chatham-Kent,ON,N0P 1M0,,1-800-622-6232,Nursing and residential care facilities,Province of Ontario,No,5,42.58488156,-82.18674717
4622,4622,Oaks Retirement Village,80 mcnaughton avenue,Chatham-Kent,ON,N8A 1R9,,1-800-622-6232,Nursing and residential care facilities,Province of Ontario,No,5,42.58242885,-82.38245203
2668,2668,Blenheim Community Village,10 mary avenue,Chatham-Kent,ON,N0P 1A0,,1-800-622-6232,Nursing and residential care facilities,Province of Ontario,No,5,42.33971663,-81.98799919
3120,3120,Chatham Retirement Resort,25 keil drive n,Chatham-Kent,ON,N7L 5J9,,1-800-622-6232,Nursing and residential care facilities,Province of Ontario,No,5,42.39499053,-82.21070246
3923,3923,Hudson Manor,36 lawson street,Chatham-Kent,ON,N0P 2L0,,1-800-622-6232,Nursing and residential care facilities,Province of Ontario,No,5,42.26072459,-82.42339301
4013,4013,Jardins Belle Rive,2950 laurier street,Clarence-Rockland,ON,K4K 1T3,,1-800-622-6232,Nursing and residential care facilities,Province of Ontario,No,5,45.53800249,-75.30540212
3918,3918,Hotel-Dieu Grace Healthcare Css,845 saint jean street,Clarence-Rockland,ON,K4K 1K5,,1-800-622-6232,Nursing and residential care facilities,Province of Ontario,No,5,45.54524319,-75.29106901
5099,5099,RéSIDENCE ST-MATHIEU,3140 gendron road,Clarence-Rockland,ON,K0A 2A0,,1-800-622-6232,Nursing and residential care facilities,Province of Ontario,No,5,45.440251,-75.23995500000001
4275,4275,Manoir Rockland Manor,9045 county road 17,Clarence-Rockland,ON,K4K 0J9,,1-800-622-6232,Nursing and residential care facilities,Province of Ontario,No,5,45.54633329,-75.30048322
3798,3798,Harmony Estate Seniors Residence Inc.,3589 tooley road,Clarington,ON,L1E 2G9,,1-800-622-6232,Nursing and residential care facilities,Province of Ontario,No,5,43.92292826,-78.80593782
2688,2688,Bowmanville Creek Retirement Community,105 queen street,Clarington,ON,L1C 0T3,,1-800-622-6232,Nursing and residential care facilities,Province of Ontario,No,5,43.91037416,-78.68822688
6043,6043,White Cliffe Terrace,1460 highway 2,Clarington,ON,L1E 3C4,,1-800-622-6232,Nursing and residential care facilities,Province of Ontario,No,5,43.90800196,-78.80663142
5166,5166,Seasons Clarington,65 clarington boulevard,Clarington,ON,L1C 0A1,,1-800-622-6232,Nursing and residential care facilities,Province of Ontario,No,5,43.90714436,-78.70603649
2673,2673,Blue Mountain Manor Retirement Residence,236 weir street,Clearview,ON,L0M 1S0,,1-800-622-6232,Nursing and residential care facilities,Province of Ontario,No,5,44.42198169,-80.08361758
5542,5542,Sweet Mays Seniors Residence,328 warrington road,Clearview,ON,L0M 1S0,,1-800-622-6232,Nursing and residential care facilities,Province of Ontario,No,5,44.41322268,-80.07362467
5892,5892,Victoria Retirement Living,100 university avenue e,Cobourg,ON,K9A 1C8,,1-800-622-6232,Nursing and residential care facilities,Province of Ontario,No,5,43.965520500000004,-78.16505992
3207,3207,Cobourg Retirement Residence,310 division street,Cobourg,ON,K9A 3R3,,1-800-622-6232,Nursing and residential care facilities,Province of Ontario,No,5,43.96202309,-78.16625532
5633,5633,the Landmark Assisted Living,130 new densmore road,Cobourg,ON,K9A 5W2,,1-800-622-6232,Nursing and residential care facilities,Province of Ontario,No,5,43.9837753,-78.17209322
4692,4692,Palisade Gardens,240 chapel street,Cobourg,ON,K9A 0E3,,1-800-622-6232,Nursing and residential care facilities,Province of Ontario,No,5,43.9639804,-78.15720412
4008,4008,James Club,239 james street e,Cobourg,ON,K9A 0K6,,1-800-622-6232,Nursing and residential care facilities,Province of Ontario,No,5,43.9639789,-78.15720372
2591,2591,Balmoral Place Retirement Community,8 harbour street w,Collingwood,ON,L9Y 5B4,,1-800-622-6232,Nursing and residential care facilities,Province of Ontario,No,5,44.50769829,-80.23972254
3008,3008,Chartwell Georgian Traditions Retirement Residence,57 trott boulevard,Collingwood,ON,L9Y 0A3,,1-800-622-6232,Nursing and residential care facilities,Province of Ontario,No,5,44.50987989,-80.23901844
4781,4781,Pine Villa Retirement,120 pine street,Collingwood,ON,L9Y 2N9,,1-800-622-6232,Nursing and residential care facilities,Province of Ontario,No,5,44.49980349,-80.21902023
3892,3892,Hospice Georgian Triangle,240 erie street,Collingwood,ON,L9Y 0X8,,1-800-622-6232,Nursing and residential care facilities,Province of Ontario,No,5,44.50132959,-80.20234612
4882,4882,Raglan Village Retirement,89 raglan street,Collingwood,ON,L9Y 0B2,,1-800-622-6232,Nursing and residential care facilities,Province of Ontario,No,5,44.50144059,-80.19995002
5032,5032,Riverdale Terrace Waterfront Retirement Residence,1200 second street w,Cornwall,ON,K6J 1J3,,1-800-622-6232,Nursing and residential care facilities,Province of Ontario,No,5,45.01145502,-74.75926099
6083,6083,the Care Centre,510 second st e,Cornwall,ON,K6H 1Z6,,1-800-622-6232,Nursing and residential care facilities,Public Health Agency of Canada,No,5,45.029677500000005,-74.7186865
3031,3031,Chartwell Mcconnell Retirement Residence,801 fourth street e,Cornwall,ON,K6H 7M8,,1-800-622-6232,Nursing and residential care facilities,Province of Ontario,No,5,45.02570993,-74.71485918
2995,2995,Chartwell Chateau Cornwall Retirement Residence,41 amelia street,Cornwall,ON,K6H 7E5,,1-800-622-6232,Nursing and residential care facilities,Province of Ontario,No,5,45.01776073,-74.72297518
3846,3846,Heritage Heights Retirement Home Inc,1755 vincent massey drive,Cornwall,ON,K6H 5R6,,1-800-622-6232,Nursing and residential care facilities,Province of Ontario,No,5,45.03177703,-74.768573
3850,3850,Heritage Manor Retirement Home Inc,1545 vincent massey drive,Cornwall,ON,K6H 5R6,,1-800-622-6232,Nursing and residential care facilities,Province of Ontario,No,5,45.03161243,-74.76222209999999
5870,5870,Valley Garden Cornwall Retirement Centre,1320 lisieux street,Cornwall,ON,K6J 4Z4,,1-800-622-6232,Nursing and residential care facilities,Province of Ontario,No,5,45.03169903,-74.75048899
5075,5075,Royal Ottawa Mental Health Centre - Geriatric Outreach Team,132 second street e,Cornwall,ON,K6H 1Y3,,1-800-622-6232,Nursing and residential care facilities,Province of Ontario,No,5,45.01899663,-74.72492888
5114,5114,Sandfield Place,220 emma avenue,Cornwall,ON,K6J 5V8,,1-800-622-6232,Nursing and residential care facilities,Province of Ontario,No,5,45.03749423,-74.75148549
5019,5019,Rideau Ferry Country Home,1333 rideau ferry road,Drummond/North Elmsley,ON,K7H 3C7,,1-800-622-6232,Nursing and residential care facilities,Province of Ontario,No,5,44.85401794,-76.15761694
4802,4802,Pleasant Valley Rest Home,511 queensville side road,East Gwillimbury,ON,L9N 0G1,,1-800-622-6232,Nursing and residential care facilities,Province of Ontario,No,5,44.13128166,-79.48019546
4271,4271,Manoir Carillon Manor Inc.,1988 principale street chute-г,East Hawkesbury,ON,K0B 1B0,,1-800-622-6232,Nursing and residential care facilities,Province of Ontario,No,5,45.58909213,-74.47305594
5637,5637,the Maples Home for Seniors,94 william street,East Zorra-Tavistock,ON,N0B 2R0,,1-800-622-6232,Nursing and residential care facilities,Province of Ontario,No,5,43.31755486,-80.83826132
3084,3084,Chartwell Rosedale Retirement Residence,1813 county road 2 e,Elizabethtown-Kitley,ON,K6V 5T1,,1-800-622-6232,Nursing and residential care facilities,Province of Ontario,No,5,44.60350062,-75.66223536
3868,3868,Hillside Park Retirement Residence,11 mississauga avenue,Elliot Lake,ON,P5A 1E1,,1-800-622-6232,Nursing and residential care facilities,Province of Ontario,No,5,46.37822187,-82.6490677
3584,3584,Fox Run Retirement Home Inc.,5475 trafalgar road,Erin,ON,N0B 1T0,,1-800-622-6232,Nursing and residential care facilities,Province of Ontario,No,5,43.75346767,-80.08819742
3804,3804,Harrowood Seniors Community,1 pollard drive,Essex,ON,N0R 1G0,,1-800-622-6232,Nursing and residential care facilities,Province of Ontario,No,5,42.02966893,-82.92051825
2556,2556,Arid Group Homes (Niagara),89 queen street,Fort Erie,ON,L2A 1T9,,1-800-622-6232,Nursing and residential care facilities,Province of Ontario,No,5,42.90986347,-78.91451317
3606,3606,Garrison Place,373 garrison road,Fort Erie,ON,L2A 1N1,,1-800-622-6232,Nursing and residential care facilities,Province of Ontario,No,5,42.90403357,-78.92909258
4898,4898,Redstacks Retirement Home,303 niagara boulevard,Fort Erie,ON,L2A 3H1,,1-800-622-6232,Nursing and residential care facilities,Province of Ontario,No,5,42.91807758,-78.91163277
5041,5041,"Riverside Health Care Facilities, Inc.",816 church street,Fort Frances,ON,P9A 1G2,,1-800-622-6232,Nursing and residential care facilities,Province of Ontario,No,5,48.60919178,-93.38023505
2436,2436,AIDE AUX SENIORS DE SUDBURY EST/SUDBURY EAST SENIORS SUPPORT INC.,44 st christophe street,French River / Riviиre des Franзais,ON,P0M 2N0,,1-800-622-6232,Nursing and residential care facilities,Province of Ontario,No,5,46.136083,-80.425449
2896,2896,Carveth Care Centre,375 james street,Gananoque,ON,K7G 2Z1,,1-800-622-6232,Nursing and residential care facilities,Province of Ontario,No,5,44.33633895,-76.1592067
3644,3644,Goderich Place Retirement Residence,30 balvina drive e,Goderich,ON,N7A 4L5,,1-800-622-6232,Nursing and residential care facilities,Province of Ontario,No,5,43.72853959,-81.70948703
6088,6088,"Women's Shelter, Second Stage Housing and Counselling Services of Huron",376 huron road,Goderich,ON,N7A 4C6,,1-800-622-6232,Nursing and residential care facilities,Province of Ontario,No,5,43.73321649,-81.69504812
3795,3795,Harbour Hill Retirement Community,104 suncoast drive,Goderich,ON,N7A 0A7,,1-800-622-6232,Nursing and residential care facilities,Province of Ontario,No,5,43.73120259,-81.70494283
3685,3685,Granite Ridge Retirement Residence,1097 bethune drive s,Gravenhurst,ON,P1P 0A8,,1-800-622-6232,Nursing and residential care facilities,Province of Ontario,No,5,44.910601799999995,-79.36804549
5635,5635,the Manor at Gravenhurst,300 muskoka road n,Gravenhurst,ON,P1P 1N8,,1-800-622-6232,Nursing and residential care facilities,Province of Ontario,No,5,44.921844799999995,-79.3745205
5674,5674,the Riverine Independent and Retirement Living,328 dundas street w,Greater Napanee,ON,K7R 4B5,,1-800-622-6232,Nursing and residential care facilities,Province of Ontario,No,5,44.239163,-76.96315799999999
4159,4159,Lasalle Residence for Seniors,1758 lasalle boulevard,Greater Sudbury / Grand Sudbury,ON,P3A 5W4,,1-800-622-6232,Nursing and residential care facilities,Province of Ontario,No,5,46.52276689,-80.93311137
5714,5714,the Walford on the Park (Copper Cliff),38 godfrey drive,Greater Sudbury / Grand Sudbury,ON,P0M 1N0,,1-800-622-6232,Nursing and residential care facilities,Province of Ontario,No,5,46.47788927,-81.06941921
5566,5566,the Amberwood Suites,1385 regent street s,Greater Sudbury / Grand Sudbury,ON,P3E 3Z1,,1-800-622-6232,Nursing and residential care facilities,Province of Ontario,No,5,46.46167978,-81.01101148
5715,5715,the Walford Sudbury,99 walford road,Greater Sudbury / Grand Sudbury,ON,P3E 6K3,,1-800-622-6232,Nursing and residential care facilities,Province of Ontario,No,5,46.46283498,-80.99596918
3032,3032,Chartwell Meadowbrook Retirement Community,18 jacobson drive,Greater Sudbury / Grand Sudbury,ON,P3Y 1P7,,1-800-622-6232,Nursing and residential care facilities,Province of Ontario,No,5,46.42492066,-81.14115202
3109,3109,Chartwell Westmount on William Retirement Residence,599 william avenue,Greater Sudbury / Grand Sudbury,ON,P3A 5E3,,1-800-622-6232,Nursing and residential care facilities,Province of Ontario,No,5,46.50942279,-80.94676907
3091,3091,Chartwell Southwind Retirement Residence,1645 paris street,Greater Sudbury / Grand Sudbury,ON,P3E 6L5,,1-800-622-6232,Nursing and residential care facilities,Province of Ontario,No,5,46.45963938,-81.00297678
4905,4905,Regent Manor,1315 regent street,Greater Sudbury / Grand Sudbury,ON,P3E 3Z1,,1-800-622-6232,Nursing and residential care facilities,Province of Ontario,No,5,46.46335238,-81.01002818
4897,4897,Red Oak Villa,20 ste anne road,Greater Sudbury / Grand Sudbury,ON,P3C 5N4,,1-800-622-6232,Nursing and residential care facilities,Province of Ontario,No,5,46.49554268,-80.99677148
4439,4439,Municipality of Greenstone - Geraldton Site,1800 main street,Greenstone,ON,P0T 1M0,,1-800-622-6232,Nursing and residential care facilities,Province of Ontario,No,5,49.70375969,-86.95431135
4293,4293,Maplecrest,85 main street e,Grimsby,ON,L3M 1N6,,1-800-622-6232,Nursing and residential care facilities,Province of Ontario,No,5,43.1913112,-79.5549473
5211,5211,Shalom Manor Long Term Care Home,12 bartlett avenue,Grimsby,ON,L3M 4N5,,1-800-622-6232,Nursing and residential care facilities,Province of Ontario,No,5,43.1869815,-79.52455129
4191,4191,Lincoln Park Retirement Residence,265 main street e,Grimsby,ON,L3M 1P7,,1-800-622-6232,Nursing and residential care facilities,Province of Ontario,No,5,43.185995,-79.52649269
5428,5428,St. Joseph's Health Centre - Guelph,100 westmount rd,Guelph,ON,N1H 5H8,,1-800-622-6232,Nursing and residential care facilities,Public Health Agency of Canada,No,5,43.549994,-80.272024
3105,3105,Chartwell Wellington Park Retirement Residence,181 janefield avenue,Guelph,ON,N1G 1V2,,1-800-622-6232,Nursing and residential care facilities,Province of Ontario,No,5,43.51693402,-80.24516065
3088,3088,Chartwell Royal on Gordon Retirement Residence,1691 gordon street,Guelph,ON,N1L 1E1,,1-800-622-6232,Nursing and residential care facilities,Province of Ontario,No,5,43.50287752,-80.19348183
3847,3847,Heritage House Guelph,2113 gordon street,Guelph,ON,N1L 1G7,,1-800-622-6232,Nursing and residential care facilities,Province of Ontario,No,5,43.49214642,-80.17916512
5707,5707,the Village of Riverside Glen,60 woodlawn road e,Guelph,ON,N1H 8M8,,1-800-622-6232,Nursing and residential care facilities,Province of Ontario,No,5,43.56915803,-80.27358416
5486,5486,Stonehenge Therapeutic Community Inc.,60 westwood road,Guelph,ON,N1H 7X3,,1-800-622-6232,Nursing and residential care facilities,Province of Ontario,No,5,43.53352352,-80.27614866
3908,3908,Hospice Wellington,795 scottsdale drive,Guelph,ON,N1G 3R8,,1-800-622-6232,Nursing and residential care facilities,Province of Ontario,No,5,43.51061892,-80.22892404
5702,5702,the Village of Arbour Trails,32 bayberry drive,Guelph,ON,N1G 0A2,,1-800-622-6232,Nursing and residential care facilities,Province of Ontario,No,5,43.53209222,-80.21591964
4517,4517,Norfolk Manor,128 norfolk street,Guelph,ON,N1H 4J8,,1-800-622-6232,Nursing and residential care facilities,Province of Ontario,No,5,43.54663653,-80.25378525
5484,5484,Stone Lodge,165 cole road,Guelph,ON,N1G 4N9,,1-800-622-6232,Nursing and residential care facilities,Province of Ontario,No,5,43.51325682,-80.23946794
3403,3403,"Dunara Homes for Recovery, Inc.",329 gordon street,Guelph,ON,N1G 1X7,,1-800-622-6232,Nursing and residential care facilities,Province of Ontario,No,5,43.53418102,-80.23594704
4178,4178,Leisure Living Retirement Home,98 talbot street e,Haldimand County,ON,N0A 1J0,,1-800-622-6232,Nursing and residential care facilities,Province of Ontario,No,5,42.88603672,-80.10467015
5815,5815,True Experience Supportive Housing and Community Work Program,201 forest street e,Haldimand County,ON,N1A 3G5,,1-800-622-6232,Nursing and residential care facilities,Province of Ontario,No,5,42.90596624,-79.61237569
5087,5087,Rvilla Caledonia Retirement Living,339 argyle street s,Haldimand County,ON,N3W 1L7,,1-800-622-6232,Nursing and residential care facilities,Province of Ontario,No,5,43.06372505,-79.96059802
3733,3733,Haldimand-Norfolk Women's Services,1 Main Street,Haldimand County,ON,N1N 1N1,,1-800-622-6232,Nursing and residential care facilities,Province of Ontario,No,5,42.90354584,-79.61700779
5908,5908,View Mount Grace Manor,167 mountainview road s,Halton Hills,ON,L7G 4K4,,1-800-622-6232,Nursing and residential care facilities,Province of Ontario,No,5,43.64134766,-79.89095674
4912,4912,Region of Halton Health Department - Community Health Services,19 willow street,Halton Hills,ON,L7J 1Z6,,1-800-622-6232,Nursing and residential care facilities,Province of Ontario,No,5,43.63097875,-80.04122729
3156,3156,Christie Oaks Care Home,128 cobblehill road,Halton Hills,ON,L7J 2N6,,1-800-622-6232,Nursing and residential care facilities,Province of Ontario,No,5,43.62283575,-80.04369409
4436,4436,Mountainview Residence,222 mountainview road n,Halton Hills,ON,L7G 3R2,,1-800-622-6232,Nursing and residential care facilities,Province of Ontario,No,5,43.66226436,-79.91969106
4070,4070,Kingsberry Place Seniors Residence,1221 limeridge road e,Hamilton,ON,L8W 1Y1,,1-800-622-6232,Nursing and residential care facilities,Province of Ontario,No,5,43.20702509,-79.83081579
2666,2666,Blackadar Retirement Residence,99 creighton road,Hamilton,ON,L9H 3B7,,1-800-622-6232,Nursing and residential care facilities,Province of Ontario,No,5,43.26134859,-79.96827634
6128,6128,Yorkville Retirement Residence,211 york road,Hamilton,ON,L9H 1M9,,1-800-622-6232,Nursing and residential care facilities,Province of Ontario,No,5,43.27595799,-79.94104643
5594,5594,the Carlisle Retirement Residence,467 main street e,Hamilton,ON,L8N 1K1,,1-800-622-6232,Nursing and residential care facilities,Province of Ontario,No,5,43.25084779,-79.8515302
5463,5463,St. Matthew's House,785 britannia avenue,Hamilton,ON,L8H 2B6,,1-800-622-6232,Nursing and residential care facilities,Province of Ontario,No,5,43.24002559,-79.78103737
5406,5406,St. Elizabeth Retirement Residence,391 rymal road w,Hamilton,ON,L9B 1V2,,1-800-622-6232,Nursing and residential care facilities,Province of Ontario,No,5,43.2050955,-79.9103179
2411,2411,Aberdeen Gardens Retirement Residence,330 dundurn street s,Hamilton,ON,L8P 4L6,,1-800-622-6232,Nursing and residential care facilities,Province of Ontario,No,5,43.25164109,-79.89294681
2414,2414,Abington Court,1500 main street e,Hamilton,ON,L8K 1E1,,1-800-622-6232,Nursing and residential care facilities,Province of Ontario,No,5,43.23895509,-79.80581978
2415,2415,Ableliving Services Inc.,125 redfern avenue,Hamilton,ON,L9C 7W9,,1-800-622-6232,Nursing and residential care facilities,Province of Ontario,No,5,43.24048479,-79.92012482
5171,5171,Seasons Stoney Creek,8 shoreview place,Hamilton,ON,L8E 0J6,,1-800-622-6232,Nursing and residential care facilities,Province of Ontario,No,5,43.237456,-79.71577025
5593,5593,the Cardinal Retirement Residence,10 herkimer street,Hamilton,ON,L8P 2G2,,1-800-622-6232,Nursing and residential care facilities,Province of Ontario,No,5,43.24925099,-79.8731636
3394,3394,Dr. Bob Kemp Hospice,277 stone church road e,Hamilton,ON,L9B 1B1,,1-800-622-6232,Nursing and residential care facilities,Province of Ontario,No,5,43.20834778,-79.8768475
3407,3407,Dundas Retirement Place,33 main street,Hamilton,ON,L9H 2P7,,1-800-622-6232,Nursing and residential care facilities,Province of Ontario,No,5,43.26507159,-79.95304373
5711,5711,the Village of Wentworth Heights,1620 upper wentworth street,Hamilton,ON,L9B 2W3,,1-800-622-6232,Nursing and residential care facilities,Province of Ontario,No,5,43.19832568,-79.8734372
5066,5066,Rosslyn Retirement Residence,1322 king street e,Hamilton,ON,L8M 1H3,,1-800-622-6232,Nursing and residential care facilities,Province of Ontario,No,5,43.24254819,-79.82343809
5551,5551,Tara Retirement Home,843 mohawk road e,Hamilton,ON,L8T 2R4,,1-800-622-6232,Nursing and residential care facilities,Province of Ontario,No,5,43.21727849,-79.83453609
2517,2517,Amica at Dundas,50 hatt street,Hamilton,ON,L9H 0A1,,1-800-622-6232,Nursing and residential care facilities,Province of Ontario,No,5,43.26447919,-79.95503403
3563,3563,First Place Hamilton,360 king street e,Hamilton,ON,L8N 3Y2,,1-800-622-6232,Nursing and residential care facilities,Province of Ontario,No,5,43.25314089,-79.8584936
2522,2522,Amica at Stoney Creek,135 king street e,Hamilton,ON,L8G 1J8,,1-800-622-6232,Nursing and residential care facilities,Province of Ontario,No,5,43.21755269,-79.74812356
4669,4669,Orchard Terrace Care Centre,199 glover road,Hamilton,ON,L8E 5J2,,1-800-622-6232,Nursing and residential care facilities,Province of Ontario,No,5,43.21015079,-79.68313844
4604,4604,Northview Senior's Residence,19 aikman avenue,Hamilton,ON,L8M 1P6,,1-800-622-6232,Nursing and residential care facilities,Province of Ontario,No,5,43.25128219,-79.8485217
3007,3007,Chartwell Georgian Retirement Residence,255 governors road,Hamilton,ON,L9H 3K4,,1-800-622-6232,Nursing and residential care facilities,Province of Ontario,No,5,43.26028359,-79.97063634
3764,3764,Hamilton Health Sciences - Chedoke Hospital,1 sanatorium rd,Hamilton,ON,L9C 1C4,,1-800-622-6232,Nursing and residential care facilities,Public Health Agency of Canada,No,5,43.238389,-79.91718399999999
4471,4471,New Village Retirement Home,490 hamilton regional road 8,Hamilton,ON,L8G 1G6,,1-800-622-6232,Nursing and residential care facilities,Province of Ontario,No,5,43.21627369,-79.71616285
3002,3002,Chartwell Deerview Crossing Retirement Residence,460 rymal road w,Hamilton,ON,L9B 0B2,,1-800-622-6232,Nursing and residential care facilities,Province of Ontario,No,5,43.20793238,-79.91323931
4425,4425,Montgomery Retirement Home,1605 main street e,Hamilton,ON,L8H 1C4,,1-800-622-6232,Nursing and residential care facilities,Province of Ontario,No,5,43.23824919,-79.80138348
4399,4399,"Mission Services of Hamilton, Inc.",196 wentworth street n,Hamilton,ON,L8L 5V7,,1-800-622-6232,Nursing and residential care facilities,Province of Ontario,No,5,43.25764419,-79.8453468
4351,4351,Meadowlands Retirement Residence,1248 mohawk road,Hamilton,ON,L9K 1P5,,1-800-622-6232,Nursing and residential care facilities,Province of Ontario,No,5,43.23239719,-79.93370432
5917,5917,Villa Italia Retirement Residence,530 upper paradise road,Hamilton,ON,L9C 7W2,,1-800-622-6232,Nursing and residential care facilities,Province of Ontario,No,5,43.23106209,-79.91453832
5925,5925,Village Manor,57 john street w,Hamilton,ON,L0R 2H0,,1-800-622-6232,Nursing and residential care facilities,Province of Ontario,No,5,43.33535221,-79.89811232
2604,2604,the Wellington Nursing Home,1430 upper wellington street,Hamilton,ON,L9A 5H3,,1-800-622-6232,Nursing and residential care facilities,Province of Ontario,No,5,43.20948778,-79.8796767
2895,2895,Carrington Place Retirement Residence,75 dunham drive,Hamilton,ON,L9G 1X7,,1-800-622-6232,Nursing and residential care facilities,Province of Ontario,No,5,43.21614158,-79.99126034
2893,2893,Caroline Place Retirement Residence,118 market street,Hamilton,ON,L8R 3P9,,1-800-622-6232,Nursing and residential care facilities,Province of Ontario,No,5,43.25974649,-79.87474961
5959,5959,Waterdown Manor,335 dundas street e,Hamilton,ON,L0R 2H0,,1-800-622-6232,Nursing and residential care facilities,Province of Ontario,No,5,43.33519751,-79.89141602
3845,3845,Heritage Green Retirement Home,351 isaac brock drive,Hamilton,ON,L8J 1Y1,,1-800-622-6232,Nursing and residential care facilities,Province of Ontario,No,5,43.19303418,-79.79094197
2642,2642,Bertram Place Retirement Living Centre,21 hatt street,Hamilton,ON,L9H 2E9,,1-800-622-6232,Nursing and residential care facilities,Province of Ontario,No,5,43.26504409,-79.95507773
4137,4137,Lakeview Retirement Centre,339 hamilton regional road 8,Hamilton,ON,L8G 1E7,,1-800-622-6232,Nursing and residential care facilities,Province of Ontario,No,5,43.22011219,-79.72878866
3856,3856,Highgate Residence,325 fiddlers green road,Hamilton,ON,L9G 1W9,,1-800-622-6232,Nursing and residential care facilities,Province of Ontario,No,5,43.209027,-79.983869
6035,6035,Westmount Terrace i,723 rymal road w,Hamilton,ON,L9B 2W1,,1-800-622-6232,Nursing and residential care facilities,Province of Ontario,No,5,43.20988088,-79.92649772
2904,2904,Cathmar Manor,236 catherine street n,Hamilton,ON,L8L 4S6,,1-800-622-6232,Nursing and residential care facilities,Province of Ontario,No,5,43.26228939,-79.86208520000001
3154,3154,Choices Living Retirement Residence,326 12 street,Hanover,ON,N4N 1V6,,1-800-622-6232,Nursing and residential care facilities,Province of Ontario,No,5,44.15403169,-81.02729035
4348,4348,Mcvean Lodge,700 nineteenth avenue,Hanover,ON,N4N 3S6,,1-800-622-6232,Nursing and residential care facilities,Province of Ontario,No,5,44.15991379,-81.01744915
5713,5713,the Village Seniors Community,101 10 street,Hanover,ON,N4N 1M9,,1-800-622-6232,Nursing and residential care facilities,Province of Ontario,No,5,44.15073139,-81.03582166
4274,4274,Manoir Mcgill 342,342 mcgill street,Hawkesbury,ON,K6A 3V5,,1-800-622-6232,Nursing and residential care facilities,Province of Ontario,No,5,45.60770963,-74.61487659
4795,4795,Place Mont Roc Residence Inc.,100 industrial boulevard,Hawkesbury,ON,K6A 3M8,,1-800-622-6232,Nursing and residential care facilities,Province of Ontario,No,5,45.59888873,-74.61425379
4273,4273,Manoir Mcgill,261 mcgill street,Hawkesbury,ON,K6A 1P9,,1-800-622-6232,Nursing and residential care facilities,Province of Ontario,No,5,45.60837973,-74.61369449
4251,4251,MAISON RENAISSANCE DE LA REHABILITATION,924 halle street,Hearst,ON,P0L 1N0,,1-800-622-6232,Nursing and residential care facilities,Province of Ontario,No,5,49.6830758,-83.66989437
3034,3034,Chartwell Muskoka Traditions Retirement Residence,16 legacy lane,Huntsville,ON,P1H 0B1,,1-800-622-6232,Nursing and residential care facilities,Province of Ontario,No,5,45.34061968,-79.22595369
3292,3292,Country Moments Retirement Home,185 lakewood park road,Huntsville,ON,P1H 1Y7,,1-800-622-6232,Nursing and residential care facilities,Province of Ontario,No,5,45.31887878,-79.24437549
3083,3083,Chartwell Rogers Cove Retirement Residence,4 coveside drive,Huntsville,ON,P1H 2J9,,1-800-622-6232,Nursing and residential care facilities,Province of Ontario,No,5,45.33668128,-79.19980138
4501,4501,Nine Mile Villa Inc.,469 inglis street,Huron-Kinloss,ON,N0G 2H0,,1-800-622-6232,Nursing and residential care facilities,Province of Ontario,No,5,43.96015144,-81.51561029
5088,5088,Rvilla Retirement Living,22 park street,Huron-Kinloss,ON,N0G 2R0,,1-800-622-6232,Nursing and residential care facilities,Province of Ontario,No,5,44.06873465,-81.58265262
5190,5190,Sepoy Manor,543 gough street,Huron-Kinloss,ON,N0G 2H0,,1-800-622-6232,Nursing and residential care facilities,Province of Ontario,No,5,43.96466384,-81.51076269
4688,4688,Oxford Manor Retirement Residence,276 oxford street,Ingersoll,ON,N5C 2W1,,1-800-622-6232,Nursing and residential care facilities,Province of Ontario,No,5,43.03341871,-80.8808366
4134,4134,Lakeside Retirement at Innisfil,985 innisfil beach road,Innisfil,ON,L9S 4M8,,1-800-622-6232,Nursing and residential care facilities,Province of Ontario,No,5,44.31427469,-79.5494025
3286,3286,Country Estates Retirement Home,512 thunder bridge road,Kawartha Lakes,ON,K9V 4R1,,1-800-622-6232,Nursing and residential care facilities,Province of Ontario,No,5,44.37744874,-78.76719105
2853,2853,Caressant Care - Lindsay,240 mary street w,Kawartha Lakes,ON,K9V 5K5,,1-800-622-6232,Nursing and residential care facilities,Province of Ontario,No,5,44.34327843,-78.75034644
4115,4115,Lakeland Village,60 saint george street,Kawartha Lakes,ON,K9V 1M7,,1-800-622-6232,Nursing and residential care facilities,Province of Ontario,No,5,44.36378564,-78.72377954
6061,6061,William Place,140 william street n,Kawartha Lakes,ON,K9V 5R4,,1-800-622-6232,Nursing and residential care facilities,Province of Ontario,No,5,44.36064104,-78.73882294
2431,2431,Adelaide Place Retirement Community,84 adelaide street s,Kawartha Lakes,ON,K9V 0G6,,1-800-622-6232,Nursing and residential care facilities,Province of Ontario,No,5,44.34636004,-78.74439154
4042,4042,Kawartha Lakes Retirement Residence,60 west street,Kawartha Lakes,ON,K0M 1A0,,1-800-622-6232,Nursing and residential care facilities,Province of Ontario,No,5,44.53823228,-78.55655859999999
4052,4052,Kenora Association for Community Living,501 eighth avenue s,Kenora,ON,P9N 3Z9,,1-800-622-6232,Nursing and residential care facilities,Province of Ontario,No,5,49.75990494,-94.47858969
4777,4777,Pinecrest Home,1220 valley drive,Kenora,ON,P9N 2W7,,1-800-622-6232,Nursing and residential care facilities,Province of Ontario,No,5,49.77992374,-94.46311879
5792,5792,Trillium Court,550 phillip place,Kincardine,ON,N2Z 3A6,,1-800-622-6232,Nursing and residential care facilities,Province of Ontario,No,5,44.18149597,-81.62055194
5762,5762,Tiverton Park Manor,24 king street,Kincardine,ON,N0G 2T0,,1-800-622-6232,Nursing and residential care facilities,Province of Ontario,No,5,44.27325669,-81.53872023
4254,4254,Malcolm Place Retirement Residence,255 durham street,Kincardine,ON,N2Z 2Y6,,1-800-622-6232,Nursing and residential care facilities,Province of Ontario,No,5,44.17975057,-81.63518815
3000,3000,Chartwell Conservatory Pond Retirement Residence,1499 stoneridge drive,Kingston,ON,K7M 9H9,,1-800-622-6232,Nursing and residential care facilities,Province of Ontario,No,5,44.23685681,-76.59274333
2427,2427,Addiction & Mental Health Services - Kingston Frontenac Lennox & Addington (Amhs - Kfla),107 wellington street,Kingston,ON,K7L 3C6,,1-800-622-6232,Nursing and residential care facilities,Province of Ontario,No,5,44.22905481,-76.48406659999999
3894,3894,Hospice Kingston,36 barrie street,Kingston,ON,K7L 3J7,,1-800-622-6232,Nursing and residential care facilities,Province of Ontario,No,5,44.22392201,-76.4906727
4835,4835,Providence Care (Corporate Office) - St. Mary's of the Lake Hospital,340 union st w,Kingston,ON,K7L 5A2,,1-800-622-6232,Nursing and residential care facilities,Public Health Agency of Canada,No,5,44.2237359,-76.5062064
5806,5806,Trillium Retirement and Care Community,800 edgar street,Kingston,ON,K7M 8S4,,1-800-622-6232,Nursing and residential care facilities,Province of Ontario,No,5,44.25040282,-76.55202522
5081,5081,Royale Place Retirement Residence,2485 princess street,Kingston,ON,K7M 3G1,,1-800-622-6232,Nursing and residential care facilities,Province of Ontario,No,5,44.25745432,-76.56619533
5961,5961,Waterford Kingston Retirement Residence,471 cataraqui woods drive,Kingston,ON,K7P 0E6,,1-800-622-6232,Nursing and residential care facilities,Province of Ontario,No,5,44.26899332,-76.55816762
5456,5456,St. Lawrence Place,181 ontario street,Kingston,ON,K7L 5M1,,1-800-622-6232,Nursing and residential care facilities,Province of Ontario,No,5,44.22841651,-76.48109079999999
5061,5061,Rosewood Retirement Residence,833 sutton mills court,Kingston,ON,K7P 2N9,,1-800-622-6232,Nursing and residential care facilities,Province of Ontario,No,5,44.25504702,-76.57513363
5367,5367,Southgate Village,38 park street,Kingsville,ON,N9Y 1N4,,1-800-622-6232,Nursing and residential care facilities,Province of Ontario,No,5,42.02834304,-82.73923269
3023,3023,Chartwell Kingsville Retirement Residence,240 main street e,Kingsville,ON,N9Y 1A6,,1-800-622-6232,Nursing and residential care facilities,Province of Ontario,No,5,42.03955604,-82.72822769
2581,2581,Augustine Villas Retirement Home and Assisted Living,54 spruce street n,Kingsville,ON,N9Y 2E5,,1-800-622-6232,Nursing and residential care facilities,Province of Ontario,No,5,42.03996314,-82.73671029
3205,3205,Cobble Creek Residence Inc.,210 woolwich street,Kitchener,ON,N2K 1S7,,1-800-622-6232,Nursing and residential care facilities,Province of Ontario,No,5,43.4909305,-80.48076562
3244,3244,Conestoga Lodge,55 hugo crescent,Kitchener,ON,N2M 5J1,,1-800-622-6232,Nursing and residential care facilities,Province of Ontario,No,5,43.43042349,-80.49063072
3385,3385,Doon Village Retirement Residence,868 doon village road,Kitchener,ON,N2P 3A4,,1-800-622-6232,Nursing and residential care facilities,Province of Ontario,No,5,43.39183449,-80.4390437
3554,3554,Fergus Place,164 fergus avenue,Kitchener,ON,N2A 2H2,,1-800-622-6232,Nursing and residential care facilities,Province of Ontario,No,5,43.4358399,-80.43969659999999
2984,2984,Chartwell Bankside Terrace Retirement Residence,71 bankside drive,Kitchener,ON,N2N 3L1,,1-800-622-6232,Nursing and residential care facilities,Province of Ontario,No,5,43.43152629,-80.52861203
3858,3858,Highland Place,20 fieldgate street,Kitchener,ON,N2M 5K3,,1-800-622-6232,Nursing and residential care facilities,Province of Ontario,No,5,43.43474169,-80.51927753
3861,3861,Highview Residences Kitchener,20 reichert drive,Kitchener,ON,N2P 0G9,,1-800-622-6232,Nursing and residential care facilities,Province of Ontario,No,5,43.37245359,-80.42376089
6132,6132,Zora Srpski Dom,143 madison avenue s,Kitchener,ON,N2G 3M4,,1-800-622-6232,Nursing and residential care facilities,Province of Ontario,No,5,43.4428213,-80.48533902
3899,3899,Hospice of Waterloo Region,298 lawrence avenue,Kitchener,ON,N2M 1Y4,,1-800-622-6232,Nursing and residential care facilities,Province of Ontario,No,5,43.44149309,-80.51298162
2715,2715,Briarfield Gardens,1250 weber street e,Kitchener,ON,N2A 4E1,,1-800-622-6232,Nursing and residential care facilities,Province of Ontario,No,5,43.4339767,-80.44460749999999
4037,4037,Sunnyside Home,247 franklin street n,Kitchener,ON,N2A 1Y5,,1-800-622-6232,Nursing and residential care facilities,Province of Ontario,No,5,43.440994,-80.4451854
4145,4145,Lanark Village,44 lanark crescent,Kitchener,ON,N2N 2Z8,,1-800-622-6232,Nursing and residential care facilities,Province of Ontario,No,5,43.42451939,-80.53455943
3674,3674,Grand River Hospital - Freeport Site,3570 king st e,Kitchener,ON,N2A 2W1,,1-800-622-6232,Nursing and residential care facilities,Public Health Agency of Canada,No,5,43.425562299999996,-80.4130265
4442,4442,Murrays Millwood Manor Inc.,409 mill street,Kitchener,ON,N2M 3R9,,1-800-622-6232,Nursing and residential care facilities,Province of Ontario,No,5,43.434396500000005,-80.48010171
5891,5891,Victoria Place,290 queen street s,Kitchener,ON,N2G 1W3,,1-800-622-6232,Nursing and residential care facilities,Province of Ontario,No,5,43.4468245,-80.49283142
5812,5812,Trinity Village Studios,2711 kingsway drive,Kitchener,ON,N2C 2T2,,1-800-622-6232,Nursing and residential care facilities,Province of Ontario,No,5,43.431116100000004,-80.4422738
5740,5740,Thresholds Homes and Supports Inc.,236 victoria street n,Kitchener,ON,N2H 5C8,,1-800-622-6232,Nursing and residential care facilities,Province of Ontario,No,5,43.45713,-80.48848812
5507,5507,Sunbeam Residential Development Centre,2749 kingsway dr,Kitchener,ON,N2C 1A7,,1-800-622-6232,Nursing and residential care facilities,Public Health Agency of Canada,No,5,43.461056299999996,-80.4582188
3037,3037,Chartwell Oak Park Lasalle Retirement Residence,3955 13 street,LaSalle,ON,N9H 2S7,,1-800-622-6232,Nursing and residential care facilities,Province of Ontario,No,5,42.24665886,-83.0347155
5170,5170,Seasons Royal Oak Village,2400 sandwich west parkway,LaSalle,ON,N9H 2S8,,1-800-622-6232,Nursing and residential care facilities,Province of Ontario,No,5,42.23693986,-83.0218335
5164,5164,Seasons Belle River,1700 essex county road 22,Lakeshore,ON,N0R 1A0,,1-800-622-6232,Nursing and residential care facilities,Province of Ontario,No,5,42.29392128,-82.71986371
4102,4102,LA CHAUMIERE RETIREMENT RESIDENCE,1023 essex county road 22,Lakeshore,ON,N0R 1A0,,1-800-622-6232,Nursing and residential care facilities,Province of Ontario,No,5,42.29896808,-82.77733353
3139,3139,Chez Nous Retirement Residence,6815 tecumseh road,Lakeshore,ON,N0R 1N0,,1-800-622-6232,Nursing and residential care facilities,Province of Ontario,No,5,42.30451789,-82.54951356
3290,3290,Country Manor Retirement Home,66 victoria street,Lambton Shores,ON,N0M 2N0,,1-800-622-6232,Nursing and residential care facilities,Province of Ontario,No,5,43.16243938,-81.85244972
5060,5060,Rosewood Erie Glen,119 robson road,Leamington,ON,N8H 3V4,,1-800-622-6232,Nursing and residential care facilities,Province of Ontario,No,5,42.02625934,-82.59111505
4171,4171,Leamington Mennonite Home,35 pickwick drive,Leamington,ON,N8H 4X5,,1-800-622-6232,Nursing and residential care facilities,Province of Ontario,No,5,42.04374165,-82.59059485
4467,4467,New Beginnings Rest Home,106 talbot street w,Leamington,ON,N8H 1M9,,1-800-622-6232,Nursing and residential care facilities,Province of Ontario,No,5,42.05143065,-82.60541785
3027,3027,Chartwell Leamington Retirement Residence,1 henry avenue,Leamington,ON,N8H 5P1,,1-800-622-6232,Nursing and residential care facilities,Province of Ontario,No,5,42.03829014,-82.60343625
5159,5159,Seacliff Manor,30 seacliff drive e,Leamington,ON,N8H 0E5,,1-800-622-6232,Nursing and residential care facilities,Province of Ontario,No,5,42.03374554,-82.59725745
3585,3585,Fox Run Retirement Residence,104 thousand islands parkway,Leeds and the Thousand Islands,ON,K7G 2V4,,1-800-622-6232,Nursing and residential care facilities,Province of Ontario,No,5,44.33732175,-76.12701389
5177,5177,Seeley's Bay Retirement Residence,138 main street,Leeds and the Thousand Islands,ON,K0H 2N0,,1-800-622-6232,Nursing and residential care facilities,Province of Ontario,No,5,44.47717557,-76.23550034
3040,3040,Chartwell Orchards Retirement Residence,3421 frederick avenue,Lincoln,ON,L0R 2C0,,1-800-622-6232,Nursing and residential care facilities,Province of Ontario,No,5,43.159593900000004,-79.39574265
4004,4004,Jah-Jireh Seniors Ministry Association,4505 thirty road,Lincoln,ON,L0R 1B3,,1-800-622-6232,Nursing and residential care facilities,Province of Ontario,No,5,43.1753695,-79.50264198
5838,5838,United Mennonite Home,4024 twenty-third street,Lincoln,ON,L0R 2C0,,1-800-622-6232,Nursing and residential care facilities,Province of Ontario,No,5,43.157607500000005,-79.38808084
3080,3080,Chartwell Riverside Retirement Residence,201 riverside drive,London,ON,N6H 1E5,,1-800-622-6232,Nursing and residential care facilities,Province of Ontario,No,5,42.98395718,-81.26866552
4618,4618,Oakcrossing Retirement Living,1238 oakcrossing road,London,ON,N6H 0K2,,1-800-622-6232,Nursing and residential care facilities,Province of Ontario,No,5,42.98998258,-81.31254523
4857,4857,Queens Village for Seniors,518 queens avenue,London,ON,N6B 1Y7,,1-800-622-6232,Nursing and residential care facilities,Province of Ontario,No,5,42.98946328,-81.23601261
5015,5015,Richmond Woods Retirement Residence,200 north centre road,London,ON,N5X 0B1,,1-800-622-6232,Nursing and residential care facilities,Province of Ontario,No,5,43.03054879,-81.28193283
3137,3137,"Cheshire Homes of London, Inc.",1111 elias street,London,ON,N5W 5L1,,1-800-622-6232,Nursing and residential care facilities,Province of Ontario,No,5,42.99846998,-81.2152564
4291,4291,Maple View Terrace Retirement Residence,279 horton street,London,ON,N6B 1L3,,1-800-622-6232,Nursing and residential care facilities,Province of Ontario,No,5,42.98010548,-81.24186251
3132,3132,Chelsey Park Retirement Community,312 oxford street w,London,ON,N6H 4N7,,1-800-622-6232,Nursing and residential care facilities,Province of Ontario,No,5,42.98779818,-81.27690042
