,id,name,address,city,state,zip,county,phone,type,ownership,emergency,quality,LAT,LON
0,20000,Abbey Lawns,,Liverpool,Merseyside,L3 8,,,,,,,53.4328022,-2.9664485
1,20001,Aberdare General Hospital,,Aberdare,Mid Glamorgan,CF44 7,,,,,,,51.716608,-3.4407358
2,20002,Aberdeen Community Health and Care Village,,Aberdeen,Aberdeenshire,AB11 6,,,,,,,57.1502971,-2.0929115
3,20003,Aberfeldy Cottage Hospital,,Aberfeldy,Perthshire,PH15 2,,,,,,,56.6184219,-3.8582346
4,20004,Abingdon Community Hospital,,Abingdon,Oxfordshire,OX14 1,,,,,No,,51.6700624,-1.3036316
5,20005,Aboyne Hospital and Health Centre,Bellwood Road nan,Aboyne,Aberdeenshire,AB34 5,,,,,,,57.0761784,-2.7664936
6,20006,Adamson Hospital,,Cupar,Fife,KY15 4,,,,,No,,56.3247409,-3.0170341
7,20007,Addington Clinic,,Bournemouth,Dorset,BH2 5,,,,,,,50.7665079,-1.9051141
8,20008,Airbles Road Centre,,Motherwell,Lanarkshire,ML1 1,,,,,No,,55.7826237,-3.984256
9,20009,Aire Court Community Unit,,Leeds,West Yorkshire,LS10 4,,,,,,,53.7469988,-1.538614
10,20010,Airedale General Hospital,Skipton Road nan,Keighley,West Yorkshire,BD20 8,,,,,Yes,,53.8960764,-1.9616604
11,20011,Aldeburgh Community Hospital,Park Road nan,Aldeburgh,Suffolk,IP15 5,,,,,,,52.1519171,1.5954262
12,20012,Alder Grange Nursing Home,,Liverpool,Merseyside,L12 2,,,,,,,53.424459,-2.9036364
13,20013,Alder Grange Nursing Home,,Liverpool,Merseyside,L12 2,,,,,,,53.424459,-2.9036364
14,20014,Alder Hey Children's Hospital,,Liverpool,Merseyside,L14 5,,,,,,,53.4173344,-2.8978729
15,20015,Alder Hey Children's Hospital (Abandoned),,Liverpool,Merseyside,L14 5,,,,,,,53.4216395,-2.8975751
16,20016,Alderney Hospital,,Poole,Dorset,BH15 1,,,,,,,50.7504242,-1.9437215
17,20017,Aldershot Centre for Health,,Aldershot,Hampshire,GU11 1,,,,,No,,51.2544744,-0.7649176
18,20018,Alexandra Hospital,,Redditch,Worcestershire,B97 4,,,,,,,52.2813539,-1.9169897
19,20019,Alexandra Hospital,,Cheadle,Cheshire,SK8 2,,,,,No,,53.3972097,-2.2172611
20,20020,All Hallows' Hospital,Station Road nan,Norwich,Norfolk,NR13 6,,,,,,,52.4663188,1.4454282
21,20021,Alnwick Infirmary,Infirmary Drive nan,Alnwick,Northumberland,NE66 1,,+44 344 811 8111,,,,,55.4111857,-1.6974076
22,20022,Altnagelvin Hospital,Glenshane Road nan,Londonderry,County Londonderry,BT48 6,,028 7134 5171,,,Yes,,54.9883505,-7.289858
23,20023,Ambulance A&E,,Halifax,West Yorkshire,HX3 0,,,,,,,53.7049287,-1.858528
24,20024,Amersham General,,Amersham,Buckinghamshire,HP6 6,,,,,,,51.6619965,-0.623098
25,20025,Andover Hospital (Grounds),,Andover,Hampshire,SP10 1,,,,,No,,51.2166103,-1.4957231
26,20026,Anglesea Heights Residential And Nursing Home,,Ipswich,Suffolk,IP1 2,,,,,,,52.0630373,1.1488738
27,20027,Annan Hospital,,Annan,Dumfriesshire,DG12 6,,,,,,,54.9877576,-3.246906
28,20028,Antrim Area Hospital,,Antrim,County Antrim,BT41 2,,,,,Yes,,54.7356661,-6.1879101
29,20029,Antrim Health Centre,,Antrim,County Antrim,BT41 4,,,,,,,54.7167922,-6.2144382
30,20030,Appleby Care Centre,,Epsom,Surrey,KT18 7,,,,,,,51.3430845,-0.2672155
31,20031,Appleby Court Nursing Home,,Liverpool,Merseyside,L32 1,,,,,,,53.4879036,-2.880506
32,20032,Arbroath Infirmary,,Arbroath,Angus,DD11 3,,,,,No,,56.5548323,-2.5986635
33,20033,Archways,Clarendon Court 1-26,York,North Yorkshire,YO23 1,,,,,No,,53.9722751,-1.0798573
34,20034,Ardenleigh Hospital,Kingsbury Road nan,Birmingham,West Midlands,B23 6,,,,,No,,52.5162822,-1.835185
35,20035,Ards Hospital,,Newtownards,County Down,BT23 4,,,,,,,54.5926735,-5.7066184
36,20036,Armagh Community Hospital,,Armagh,County Armagh,BT61 9,,,,,,,54.3512399,-6.6440879
37,20037,Arnold Lodge Regional Secure Unit,Cordelia Close nan,Leicester,Leicestershire,LE5 0,,,,,,,52.6465735,-1.0900391
38,20038,Arran War Memorial Hospital,,Brodick,Isle Of Arran,KA27 8,,,,,No,,55.5431678,-5.116512
39,20039,Arrowe Park Hospital,,Wirral,Merseyside,CH49 5,,,,,,,53.3685189,-3.0955444
40,20040,Arthur Rank House,,Cambridge,Cambridgeshire,CB3 9,,,,,,,52.198237,0.1537003
41,20041,Ashby Turn Doctors Surgery,,Scunthorpe,South Humberside,DN15 6,,,,,,,53.5662176,-0.6542876
42,20042,Ashcroft Surgery,,Bradford,West Yorkshire,BD10 9,,,,,,,53.8242494,-1.7127957
43,20043,Ashfield Nursing Home,,Ware,Hertfordshire,SG12 8,,,,,,,51.8216966,0.0530759
44,20044,Ashford Hospital,,,Middlesex,,,,,,,,51.4430125,-0.4740123
45,20045,Ashtead Clinic,,Ashtead,Surrey,KT21 1,,,,,No,,51.3139463,-0.303839
46,20046,Ashtead Hospital,,Ashtead,Surrey,KT21 1,,,,,No,,51.3046725,-0.3039261
47,20047,Ashton Community Care Centre,,Lancaster,Lancashire,LA1 1,,,,,,,54.0398019,-2.7987974
48,20048,Ashville Medical Practice,,Barnsley,South Yorkshire,S70 3,,,,,,,53.5425182,-1.4586243
49,20049,Ashworth Hospital,,,Merseyside,L39 6,,,,,,,53.5233897,-2.9164306
50,20050,Astley Ainslie Hospital,Grange Loan 133,Edinburgh,Midlothian,EH2 3,,+44 131 537 9000,,,,,55.9308817,-3.1941084
51,20051,Ayr & Ailsa Hospitals,,,Midlothian,KA7 3,,,,,Yes,,55.4326331,-4.6052528
52,20052,Ayrshire Central Hospital,Kilwinning Road nan,Irvine,Ayrshire,KA12 0,,,,,No,,55.6309765,-4.6757504
53,20053,Ayrshire Hospice,Racecourse Road 35,Ayr,Ayrshire,KA7 2,,+44 1292 269200,,,,,55.4527318,-4.6359028
54,20054,BMI  Huddersfield Hospital,,Huddersfield,West Yorkshire,HD1 1,,,,,No,,53.6591727,-1.8000064
55,20055,BMI Bath Clinic,,Bath,Avon,BA2 7,,,,,,,51.3638809,-2.3308109
56,20056,BMI Hendon Hospital,,London,London,NW4 4,,,,,No,,51.5939005,-0.2249009
57,20057,BMI Kings Park Hospital,Polmaise Road nan,Stirling,Stirlingshire,FK8 2,,,,,No,,56.1068167,-3.9548904
58,20058,BMI Lancaster,Meadowside nan,Lancaster,Lancashire,LA1 1,,,,,No,,54.04285,-2.7958296
59,20059,BMI Meriden Hospital,,Coventry,West Midlands,CV2 2,,,,,,,52.4230113,-1.4389501
60,20060,BMI St Edmunds Hospital,St Marys Square nan,Bury St Edmunds,Suffolk,IP33 1,,,,,,,52.2405731,0.7183194
61,20061,BMI The Cavell Hospital,Cavell Drive nan,Enfield,Middlesex,EN2 6,,,,,No,,51.6587375,-0.1029026
62,20062,BMI Thornbury Hospital,,Sheffield,South Yorkshire,S1 2,,,,,,,53.3736168,-1.5186378
63,20063,BRI Queen's Building,,Bristol,Avon,BS2 8,,,,,,,51.4580724,-2.5969547
64,20064,BUPA,,Coventry,West Midlands,CV1 2,,,,,,,52.4122287,-1.5090765
65,20065,Babington Hospital,Derby Road nan,Belper,Derbyshire,DE56 1,,,,,No,,53.0179759,-1.4850055
66,20066,Badsley Moor Lane NHS,,Rotherham,South Yorkshire,S60 2,,,,,,,53.4294333,-1.3337051
67,20067,Baldock Medical Centre,,Baldock,Hertfordshire,SG7 6,,,,,No,,51.9860883,-0.1866355
68,20068,Balfour Hospital,New Scapa Road nan,,Orkney,,,+44 1856 888000,,,Yes,,58.9764352,-2.9642087
69,20069,Bangor Community Hospital,Castle Street nan,Bangor,County Down,BT20 3,,,,,,,54.6579199,-5.6625415
70,20070,Barlborough NHS Treatment Centre,Lindrick Way 2,Chesterfield,Derbyshire,S41 7,,,,,,,53.2817625,-1.2834502
71,20071,Barnes Hospital,,London,London,SW14 8,,,,,,,51.4675896,-0.2576097
72,20072,Barnsley Hospital,,Barnsley,South Yorkshire,S75 2,,,,,,,53.5589776,-1.5029604
73,20073,Basildon University Hospital,Nether Mayne nan,Basildon,Essex,SS15 5,,+44 1268 524900,,,Yes,,51.5580635,0.4474004
74,20074,Basingstoke and North Hampshire Hospital,,Basingstoke,Hampshire,RG21 4,,,,,,,51.2778619,-1.1098639
75,20075,Basingstoke and North Hampshire Hospital,,Basingstoke,Hampshire,RG21 4,,,,,Yes,,51.2801535,-1.1107708
76,20076,Baslow Road Surgery,,Sheffield,South Yorkshire,S17 3,,,,,,,53.3163671,-1.5313026
77,20077,Bassetlaw Hospital,Blyth Road nan,Worksop,Nottinghamshire,S80 1,,+44 1909 500990,,,Yes,,53.3145579,-1.11172
78,20078,Beccles and District War Memorial Hospital,,Beccles,Suffolk,NR34 9,,,,,,,52.4524081,1.5625457
79,20079,Beckford Lodge,Caird Street nan,Hamilton,Lanarkshire,ML3 6,,,,,,,55.7828189,-4.0517509
80,20080,Bedford Health Village,Kimbolton Road 3,Bedford,Bedfordshire,MK40 2,,,,,No,,52.141619,-0.4568204
81,20081,Bedford Hospital South Wing,Kempston Road nan,Bedford,Bedfordshire,MK42 7,,,,,Yes,,52.1283178,-0.475065
82,20082,Bedford Hospital South Wing,,Bedford,Bedfordshire,MK42 7,,,,,,,52.129193,-0.4696257
83,20083,Beechwood and Hunter's Way Nursing Home,,Liverpool,Merseyside,L3 8,,,,,,,53.3582778,-2.9240299
84,20084,Beighton Community Hospital,,Sheffield,South Yorkshire,S20 1,,,,,,,53.3461285,-1.3491573
85,20085,Belfast City Hospital,,Belfast,County Antrim,BT2 7,,,,,Yes,,54.5880997,-5.9391059
86,20086,Belhaven Hospital,,Dunbar,East Lothian,EH42 1,,,,,,,55.9958859,-2.5382611
87,20087,Bellsdyke Hospital,Bellsdyke Road nan,Larbert,Stirlingshire,FK5 3,,,,,No,,56.0341274,-3.8194223
88,20088,Bensham Hospital,Saltwell Road nan,Gateshead,Tyne And Wear,NE8 4,,+44 191 482 0000,,,,,54.9459266,-1.6153528
89,20089,Berkshire Independent Hospital,,Reading,Berkshire,RG1 4,,,,,,,51.4442226,-0.9899374
90,20090,Bernard Reiss Centre,,Cambridge,Cambridgeshire,CB3 9,,,,,,,52.1978656,0.1535417
91,20091,Berwick Infirmary,,Berwick-upon-Tweed,Northumberland,TD15 1,,,,,,,55.7729148,-2.0054244
92,20092,Bethlem Royal Hospital,,Beckenham,Kent,BR3 1,,,,,,,51.3801127,-0.0348406
93,20093,Bexhill Hospital,Holliers Hill nan,Bexhill on Sea,East Sussex,TN40 2,,,,,No,,50.8513454,0.4759292
94,20094,Bicester Community Hospital,King's End nan,Bicester,Oxfordshire,OX26 6,,,,,,,51.895849,-1.1582788
95,20095,Bideford Hospital,,Bideford,Devon,EX39 2,,,,,No,,51.0176705,-4.2120332
96,20096,Biggart Hospital,,Prestwick,Ayrshire,KA9 1,,,,,No,,55.4932669,-4.6064365
97,20097,Biggin Hill Clinic,,Westerham,Kent,TN16 3,,,,,,,51.3129631,0.0345938
98,20098,Biggleswade Hospital,,Biggleswade,Bedfordshire,SG18 0,,,,,No,,52.0991142,-0.2455745
99,20099,Birmingham Chest Clinic,Great Charles Street Queensway 151,Birmingham,West Midlands,B3 3,,,,,,,52.4816101,-1.9050169
100,20100,Birmingham Children's Hospital,,Birmingham,West Midlands,B4 6,,,,,,,52.4852838,-1.8924713
101,20101,Birmingham Children's Hospital A&E,,Birmingham,West Midlands,B4 6,,,,,,,52.4855027,-1.8928737
102,20102,Birmingham Dental Hospital,,Birmingham,West Midlands,B5 7,,,,,,,52.4508566,-1.9137903
103,20103,Birmingham Heartlands Hospital,,Birmingham,West Midlands,B9 5,,,,,,,52.4800005,-1.8300142
104,20104,Birmingham Women's Hospital,,Birmingham,West Midlands,B15 2,,,,,,,52.4528683,-1.9423228
105,20105,Bishop Auckland General Hospital,Cockton Hill Road nan,Bishop Auckland,County Durham,DL14 6,,+44 1388 455000,,,No,,54.6561701,-1.6776227
106,20106,Blackberry Hill Hospital,,Bristol,Avon,BS1 6,,,,,,,51.4844457,-2.5354161
107,20107,Blackberry Hill Hospital,,Bristol,Avon,BS1 6,,,,,,,51.4854625,-2.5405357
108,20108,Blackheath Hospital,,London,London,SE3 9,,,,,,,51.4636314,0.0059751
109,20109,Blackpool Victoria Hospital,,Blackpool,Lancashire,FY3 8,,,,,Yes,,53.8212575,-3.0133145
110,20110,Blaenau Ffestiniog Health Surgery,,Betws-Y-Coed,Gwynedd,LL24 0,,,,,,,52.9918315,-3.9354276
111,20111,Blairgowrie Community Hospital,,Blairgowrie,Perthshire,PH10 6,,,,,,,56.5857685,-3.3468048
112,20112,Blandford Community Hospital,Milldown Road nan,Blandford Forum,Dorset,DT11 7,,,,,No,,50.8626114,-2.1664689
113,20113,Bloxwich Hospital,,Walsall,West Midlands,WS3 2,,,,,,,52.6132094,-2.0049123
114,20114,Bluebird Lodge,Mansbrook Boulevard 100,Ipswich,Suffolk,IP1 2,,,,,,,52.0261887,1.1996169
115,20115,Bo'ness Hospital,Richmond Terrace nan,Bo'Ness,West Lothian,EH51 9,,,,,No,,56.0110226,-3.6122516
116,20116,Bodmin Hospital,,Bodmin,Cornwall,PL31 2,,,,,Yes,,50.4666436,-4.7414876
117,20117,Bognor Regis War Memorial Hospital,Shripney Road nan,Bognor Regis,West Sussex,PO21 1,,+44 1243 865418,,,,,50.7928119,-0.6767508
118,20118,Bolsover Hospital,,Chesterfield,Derbyshire,S44 6,,,,,,,53.2329222,-1.2791632
119,20119,Bomarsund Proton Therapy Cancer Centre,,,Northumberland,NE62 5,,,,,,,55.1551682,-1.5747937
120,20120,Borders General Hospital,,Melrose,Roxburghshire,TD6 9,,,,,Yes,,55.5930707,-2.7451407
121,20121,Boughton Medical Centre,,Chester,Cheshire,CH2 3,,,,,,,53.193039,-2.8765186
122,20122,Bourne Hall Health Centre,,Epsom,Surrey,KT17 1,,,,,,,51.3516102,-0.2528345
123,20123,Bovington Medical Centre,,Wareham,Dorset,BH20 6,,,,,,,50.699764,-2.247174
124,20124,Bowes Road Clinic,,London,London,N11 1,,,,,No,,51.6155022,-0.1311755
125,20125,Bradford Royal Infirmary,Duckworth Lane nan,Bradford,West Yorkshire,BD9 6,,,,,Yes,,53.8081143,-1.8016737
126,20126,Bradwell Hospital,Talke Road nan,Newcastle,Staffordshire,ST5 2,,,,,,,53.0397177,-2.2403288
127,20127,Braid Valley Hospital,,Ballymena,County Antrim,BT43 6,,+44 28 2563 5200,,,No,,54.8759432,-6.2709564
128,20128,Braintree Community Hospital,,Braintree,Essex,CM7 3,,,,,No,,51.8803414,0.5397367
129,20129,Bramcote Hospital,,,Warwickshire,CV11 6,,,,,,,52.5011366,-1.4081492
130,20130,Breckfield and North Everton,,Liverpool,Merseyside,L3 8,,,,,,,53.4253225,-2.9665235
131,20131,Brecon War Memorial Hospital,,Brecon,Powys,LD3 7,,,,,Yes,,51.9490893,-3.3851715
132,20132,Brentwood Community Hospital,,Brentwood,Essex,CM14 4,,,,,No,,51.6236114,0.3143296
133,20133,Bridgnorth Hospital,,Bridgnorth,Shropshire,WV16 4,,,,,,,52.5376488,-2.4228488
134,20134,Bridgwater Community Hospital,Bower Lane Bridgwater Community Hospital,,Somerset,TA7 8,,,,,,,51.1408975,-2.9742414
135,20135,Bridlington and District Hospital,Bessingby Road nan,Bridlington,North Humberside,YO15 2,,,,,No,,54.0858049,-0.2183803
136,20136,Brierley Hill Health & Social Care Centre,,Brierley Hill,West Midlands,DY5 3,,,,,,,52.4825843,-2.118152
137,20137,Brighton General Hospital,,Brighton,East Sussex,BN2 9,,,,,No,,50.8316363,-0.1140014
138,20138,Bristol Heart Institute,,Bristol,Avon,BS2 8,,,,,,,51.4592696,-2.5976579
139,20139,Bristol Royal Infirmary,,Bristol,Avon,BS2 8,,,,,Yes,,51.4594058,-2.5984938
140,20140,Brixham Hospital,,Brixham,Devon,TQ5 8,,,,,,,50.3892228,-3.514696
141,20141,Broad Green Centre,,Croydon,Surrey,CR0 1,,,,,No,,51.3842236,-0.1051054
142,20142,Broadgreen Hospital,,Liverpool,Merseyside,L3 8,,,,,,,53.4094853,-2.9000501
143,20143,Broadmoor,,Sandhurst,Berkshire,GU47 9,,,,,No,,51.3655812,-0.7798527
144,20144,Broadoaks Child Development Centre,Balcarres Road nan,Leyland,Lancashire,PR25 2,,+44 1772 621062,,,,,53.6926153,-2.6903345
145,20145,Broadway Nursing Home,,Liverpool,Merseyside,L3 8,,,,,,,53.4388199,-2.9333297
146,20146,Bromsgove Private Hospital,,Bromsgrove,Worcestershire,B60 2,,,,,No,,52.3322773,-2.0070678
147,20147,Bromyard Community Hospital,Highwell Lane nan,Bromyard,Herefordshire,HR7 4,,+44 1885 485700,,,No,,52.1866066,-2.5072295
148,20148,Brooke House,Hetton Road nan,Houghton le Spring,Tyne And Wear,DH5 8,,+44 191 584 2717,,,,,54.83669,-1.4685045
149,20149,Brookfields Hospital,Mill Road 351,Cambridge,Cambridgeshire,CB3 9,,,,,,,52.1977821,0.1517133
150,20150,Brooklands Health Centre,,Milton Keynes,Buckinghamshire,MK10 0,,,,,,,52.046342,-0.6766979
151,20151,Broomfield Hospital,Court Road nan,Chelmsford,Essex,CM1 7,,+44 1245 443673,,,Yes,,51.7777333,0.460072
152,20152,Bryn-y-neuadd Hospital,Aber Road nan,Llanfairfechan,Gwynedd,LL33 0,,,,,No,,53.256817,-3.9824538
153,20153,Brynmair Clinic,,Llanelli,Dyfed,SA15 1,,,,,No,,51.6854484,-4.1628064
154,20154,Buckingham Community Hospital,,Buckingham,Buckinghamshire,MK18 1,,,,,,,52.0024035,-0.9868615
155,20155,Buckland Hospital,Coombe Valley Road nan,Dover,Kent,CT16 1,,+44 1304201624,,,No,,51.1325112,1.2929905
156,20156,Budleigh Salterton Hospital,,Budleigh Salterton,Devon,EX9 6,,,,,,,50.6317383,-3.3197291
157,20157,Burnley General Hospital,Casterton Avenue nan,Burnley,Lancashire,BB11 1,,,,,Yes,,53.8073299,-2.2301368
158,20158,Burrswood,,Tunbridge Wells,Kent,TN1 1,,,,,,,51.1185605,0.1713197
159,20159,Bushey Fields Hospital,,Dudley,West Midlands,DY2 8,,,,,No,,52.5035376,-2.1185069
160,20160,Caithness General Hospital,,Wick,Caithness,KW1 4,,,,,,,58.4416017,-3.0964265
161,20161,Calderdale Royal Hospital,,Halifax,West Yorkshire,HX3 0,,,,,Yes,,53.7036721,-1.858874
162,20162,Callington Road Hospital,Marmalade Lane nan,Bristol,Avon,BS1 6,,,,,,,51.4322028,-2.5564063
163,20163,Cambian Meeko House & Home Tree School,March Road 172,,Cambridgeshire,PE14 0,,+44 8001 381184,,,,,52.6156134,0.1459551
164,20164,Cambian Oaks Hospital,,Barnsley,South Yorkshire,S70 2,,,,,,,53.543179,-1.4683226
165,20165,Camborne Redruth Community Hospital,Barncoose Terrace nan,Redruth,Cornwall,TR15 3,,,,,No,,50.2291209,-5.2470052
166,20166,Cambridge Biomedical Campus,,Cambridge,Cambridgeshire,CB3 9,,,,,,,52.1763921,0.1444285
167,20167,Camden Ambulance Station,,London,London,NW3 1,,,,,,,51.5538134,-0.1613357
168,20168,Camden Day Hospital,Camden Mews 5,London,London,NW1 1,,,,,No,,51.5441057,-0.135342
169,20169,Cameron Hospital,,Leven,Fife,KY8 5,,,,,No,,56.185252,-3.0546497
170,20170,Campbeltown Hospital,,Campbeltown,Argyll,PA28 6,,,,,Yes,,55.4205534,-5.6057015
171,20171,Campus for Ageing and Vitality,Westgate Road nan,Newcastle upon Tyne,Tyne And Wear,NE4 5,,+44 191 233 6161,,,,,54.9784678,-1.6428059
172,20172,Car Park A,,Southampton,Hampshire,SO15 2,,,,,,,50.9127613,-1.3983418
173,20173,Car Park D (staff),,Southampton,Hampshire,SO15 2,,,,,,,50.9126892,-1.3996982
174,20174,Car Park E,,Southampton,Hampshire,SO15 2,,,,,,,50.9126628,-1.3979322
175,20175,Cardiff Royal Infirmary,,Cardiff,South Glamorgan,CF10 1,,,,,,,51.4859759,-3.1617115
176,20176,Carnegie Centre,Hunters Road nan,Birmingham,West Midlands,B19 2,,,,,,,52.4972561,-1.9155498
177,20177,"Carter Bequest Hospital, Middlesbrough",,Middlesbrough,Cleveland,TS5 5,,,,,,,54.5547138,-1.2497345
178,20178,Cassel Hospital,Ham Common 1,Richmond,Surrey,TW10 7,,,,,,,51.4327558,-0.3074029
179,20179,Castle Douglas Hospital,,Castle Douglas,Kirkcudbrightshire,DG7 1,,,,,,,54.9392756,-3.9257072
180,20180,Castle Hill Hospital,,,Kirkcudbrightshire,HU16 5,,,,,No,,53.7757156,-0.4484058
181,20181,Castleberg Hospital,,Settle,North Yorkshire,BD24 0,,,,,,,54.0696804,-2.2923833
182,20182,Caterham Dene - Physiotherapy,Church Street nan,Caterham,Surrey,CR3 6,,,,,,,51.2836345,-0.0853007
183,20183,Caterham Dene Hospital & Minor Injuries Unit,Church Street nan,Caterham,Surrey,CR3 6,,,,,,,51.2832892,-0.0861807
184,20184,Causeway Hospital,Newbridge Road 4,Coleraine,County Londonderry,BT52 1,,028 7032 7032,,,Yes,,55.1223652,-6.6493423
185,20185,Cavendish Hospital,Manchester Road 24,Buxton,Derbyshire,SK17 6,,,,,No,,53.2625687,-1.9218683
186,20186,Cedars Care Home,Church Side nan,Leeds,West Yorkshire,LS26 9,,,,,,,53.7352726,-1.4072983
187,20187,Central Middlesex Hospital,,London,London,NW10 7,,,,,,,51.5331117,-0.2648819
188,20188,Chalfont Centre for Epilepsy,,Gerrards Cross,Buckinghamshire,SL9 9,,,,,No,,51.6243518,-0.5529703
189,20189,Chalkhill,Lewes Road nan,Haywards Heath,West Sussex,RH16 4,,,,,,,50.9914138,-0.0936103
190,20190,Chalmers Centre,,Edinburgh,Midlothian,EH3 5,,,,,,,55.9446041,-3.1984864
191,20191,Chapel Allerton Hospital,Chapeltown Road nan,Leeds,West Yorkshire,LS7 4,,,,,,,53.8231695,-1.5319715
192,20192,Charing Cross Hospital,,London,London,W6 9,,,,,Yes,,51.4877233,-0.2214698
193,20193,Charles Clifford Dental Hospital,,Sheffield,South Yorkshire,S1 2,,,,,,,53.3795438,-1.4938119
194,20194,Chase Farm Hospital,,Enfield,Middlesex,EN2 6,,,,,No,,51.6651895,-0.0992066
195,20195,Chase Hospital,Conde Way nan,Bordon,Hampshire,GU35 0,,,,,,,51.1070493,-0.8621014
196,20196,Chavasse V C House,,Colchester,Essex,CO2 7,,,,,,,51.8683915,0.892543
197,20197,Cheadle Hosptal,,Stoke-on-Trent,Staffordshire,ST10 1,,,,,No,,52.9847728,-1.9904579
198,20198,Cheadle Royal Hospital,,Cheadle,Cheshire,SK8 2,,,,,No,,53.3754102,-2.2243242
199,20199,Chelmsford and Essex Centre,,Chelmsford,Essex,CM2 6,,,,,,,51.7307335,0.4706619
200,20200,Chelmsley Wood NHS Primary Care Centre,,Birmingham,West Midlands,B37 5,,,,,,,52.4807964,-1.7533812
201,20201,Chelsea and Westminster Hospital,,London,London,SW10 9,,,,,Yes,,51.4844858,-0.182694
202,20202,Cheltenham General Hospital,,Cheltenham,Gloucestershire,GL50 1,,,,,,,51.8943752,-2.0703793
203,20203,Chester Le Street Hospital,Front Street nan,Chester le Street,County Durham,DH3 3,,+44 191 333 2333,,,,,54.851189,-1.5755875
204,20204,Chesterfield Royal Hospital,,Chesterfield,Derbyshire,S41 7,,,,,,,53.238603,-1.3995233
205,20205,Cheviot Primary Care Centre,Padgepool Place nan,Wooler,Northumberland,NE71 6,,+44 1668 281740,,,,,55.5467978,-2.018993
206,20206,Child Development Centre,,Cambridge,Cambridgeshire,CB2 0,,,,,,,52.17425,0.1387555
207,20207,Child and Adolescent Mental Health Service,,West Bromwich,West Midlands,B70 7,,,,,,,52.5190795,-1.9999583
208,20208,Childrens Resource Centre,,Dartford,Kent,DA2 8,,,,,,,51.4355633,0.2561599
209,20209,Chirk Community Hospital,,Wrexham,Clwyd,LL14 5,,,,,,,52.9440511,-3.0530796
210,20210,Chorley & South Ribble District General Hospital,Preston Road nan,Chorley,Lancashire,PR7 2,,,,,suspended,,53.6668178,-2.6377916
211,20211,Christchurch Hospital,,Christchurch,Dorset,BH23 1,,,,,No,,50.7454343,-1.7920724
212,20212,Church Elm Lane Health Centre,,Dagenham,Essex,RM10 8,,,,,,,51.5399796,0.1570106
213,20213,Churchill Hospital,,Oxford,Oxfordshire,OX3 7,,,,,,,51.7503988,-1.2159006
214,20214,CircleBath Hospital,,Bath,Avon,BA2 8,,,,,,,51.3111467,-2.417862
215,20215,Cirencester Hospital,Tetbury Road nan,Cirencester,Gloucestershire,GL7 1,,,,,,,51.7120037,-1.9728104
216,20216,City Hospital,Dudley Road nan,Birmingham,West Midlands,B18 7,,,,,Yes,,52.4901662,-1.9269033
217,20217,City Hospital,Hucknall Road nan,Nottingham,Nottinghamshire,NG1 7,,,,,,,52.9898195,-1.1653403
218,20218,Clackmannanshire Community Healthcare Centre,,Alloa,Clackmannanshire,FK10 1,,,,,No,,56.1251608,-3.785152
219,20219,Clacton Hospital,,Clacton-on-Sea,Essex,CO15 3,,,,,,,51.7864668,1.1485663
220,20220,Claire House Hospice,,Wirral,Merseyside,CH49 2,,,,,,,53.3311001,-3.0257048
221,20221,Claremont Medical Centre,Glenbuck Road 2,Surbiton,Surrey,KT6 4,,+44 20 8399 2280,,,No,,51.3910384,-0.307083
222,20222,Clatterbridge Hospital,,Wirral,Merseyside,CH49 2,,,,,,,53.3303245,-3.0248598
223,20223,Clay Cross Hospital,,Chesterfield,Derbyshire,S45 9,,,,,,,53.168052,-1.4057604
224,20224,Cleland Hospital,,Motherwell,Lanarkshire,ML1 5,,,,,,,55.8026359,-3.9075176
225,20225,Clevedon Community Hospital,Old Street 62-68,Clevedon,Avon,BS21 6,,+44 1275 872212,,,,,51.4376354,-2.846885
226,20226,Clevedon Minor Injuries Unit,,Clevedon,Avon,BS21 6,,,,,,,51.4374442,-2.8472195
227,20227,Clifton Hospital,Pershore Road nan,Lytham St Annes,Lancashire,FY8 4,,,,,,,53.7434536,-3.0092651
228,20228,Clifton Park Treatment Centre,Blue Beck Drive nan,York,North Yorkshire,YO30 5,,,,,,,53.9785327,-1.1139998
229,20229,Clipstone Health Centre,,Mansfield,Nottinghamshire,NG19 0,,,,,No,,53.1569655,-1.1377782
230,20230,Clitheroe Community Hospital,,Clitheroe,Lancashire,BB7 2,,01254 263555,,,No,,53.8836946,-2.3740499
231,20231,Clock View Hospital,,Liverpool,Merseyside,L3 8,,,,,,,53.4525239,-2.9676276
232,20232,Coalville Community Hospital,Broom Leys Road nan,Coalville,Leicestershire,LE67 3,,,,,,,52.7247335,-1.3493389
233,20233,Coathill Hospital,Hospital Street nan,Coatbridge,Lanarkshire,ML5 1,,,,,No,,55.849018,-4.0238728
234,20234,Cobalt Treatment Centre,The Silverlink North nan,,Tyne And Wear,,,+44 191 283 5856,,,No,,55.0280947,-1.5112157
235,20235,Cobholm and Lichfield Health and Resource Centre,,Great Yarmouth,Norfolk,NR29 4,,,,,No,,52.6054111,1.7189923
236,20236,Coggeshall Surgery,,Colchester,Essex,CO6 1,,,,,Yes,,51.8724122,0.6840484
237,20237,Colchester General Hospital,,Colchester,Essex,CO4 5,,,,,Yes,,51.9075839,0.8972589
238,20238,Colwyn Bay Community Hospital,Hesketh Road nan,Colwyn Bay,Clwyd,LL29 7,,,,,,,53.2873083,-3.7091075
239,20239,Community Paramedic Service,,Morpeth,Northumberland,NE65 7,,,,,Yes,,55.3067837,-1.9141343
240,20240,Compton Hospice,,Wolverhampton,West Midlands,WV1 1,,,,,No,,52.5853129,-2.1721572
241,20241,Congleton War Memorial Hospital,Canal Road nan,Congleton,Cheshire,CW12 1,,,,,No,,53.1583514,-2.2044459
242,20242,Convent,,London,London,W4 4,,,,,,,51.4850657,-0.2548251
243,20243,Coquetdale Community Hospital,,Morpeth,Northumberland,NE65 7,,,,,No,,55.3067119,-1.9143114
244,20244,Corby Community Hospital,Cottingham Road nan,Corby,Northamptonshire,NN18 0,,,,,,,52.4920148,-0.710803
245,20245,Cossham Hospital,Lodge Road nan,Bristol,Avon,BS1 6,,,,,,,51.4696586,-2.5172854
246,20246,Cottage Hospital Llandrindod Wells,Temple Street nan,Llandrindod Wells,Powys,LD1 5,,,,,No,,52.2430776,-3.3774617
247,20247,Countess of Chester Hospital,Liverpool Road nan,Chester,Cheshire,CH1 2,,,,,Yes,,53.2134922,-2.8989961
248,20248,County Hospital,,Pontypool,Gwent,NP4 5,,,,,,,51.6905929,-3.0281453
249,20249,County Hospital,,Stafford,Staffordshire,ST16 2,,,,,,,52.8106639,-2.0925174
250,20250,County Hospital Louth,,Louth,Lincolnshire,LN11 9,,,,,,,53.3724006,-0.0112868
251,20251,Courtenay House Surgery,,Hitchin,Hertfordshire,SG5 2,,,,,No,,51.9510937,-0.2772789
252,20252,Coventry and Warwick Hospital,,Coventry,West Midlands,CV1 2,,,,,,,52.4155386,-1.5068838
253,20253,Cowal Community Hospital,Argyll Street 360,Dunoon,Argyll,PA23 8,,+44 1369704341,,,,,55.959281,-4.9292939
254,20254,Coylton Health Clinic,,Ayr,Ayrshire,KA6 6,,,,,,,55.4420343,-4.5170675
255,20255,Crawley Hospital,,Crawley,West Sussex,RH10 8,,,,,,,51.1175105,-0.1964447
256,20256,Crediton Hospital (No A & E),,Crediton,Devon,EX17 3,,,,,,,50.7926643,-3.6754095
257,20257,Cree Day Hospital,,Dumfries,Dumfriesshire,DG1 2,,,,,,,55.0536604,-3.5969711
258,20258,Creiff Community Hospital,King Street nan,Crieff,Perthshire,PH7 3,,,,,,,56.3693449,-3.842254
259,20259,Crewkerne Hospital,,Crewkerne,Somerset,TA18 7,,,,,No,,50.8813047,-2.7978836
260,20260,Cromwell Hospital,,London,London,SW5 0,,,,,,,51.4948943,-0.1919803
261,20261,Cross Lane Hospital,Cross Lane nan,Scarborough,North Yorkshire,YO12 6,,,,,No,,54.2974228,-0.4268468
262,20262,Crosshouse Hospital,,Kilmarnock,Ayrshire,KA2 0,,,,,,,55.6117616,-4.5341338
263,20263,Crowborough War Memorial Hospital,South View Road nan,Crowborough,East Sussex,TN6 2,,,,,No,,51.0513923,0.1567378
264,20264,Croydon University Hospital,London Road 530,Thornton Heath,Surrey,CR7 7,,,,,Yes,,51.3887237,-0.1075482
265,20265,Culm Valley Integrated Centre for Health,,Cullompton,Devon,EX15 1,,,,,,,50.8648898,-3.3918841
266,20266,Cumberland Infirmary,,Carlisle,Cumbria,CA2 7,,,,,Yes,,54.8943119,-2.9560547
267,20267,"Cygen Hospital, Bierley",,Bradford,West Yorkshire,BD4 6,,,,,,,53.7684853,-1.7324617
268,20268,Cygnet Hospital,,Harrow,Middlesex,HA1 3,,,,,No,,51.5675356,-0.3380254
269,20269,Cygnet Hospital,,Woking,Surrey,GU21 2,,,,,,,51.314948,-0.6157494
270,20270,Cygnet Hospital,Buller Street nan,Bury,Lancashire,BL8 2,,+44 161 762 7200,,,No,,53.5875739,-2.3162019
271,20271,Cygnet Hospital Derby,City Gate 100,Derby,Derbyshire,DE1 1,,,,,,,52.9075866,-1.4545387
272,20272,Cygnet Hospital Ealing,,London,London,W5 2,,,,,,,51.5211864,-0.2974923
273,20273,Cygnet Hospital Godden Green,,Sevenoaks,Kent,TN13 1,,+441732763491,,,No,,51.2708655,0.2297999
274,20274,Dacrelands Clinic,Aldrens Lane nan,Lancaster,Lancashire,LA1 1,,,,,No,,54.0596634,-2.8003712
275,20275,Daisy Hill Hospital,Hospital Road 5,Newry,County Down,BT35 6,,028 3083 5000 ext 2347,,,Yes,,54.1783742,-6.3489169
276,20276,Dalriada Hospital,Coleraine Road 1A,Ballycastle,County Antrim,BT54 6,,,,,,,55.1997071,-6.2584278
277,20277,Darent Valley Hospital,,Dartford,Kent,DA1 1,,,,,Yes,,51.4374945,0.2549568
278,20278,Davison House,,Cambridge,Cambridgeshire,CB3 9,,,,,,,52.1983981,0.1520414
279,20279,DeVitre House,Ashton Road nan,Lancaster,Lancashire,LA1 1,,,,,No,,54.0311542,-2.8034397
280,20280,Denbigh Infirmary,Ruthin Road nan,Denbigh,Clwyd,LL16 3,,,,,,,53.1859203,-3.4108032
281,20281,Dene Barton Community Hospital,Dene Road nan,Taunton,Somerset,TA4 1,,+44 1823 431930,,,,,51.0384639,-3.1825922
282,20282,Denmark St Surgery Annexe,,Darlington,County Durham,DL1 1,,,,,,,54.538808,-1.5528317
283,20283,Dereham Hospital,Northgate nan,Dereham,Norfolk,NR19 1,,,,,,,52.6898205,0.9444378
284,20284,Derriford Hospital,Derriford Road nan,Plymouth,Devon,PL6 8,,+44 1752 202082,,,Yes,,50.4181976,-4.1165136
285,20285,Devonshire Neurorehabilitation Centre,,Stockport,Cheshire,SK4 1,,,,,No,,53.3916474,-2.1320445
286,20286,Dewi Sant Hospital,,Pontypridd,Mid Glamorgan,CF37 1,,,,,,,51.5978321,-3.3445012
287,20287,Dewsbury & District Hospital,,Dewsbury,West Yorkshire,WF13 4,,,,,Yes,,53.7031771,-1.648966
288,20288,"Diana, Princess of Wales Hospital",,Grimsby,South Humberside,DN34 4,,,,,,,53.5456525,-0.0933514
289,20289,Didcot Hospital,,Didcot,Oxfordshire,OX11 8,,,,,No,,51.6039956,-1.2591131
290,20290,Dilke Memorial Hospital,Speech House Road nan,,Gloucestershire,GL14 3,,,,,Yes,,51.8104157,-2.5213529
291,20291,Doctor Mackinnon Memorial Hospital,,,Isle Of Skye,,,,,,,,57.2461699,-5.9117685
292,20292,Doddington Community Hospital,,March,Cambridgeshire,PE15 0,,,,,,,52.4989715,0.0562793
293,20293,Dolgellau and Barmouth Hospital,,Machynlleth,Powys,SY20 9,,,,,,,52.7413013,-3.8812743
294,20294,Doncaster Royal Infirmary,,Doncaster,South Yorkshire,DN2 5,,,,,Yes,,53.5300033,-1.1145481
295,20295,Dorothy House Hospice Care,,Bradford on Avon,Wiltshire,BA15 2,,,,,No,,51.346336,-2.2922055
296,20296,Dorothy Pattison Hospital,Alumwell Close nan,Walsall,West Midlands,WS1 2,,+44 1922 607000,,,No,,52.5814901,-2.0021911
297,20297,Dovedale Day Hospital,,Derby,Derbyshire,DE1 1,,,,,,,52.9137451,-1.4668687
298,20298,Downe Hospital,Struell Wells Road 2,Downpatrick,County Down,BT30 6,,028 4483 8191,,,Yes,,54.3208267,-5.6936323
299,20299,Dr Gray's Hospital,,Elgin,Morayshire,IV30 1,,,,,Yes,,57.6446563,-3.3305247
300,20300,Droitwich Spa Hospital (Private),,Droitwich,Worcestershire,WR9 8,,,,,No,,52.2668822,-2.1513861
301,20301,Duchy Hospital,,Harrogate,North Yorkshire,HG1 2,,,,,No,,53.9878812,-1.5481959
302,20302,Dulwich Community Hospital,,London,London,SW1A 2,,,,,,,51.4592173,-0.0815917
303,20303,Dumbarton Joint Hospital,,Dumbarton,Dunbartonshire,G82 1,,,,,No,,55.9484961,-4.5961134
304,20304,Dumfries and Galloway Royal Infirmary,Cargenbridge nan,,Dunbartonshire,DG2 8,,,,,Yes,,55.0608846,-3.6617144
305,20305,Dunbar Hospital,,Thurso,Caithness,KW14 7,,,,,,,58.5835269,-3.5410263
306,20306,Duncan Macmillan House,Porchester Road nan,Nottingham,Nottinghamshire,NG1 7,,,,,No,,52.9784086,-1.1267307
307,20307,Dunston Hill Hospital,Dunston Hill nan,Gateshead,Tyne And Wear,NE11 9,,+44 191 482 0000,,,,,54.9467287,-1.6579839
308,20308,Dykebar Hospital,,Paisley,Renfrewshire,PA3 2,,,,,No,,55.8245212,-4.394023
309,20309,Eaglestone View,Chadwick Drive nan,Milton Keynes,Buckinghamshire,MK6 5,,,,,,,52.0273631,-0.7400872
310,20310,Ealing Hospital NHS Trust,,Southall,Middlesex,UB1 3,,+44 20 8967 5000,,,,,51.5085666,-0.346476
311,20311,Earl Mountbatten Hospice,Halberry Lane nan,,Isle Of Wight,,,,,,,,50.7078825,-1.2814021
312,20312,East Ayrshire Community Hospital,,Cumnock,Ayrshire,KA18 1,,,,,,,55.451707,-4.2731345
313,20313,East Cleveland Hospital,,Saltburn by the Sea,Cleveland,TS12 2,,,,,,,54.5643022,-0.9376069
314,20314,East Lothian Community Hospital,,Haddington,East Lothian,EH41 3,,,,,,,55.9562454,-2.7994481
315,20315,East Riding Community Hospital,Swinemoor Lane nan,Beverley,North Humberside,HU17 8,,,,,Yes,,53.8527846,-0.4147281
316,20316,Eastbourne District General Hospital,,Eastbourne,East Sussex,BN21 4,,,,,,,50.7844254,0.2720661
317,20317,Eastwick Park Medical Practice,,Leatherhead,Surrey,KT23 3,,,,,,,51.2821845,-0.3694294
318,20318,Eccleshill Diagnostic Clinic,,Bradford,West Yorkshire,BD10 9,,,,,,,53.8241998,-1.7112521
319,20319,Eden Valley Hospice,Durdar Road nan,Carlisle,Cumbria,CA3 8,,,,,,,54.870771,-2.9307945
320,20320,Edgware Community Hospital,Burnt Oak Broadway nan,Edgware,Middlesex,HA8 7,,,,,No,,51.6056637,-0.2737371
321,20321,Edington Hospital,,North Berwick,East Lothian,EH39 4,,,,,,,56.0556514,-2.7182216
322,20322,Edward Street Hospital,,West Bromwich,West Midlands,B70 7,,,,,No,,52.5195235,-1.9987455
323,20323,Ellen Badger Hospital,Stratford Road nan,Shipston on Stour,Warwickshire,CV36 4,,,,,,,52.0673995,-1.6224336
324,20324,Ellen's Glen House,,Edinburgh,Midlothian,EH17 8,,,,,,,55.9093627,-3.1491639
325,20325,Ellesmere Port Hospital,,Ellesmere Port,Cheshire,CH65 0,,,,,No,,53.2671918,-2.9101461
326,20326,Ellingham Hospital,Ellingham Road nan,,Norfolk,NR17 1,,,,,,,52.5252886,0.9894887
327,20327,Elmhurst Practice (GP),,London,London,E18 1,,,,,No,,51.5974994,0.021455
328,20328,Emersons Green NHS Treatment Centre,,Bristol,Avon,BS1 6,,,,,,,51.5037657,-2.4841224
329,20329,Epsom General Hospital,Dorking Road nan,Epsom,Surrey,KT18 7,,,,,Yes,,51.3263599,-0.2742125
330,20330,Erith and District Hospital,,Erith,Kent,DA8 1,,,,,,,51.4767323,0.1657873
331,20331,Escort Hospital,,Great Yarmouth,Norfolk,NR29 4,,,,,No,,52.6162834,1.7315337
332,20332,Euxton Hall Hospital,Wigan Road nan,Chorley,Lancashire,PR7 6,,,,,,,53.6616903,-2.6767937
333,20333,Evelina Children's Hospital,,London,London,SE1 7,,,,,No,,51.4984829,-0.1191037
334,20334,Everton Centre,,Belfast,County Antrim,BT2 7,,,,,No,,54.6163783,-5.9685991
335,20335,Evesham Community Hospital,Waterside nan,Evesham,Worcestershire,WR11 4,,,,,minor_injuries,,52.0848055,-1.9487596
336,20336,Exeter Mobility Centre,Wonford Road nan,Exeter,Devon,EX1 1,,,,,,,50.7154828,-3.5117028
337,20337,Exmouth Hospital,,Exmouth,Devon,EX8 1,,,,,,,50.6207364,-3.4004107
338,20338,Fairfield Hospital,,St Helens,Merseyside,WA10 1,,,,,,,53.4854204,-2.7506438
339,20339,Fairfield Hospital,Rochdale Old Road nan,Bury,Lancashire,BL9 7,,,,,Yes,,53.5996586,-2.2594232
340,20340,Fairwood Hospital,,,Lancashire,SA2 7,,,,,,,51.616367,-4.0493104
341,20341,Falkirk Community Hospital,Westburn Avenue nan,Falkirk,Stirlingshire,FK1 5,,,,,No,,55.9960966,-3.7985021
342,20342,Falmouth Hospital,,Falmouth,Cornwall,TR11 3,,,,,,,50.155649,-5.0866782
343,20343,Family Doctors (GP Surgery),,Bedford,Bedfordshire,MK45 2,,,,,,,52.0264596,-0.4933642
344,20344,Family Doctors Practice (GP Surgery),,Bedford,Bedfordshire,MK45 1,,,,,,,52.0051744,-0.4940791
345,20345,Fareham Community Hospital,Brook Lane nan,Southampton,Hampshire,SO31 7,,,,,No,,50.8712811,-1.2758417
346,20346,Farmfield Hospital,,,Surrey,RH6 0,,,,,No,,51.1663468,-0.2036376
347,20347,Farnham Community Hospital,,Farnham,Surrey,GU9 7,,,,,No,,51.2214361,-0.7838077
348,20348,Farnham Road Hospital,,Guildford,Surrey,GU1 4,,,,,No,,51.2359609,-0.5866282
349,20349,Faversham Cottage Hospital,,Faversham,Kent,ME13 8,,,,,,,51.3147747,0.8887634
350,20350,Felixstowe Community Hospital & Minor Injuries Unit,Constable Road nan,Felixstowe,Suffolk,IP11 7,,,,,,,51.9638373,1.3564796
351,20351,Fermoy Unit,Gayton Road nan,King's Lynn,Norfolk,PE30 2,,,,,Yes,,52.7560038,0.4446888
352,20352,Fernbrae Hospital,Perth Road 329,Dundee,Angus,DD1 3,,,,,,,56.4565317,-3.0129238
353,20353,Ferndene - Children and Young Peoples Inpatient Service,Moor Road nan,Prudhoe,Northumberland,NE42 5,,+44 1661 838 400,,,No,,54.9500906,-1.8420063
354,20354,Fieldhead Hospital,,Wakefield,West Yorkshire,WF1 4,,,,,,,53.6962429,-1.4902981
355,20355,Finchley Memorial Hospital,,London,London,N12 8,,,,,No,,51.6053928,-0.1775976
356,20356,Firbeck Hospital,,Worksop,Nottinghamshire,S81 8,,,,,,,53.3939411,-1.1515777
357,20357,First Avenue Surgery,"First Avenue 2, 2A",Dagenham,Essex,RM10 8,,,,,,,51.529799,0.1567983
358,20358,Flagg Court Primary Care Centre,Flagg Court nan,South Shields,Tyne And Wear,NE33 1,,+44 191 283 2000,,,No,,54.9992016,-1.4267418
359,20359,Flatts Lane Centre,,,North Yorkshire,TS6 0,,,,,No,,54.5455981,-1.1479395
360,20360,Fleet Community Hospital,,Fleet,Hampshire,GU51 3,,,,,,,51.2877649,-0.8489018
361,20361,Fleming Hospital,,Aberlour,Banffshire,AB38 9,,,,,,,57.4687494,-3.2237597
362,20362,Fordingbridge Hospital,,Fordingbridge,Hampshire,SP6 1,,,,,No,,50.9283808,-1.7928661
363,20363,Fordingbridge Hospital,,Fordingbridge,Hampshire,SP6 1,,,,,No,,50.928896,-1.7924669
364,20364,Former Barnet Hospital Buildings,,Barnet,Hertfordshire,EN5 3,,,,,,,51.6521841,-0.2195039
365,20365,Forster Green Hospital,,Belfast,County Antrim,BT2 7,,,,,No,,54.5634009,-5.9069648
366,20366,Forth Valley Royal Hospital,Stirling Road nan,Larbert,Stirlingshire,FK5 4,,+44 1324 566 000,,,Yes,,56.0265148,-3.8560956
367,20367,Fraserburgh Hospital,,Fraserburgh,Aberdeenshire,AB43 9,,,,,,,57.6881085,-2.0205295
368,20368,Freeman Hospital,,Newcastle upon Tyne,Tyne And Wear,NE7 7,,,,,,,55.0037879,-1.5893236
369,20369,Frenchay Brain Injury Rehabilitation Centre,,Bristol,Avon,BS1 6,,,,,,,51.4992794,-2.5221187
370,20370,Friarage Hospital,,Northallerton,North Yorkshire,DL6 1,,,,,Yes,,54.341339,-1.4315756
371,20371,Frimley Park Hospital,Portsmouth Road nan,Camberley,Surrey,GU15 2,,,,,Yes,,51.3220083,-0.7423318
372,20372,Frome Community Hospital,,Frome,Somerset,BA11 1,,,,,,,51.2381204,-2.3119698
373,20373,Fryatt Hospital & Mayflower Medical Centre,Main Road 419,Harwich,Essex,CO12 3,,,,,No,,51.9336027,1.2600157
374,20374,Fulbourn Hospital (psychiatric),,Cambridge,Cambridgeshire,CB21 5,,,,,No,,52.1871415,0.190721
375,20375,Furness General Hospital,,Barrow-in-Furness,Cumbria,LA14 1,,,,,,,54.1370652,-3.2126112
376,20376,Garngoch Hospital,,,Cumbria,SA4 4,,,,,No,,51.6581813,-4.0097736
377,20377,Gartnavel General Hospital,,Glasgow,Lanarkshire,G13 1,,,,,No,,55.8807977,-4.3157128
378,20378,Gartnavel Royal Hospital,,Glasgow,Lanarkshire,G13 1,,,,,No,,55.8810816,-4.316333
379,20379,George Eliot Hospital,,Nuneaton,Warwickshire,CV11 4,,,,,,,52.5126455,-1.4794255
380,20380,Gilbert Bain Hospital,,,Shetland Islands,,,,,,Yes,,60.1512611,-1.1579258
381,20381,Girvan Community Hospital,,Girvan,Ayrshire,KA26 9,,,,,,,55.2476929,-4.8474925
382,20382,Gisburne Park Hospital (Not A and E),,,Lancashire,BB7 4,,,,,,,53.9436484,-2.2678128
383,20383,Glanrhyd Hospital,,Bridgend,Mid Glamorgan,CF31 4,,,,,,,51.5246923,-3.5871437
384,20384,Glasgow Royal Infirmary,,Glasgow,Lanarkshire,G4 0,,,,,Yes,,55.8653113,-4.2301118
385,20385,Glen O'Dee Hospital,,Banchory,Kincardineshire,AB31 5,,,,,No,,57.0609205,-2.5219481
386,20386,Glenfield Hospital,Groby Road nan,Leicester,Leicestershire,LE3 8,,,,,No,,52.6580599,-1.1841734
387,20387,Glenrothes Hospital,,Glenrothes,Fife,KY7 5,,,,,No,,56.2058905,-3.1813121
388,20388,Gloucestershire Royal Hospital,,Gloucester,Gloucestershire,GL1 2,,,,,Yes,,51.8663768,-2.2381746
389,20389,Golden Jubilee National Hospital,,Clydebank,Dunbartonshire,G81 4,,,,,,,55.9054183,-4.4213162
390,20390,Goodmayes,,Ilford,Essex,IG1 4,,,,,,,51.5777033,0.1134666
391,20391,Goodmayes Hospital,,Ilford,Essex,IG1 4,,,,,,,51.5762944,0.1133112
392,20392,Gordon Hospital,,London,London,SW1P 3,,,,,,,51.4923315,-0.1358988
393,20393,Goresbrook Medical Centre,Goresbrook Road 50,Dagenham,Essex,RM10 8,,,,,,,51.5325479,0.1462067
394,20394,Gorse Hill Hospital,Anstey Lane nan,Leicester,Leicestershire,LE1 4,,,,,No,,52.6640567,-1.1770668
395,20395,Gorseinon Hospital,Brynawel Road nan,Swansea,West Glamorgan,SA4 4,,,,,,,51.6728408,-4.048355
396,20396,Gosport War Memorial Hospital,Bury Road nan,Gosport,Hampshire,PO12 2,,,,,,,50.7925223,-1.1472741
397,20397,Gosport War Memorial Minor Injuries Unit,Bury Road nan,Gosport,Hampshire,PO12 1,,+442392794753;+442392794754,,,Yes,,50.7932592,-1.1476621
398,20398,Grand Union Health Centre,Harrow Road 209,London,London,W2 6,,+44 0207 286 1231,,,,,51.5201438,-0.1909613
399,20399,Gransha Park Hospital,,Londonderry,County Londonderry,BT48 6,,,,,,,55.0142914,-7.2835191
400,20400,Grays Court Community Hospital,John Parker Close nan,Dagenham,Essex,RM10 8,,,,,No,,51.5390065,0.1578277
401,20401,Great Ormond Street Hospital for Children,Great Ormond Street nan,London,London,WC1H 9,,,,,,,51.522909,-0.1217399
402,20402,Great Western Hospital,,Swindon,Wiltshire,SN3 6,,,,,Yes,,51.536592,-1.7237599
403,20403,Green Lane Hospital,,Devizes,Wiltshire,SN10 1,,,,,,,51.3389779,-1.9823397
404,20404,Green Lane Medical Centre,,Liverpool,Merseyside,L3 8,,,,,,,53.4241889,-2.9289695
405,20405,Grosvenor Nuffield Hospital,Wrexham Road nan,Chester,Cheshire,CH1 2,,,,,,,53.1767967,-2.8951809
406,20406,Guernsey House,London Road nan,Sheffield,South Yorkshire,S1 2,,,,,,,53.3635415,-1.4723749
407,20407,Guest Hospital,,Dudley,West Midlands,DY2 8,,,,,No,,52.5195048,-2.0738948
408,20408,Guisborough General Hospital,,Guisborough,Cleveland,TS14 6,,,,,,,54.537856,-1.0528107
409,20409,Guy's Hospital,Great Maze Pond nan,London,London,SE1 1,,+44 20 7188 7188,,,No,,51.5042503,-0.0871723
410,20410,Gwynedd Hospice at Home,,Caernarfon,Gwynedd,LL55 1,,,,,,,53.1299894,-4.2635747
411,20411,H Q Darnall Medical Aid Society,,Sheffield,South Yorkshire,S1 2,,,,,No,,53.3874968,-1.4119116
412,20412,HMS Raleigh Medical Centre,,Torpoint,Cornwall,PL11 2,,,,,No,,50.3732072,-4.22456
413,20413,Hafan Derwen Mental Facility,,,Cornwall,SA31 3,,,,,,,51.8563489,-4.340192
414,20414,Hairmyres Hospital,,Glasgow,Lanarkshire,G75 8,,,,,Yes,,55.7591582,-4.2251772
415,20415,Hallam Street Hospital,Hallam Street nan,West Bromwich,West Midlands,B70 7,,,,,No,,52.5271456,-1.9848374
416,20416,Hammersmith Hospital,,London,London,W12 0,,,,,,,51.5163503,-0.2338599
417,20417,Harleston Medical Practice,,Harleston,Norfolk,IP20 9,,,,,No,,52.4035271,1.3001533
418,20418,Harold Kidd Unit,Blomfield Drive nan,Chichester,West Sussex,PO19 1,,,,,,,50.8510647,-0.7743021
419,20419,Harold Wood Polyclinic,,Romford,Essex,RM3 0,,,,,,,51.5925173,0.2249407
420,20420,Harperbury,,St Albans,Hertfordshire,AL1 3,,,,,,,51.7031199,-0.3109817
421,20421,Harplands Hospital,,Stoke-on-Trent,Staffordshire,ST4 6,,,,,No,,53.0022434,-2.2107785
422,20422,Hartismere Hospital,,Eye,Suffolk,IP23 7,,,,,,,52.323495,1.1386884
423,20423,Hartshill Medical Centre,,Stoke-on-Trent,Staffordshire,ST1 5,,,,,,,53.0103176,-2.2115065
424,20424,Hartswood Hospital,,Brentwood,Essex,CM14 4,,,,,No,,51.6007907,0.2930673
425,20425,Haslemere & District Hospital,Church Lane nan,Haslemere,Surrey,GU27 2,,,,,,,51.0920857,-0.7086061
426,20426,Havant Community Health ,,Havant,Hampshire,PO9 1,,,,,,,50.8580993,-0.9789097
427,20427,Hawick Community Hospital,,Hawick,Roxburghshire,TD9 9,,,,,,,55.4238891,-2.7951072
428,20428,Hay Lodge Hospital,,Peebles,Peeblesshire,EH45 8,,,,,,,55.6523017,-3.1992476
429,20429,Haywood Hospital,High Lane nan,Stoke-on-Trent,Staffordshire,ST1 5,,,,,,,53.0573752,-2.1936068
430,20430,Headcorn Surgery,,Ashford,Kent,TN27 9,,,,,,,51.1704397,0.6337237
431,20431,Headway House,,Cambridge,Cambridgeshire,CB3 9,,,,,,,52.1971921,0.1537303
432,20432,Health Center,,Torrington,Devon,EX38 8,,,,,No,,50.9521955,-4.139834
433,20433,Health Center,,Torrington,Devon,EX38 8,,,,,No,,50.9518508,-4.1398554
434,20434,Heath Lane Hospital,,West Bromwich,West Midlands,B70 7,,,,,,,52.5386942,-1.9911411
435,20435,Heatherwood Hospital,,Ascot,Berkshire,SL5 7,,,,,,,51.4096713,-0.6903574
436,20436,Helen Ley House,,Leamington Spa,Warwickshire,CV32 6,,,,,No,,52.3223243,-1.5409006
437,20437,Helston Community Hospital,Meneage Road nan,Helston,Cornwall,TR13 8,,,,,,,50.0912056,-5.2654181
438,20438,Hemel Hempstead Hospital,,Hemel Hempstead,Hertfordshire,HP1 1,,,,,No,,51.7524925,-0.4716289
439,20439,Herdmanflat Hospital,,Haddington,East Lothian,EH41 3,,,,,,,55.9603865,-2.7886324
440,20440,Hereford County Hospital,,Hereford,Herefordshire,HR4 0,,,,,Yes,,52.057877,-2.7051529
441,20441,Hereward Practice,,Bourne,Lincolnshire,PE10 9,,,,,No,,52.7688351,-0.3806614
442,20442,Hergest Unit,,Bangor,Gwynedd,LL57 2,,,,,,,53.2073701,-4.161198
443,20443,Herts And Essex Community Hospital,,Bishop's Stortford,Hertfordshire,CM23 2,,,,,No,,51.8657103,0.1735073
444,20444,Hexham General Hospital,Corbridge Road nan,Hexham,Northumberland,NE46 1,,,,,Yes,,54.9695343,-2.0959652
445,20445,Highbury Hospital,,Nottingham,Nottinghamshire,NG6 8,,,,,,,52.9914731,-1.1919715
446,20446,Highcroft Hospital,,Birmingham,West Midlands,B23 7,,,,,No,,52.5239121,-1.8561761
447,20447,Highfield Nursing Home,,Ware,Hertfordshire,SG12 0,,,,,,,51.8033065,-0.0352132
448,20448,Highgate Mental Health Centre,Dartmouth Park Hill nan,London,London,SW1A 2,,,,,Yes,,51.5674869,-0.1416863
449,20449,Highgate Mental Health Centre,Dartmouth Park Hill nan,London,London,N19 5,,+44 207 561 4000,,,No,,51.5669754,-0.1424002
450,20450,Hightown Ambulance Station,,Southampton,Hampshire,SO15 2,,,,,,,50.9003257,-1.3267863
451,20451,Hillingdon Hospital,Pield Heath Road nan,Uxbridge,Middlesex,UB8 1,,,,,Yes,,51.5273101,-0.4627759
452,20452,Hinchingbrooke Hospital,,Huntingdon,Cambridgeshire,PE29 7,,,,,,,52.330252,-0.2017626
453,20453,Hinckley & Market Bosworth Community Hospital,,Hinckley,Leicestershire,LE10 1,,,,,No,,52.5617412,-1.3696458
454,20454,Hinckley Hospital,,Hinckley,Leicestershire,LE10 1,,,,,,,52.5392792,-1.368882
455,20455,Hindmoor Manor,,,Surrey,GU26 6,,,,,,,51.1052166,-0.7342556
456,20456,Holmeside and Parkway Medical Groups,,Newcastle upon Tyne,Tyne And Wear,NE15 9,,,,,No,,54.9961988,-1.7166157
457,20457,Holy Cross Hospital,Hindhead Road nan,Haslemere,Surrey,GU27 1,,+44 1428 643311,,,No,,51.0908767,-0.7393275
458,20458,Holywell Hospital,,Antrim,County Antrim,BT41 4,,,,,No,,54.7306198,-6.202807
459,20459,Homerton University Hospital,,London,London,E9 6,,,,,Yes,,51.5493567,-0.0468395
460,20460,Honeylands Children Centre,,Exeter,Devon,EX1 1,,,,,,,50.731184,-3.4954199
461,20461,Honiton Community Hospital,,Honiton,Devon,EX14 1,,,,,,,50.7960813,-3.1862399
462,20462,Hornsey Central Neighbourhood Health Centre,,London,London,N8 8,,,,,,,51.5843507,-0.131367
463,20463,Horsham Hospital,Hurst Road nan,Horsham,West Sussex,RH12 2,,,,,No,,51.0711177,-0.3255341
464,20464,Hospice,,Llandudno,Gwynedd,LL30 1,,,,,,,53.3223127,-3.8438403
465,20465,Hospital Residences,,Dudley,West Midlands,DY2 8,,,,,,,52.5042813,-2.116412
466,20466,Hospital of St Cross,,Rugby,Warwickshire,CV22 5,,,,,No,,52.3624649,-1.2582887
467,20467,Hospital of St John and St Elizabeth,Grove End Road 60,London,London,NW8 6,,,,,,,51.5332819,-0.1742662
468,20468,Houghton Close Surgery,,Bedford,Bedfordshire,MK45 2,,,,,,,52.026086,-0.4926808
469,20469,Houghton Day Unit,Hetton Road nan,Houghton le Spring,Tyne And Wear,DH5 8,,,,,,,54.8370598,-1.468839
470,20470,Houghton Primary Care Centre,,Houghton le Spring,Tyne And Wear,DH5 8,,,,,No,,54.8435675,-1.4768323
471,20471,Hove Polyclinic,Nevill Avenue nan,Hove,East Sussex,BN3 7,,,,,,,50.8422682,-0.1900208
472,20472,Hoylake Cottage Care Home,Birkenhead Road nan,Wirral,Merseyside,CH47 0,,,,,,,53.3982963,-3.1713917
473,20473,Huddersfield Royal Infirmary,,Huddersfield,West Yorkshire,HD3 3,,,,,Yes,,53.6566158,-1.8150224
474,20474,Hull and East Yorkshire Eye Hospital,Fountain Street nan,Hull,North Humberside,HU1 2,,,,,,,53.7443561,-0.3544959
475,20475,Hundens Lane Day Hospital,Hundens Lane nan,Darlington,County Durham,DL1 1,,+44 1325 380100,,,,,54.5242889,-1.5380485
476,20476,Hunslet Health Centre,,Leeds,West Yorkshire,LS10 1,,,,,No,,53.7796497,-1.5266222
477,20477,Hunters Moor Neurorehabilitation Unit,,Birmingham,West Midlands,B28 9,,,,,,,52.4413604,-1.8434392
478,20478,Hurstpierpoint Health Centre,Trinity Road nan,Hassocks,West Sussex,BN6 9,,+44 1273 834 388,,,No,,50.9338968,-0.1753047
479,20479,Hutton Village Nursing Home,,Brentwood,Essex,CM14 4,,,,,,,51.6274586,0.361026
480,20480,Hythe Hospital,,Southampton,Hampshire,SO45 5,,,,,Yes,,50.8583721,-1.4037304
481,20481,Ian Charles Hospital,,Grantown on Spey,Morayshire,PH26 3,,,,,,,57.3370329,-3.6044291
482,20482,Ida Darwin Hospital,,Cambridge,Cambridgeshire,CB21 5,,,,,No,,52.1865672,0.1940765
483,20483,Ilfracombe Tyrrell Hospital,St Brannocks Park Road nan,Ilfracombe,Devon,EX34 9,,,,,No,,51.204377,-4.1242397
484,20484,Ilkeston Community Hospital,Heanor Road nan,Ilkeston,Derbyshire,DE7 8,,,,,,,52.9888192,-1.3226863
485,20485,Insch War Memorial Hospital,,Insch,Aberdeenshire,AB52 6,,,,,Yes,,57.3405427,-2.6143097
486,20486,Inverclyde Royal Hospital,,Gourock,Renfrewshire,PA19 1,,,,,Yes,,55.9452764,-4.8083628
487,20487,Invergordon County Community Hospital,,Invergordon,Ross-shire,IV18 0,,,,,,,57.6955126,-4.1499188
488,20488,Inverurie Hospital,,Inverurie,Aberdeenshire,AB51 4,,,,,No,,57.2760414,-2.3801387
489,20489,Ipswich Hospital,Heath Road nan,Ipswich,Suffolk,IP4 5,,,,,Yes,,52.0599444,1.1951678
490,20490,Isebrook Hospital,Irthlingborough Road nan,Wellingborough,Northamptonshire,NN8 4,,,,,,,52.2973209,-0.683559
491,20491,Islay Hospital,Gortonvogie Road nan,,Isle Of Islay,,,,,,,,55.7554493,-6.2809065
492,20492,Ivydene,Noose Lane nan,Willenhall,West Midlands,WV13 2,,,,,No,,52.5928316,-2.0687175
493,20493,James Paget University Hospital,,Great Yarmouth,Norfolk,NR31 6,,,,,,,52.5595376,1.7159102
494,20494,Jenner House,,Harlow,Essex,CM20 2,,,,,No,,51.7840816,0.1337832
495,20495,John Coupland Hospital,,Gainsborough,Lincolnshire,DN21 1,,,,,,,53.4123394,-0.7838878
496,20496,John Howard Centre,Kenworthy Road 12,London,London,E9 7,,+44 20 8510 2003,,,,,51.547066,-0.0401796
497,20497,John Radcliffe Hospital,,Oxford,Oxfordshire,OX3 7,,,,,Yes,,51.7615504,-1.2187884
498,20498,John Taylor Hospice,,Birmingham,West Midlands,B3 3,,,,,,,52.5278948,-1.8226591
499,20499,Johnson Community Hospital,Spalding Road 2,Spalding,Lincolnshire,PE11 1,,,,,,,52.802062,-0.1528725
500,20500,Joyce Cockram Day Hospital,,Bury St Edmunds,Suffolk,IP33 1,,,,,,,52.2305796,0.7039563
501,20501,Jubilee Hospital,,Huntly,Aberdeenshire,AB54 8,,,,,,,57.442672,-2.7920676
502,20502,KIMS Hospital,Newnham Court way nan,Maidstone,Kent,ME14 1,,+44 1622 237500,,,No,,51.2863716,0.5575778
503,20503,Keir Hardie Health Park,,Merthyr Tydfil,Mid Glamorgan,CF48 1,,,,,,,51.7467174,-3.391193
504,20504,Kello Hospital,,Biggar,Lanarkshire,ML12 6,,,,,,,55.6226517,-3.5207942
505,20505,Kelso Hospital (Inch Hosp.),,Kelso,Roxburghshire,TD5 7,,,,,Yes,,55.6028762,-2.4352209
506,20506,Kendray Hospital,,Barnsley,South Yorkshire,S70 2,,,,,,,53.5466872,-1.4554657
507,20507,Kent and Canterbury Hospital,Ethelbert Road nan,Canterbury,Kent,CT1 2,,,,,Yes,,51.2668892,1.0854941
508,20508,Keswick Care Home,,Leatherhead,Surrey,KT23 3,,,,,,,51.2821637,-0.3699578
509,20509,Kettering General Hospital,,Kettering,Northamptonshire,NN16 8,,,,,Yes,,52.40225,-0.7372807
510,20510,Kettering General Hospital - Nene Park,,Wellingborough,Northamptonshire,NN9 5,,,,,,,52.3292416,-0.6009662
511,20511,Keynsham Health Centre,,Bristol,Avon,BS31 1,,,,,,,51.4098092,-2.4978985
512,20512,Kidderminster Hospital,,Kidderminster,Worcestershire,DY11 6,,,,,,,52.3865118,-2.2604199
513,20513,Kilburn Square Clinic,Kilburn Square 91,London,London,NW6 4,,,,,,,51.5386693,-0.1952599
514,20514,Kincardine Community Hospital,,Stonehaven,Kincardineshire,AB39 2,,+44 1569 792000,,,No,,56.9688045,-2.2322414
515,20515,King Edward VII Hospital,St Leonard's Road nan,Windsor,Berkshire,SL4 3,,,,,,,51.473976,-0.6137241
516,20516,King Edward VII Hospital,St Leonard's Road nan,Windsor,Berkshire,SL4 3,,,,,,,51.4730673,-0.6145203
517,20517,King Edward VII Hospital,,Windsor,Berkshire,SL4 3,,,,,No,,51.47401,-0.615028
518,20518,King Edward VII's Hospital,Beaumont Street 55-56,London,London,NW1 4,,,,,,,51.5204723,-0.1503234
519,20519,King George Hospital,,Ilford,Essex,IG3 8,,,,,,,51.5793465,0.1120495
520,20520,King's College Hospital,Denmark Hill nan,London,London,SE5 9,,,,,Yes,,51.4675702,-0.0957779
521,20521,Kings Cross Hospital,,Dundee,Angus,DD1 3,,,,,,,56.4753745,-2.9892763
522,20522,Kings Hill Hospital,,Wednesbury,West Midlands,WS10 7,,,,,,,52.5641857,-2.0290317
523,20523,Kings Mill Hospital,Mansfield Road nan,Sutton in Ashfield,Nottinghamshire,NG17 4,,,,,Yes,,53.1331636,-1.2333662
524,20524,Kings Park Hospital,,Bournemouth,Dorset,BH2 5,,,,,No,,50.7311443,-1.8341514
525,20525,Kingston Hospital,Galsworthy Road nan,Kingston upon Thames,Surrey,KT2 7,,,,,Yes,,51.4128886,-0.2830849
526,20526,Kingsway Health Centre,,Stevenage,Hertfordshire,SG1 2,,,,,No,,51.8996569,-0.2069812
527,20527,Kingsway Hospital,Kingsway nan,Derby,Derbyshire,DE1 1,,,,,,,52.9159387,-1.5152035
528,20528,Kington Surgery,,Kington,Herefordshire,HR5 3,,,,,,,52.1968214,-3.0213967
529,20529,Kinnaird House (The Christie NHS Foundation Trust),,Manchester,Lancashire,M20 3,,,,,,,53.42875,-2.2251942
530,20530,Kircudbright Health Centre,,Kirkcudbright,Kirkcudbrightshire,DG6 4,,,,,,,54.8347726,-4.0502628
531,20531,Kirkdale Mediacal Centre,,Liverpool,Merseyside,L5 7,,,,,,,53.4327764,-2.9741134
532,20532,Kirklands Hospital,,Glasgow,Lanarkshire,G71 8,,,,,No,,55.811177,-4.0624953
533,20533,Kirklandside Hospital,,Kilmarnock,Ayrshire,KA1 2,,,,,No,,55.5947464,-4.4726911
534,20534,Kneesworth House Hospital,,,Ayrshire,SG8 5,,,,,,,52.0786173,-0.0312372
535,20535,Knockbracken Healthcare Park,,,County Down,BT8 8,,,,,,,54.5403318,-5.9013689
536,20536,Knoll Community Hospital,,Duns,Berwickshire,TD11 3,,,,,No,,55.773004,-2.3420736
537,20537,Knutsford and District Community Hospital,,Knutsford,Cheshire,WA16 6,,,,,,,53.3019437,-2.3774206
538,20538,LB Healthcare,,Fareham,Hampshire,PO15 7,,,,,,,50.8811654,-1.2572951
539,20539,Lady Home Cottage Hospital,,,Hampshire,ML11 0,,,,,,,55.5584111,-3.8390501
540,20540,Lagan Valley Hospital,Hillsborough Road 39,Lisburn,County Antrim,BT28 1,,028 9260 4643,,,Yes,,54.5047144,-6.0477059
541,20541,Laindon Health Centre,,Basildon,Essex,SS15 5,,,,,,,51.5734239,0.4231793
542,20542,Lambeth Hospital,Landor Road 108,London,London,SW9 6,,,,,,,51.4661589,-0.124356
543,20543,Lancam Nursing Home,Netherlands Road 55 - 57,Barnet,Hertfordshire,EN5 1,,,,,,,51.6410373,-0.1709838
544,20544,Lanchester Road Hospital,,Durham,County Durham,DH1 1,,,,,No,,54.8004471,-1.6152624
545,20545,Langley Green Hospital,,Crawley,West Sussex,RH10 8,,,,,No,,51.1317206,-0.1900834
546,20546,Lawson Memorial Hospital,,Golspie,Sutherland,KW10 6,,,,,,,57.9716548,-3.9882714
547,20547,Leatherhead Hospital,Poplar Road nan,Leatherhead,Surrey,KT22 7,,+44 1372 384 348,,,,,51.2954905,-0.3204963
548,20548,Ledbury Community Health and Care Centre,,Ledbury,Herefordshire,HR8 1,,,,,,,52.0366892,-2.4256442
549,20549,Leeds General Infirmary,,Leeds,West Yorkshire,LS1 3,,,,,Yes,,53.8016262,-1.5555853
550,20550,Leeds General Infirmary,,Leeds,West Yorkshire,LS1 3,,,,,,,53.8026701,-1.5504408
551,20551,Leeds Road Community Hospital,,Bradford,West Yorkshire,BD1 2,,,,,,,53.7952758,-1.7327674
552,20552,Leeds Student Medical Practice,,Leeds,West Yorkshire,LS1 5,,,,,,,53.807196,-1.5490103
553,20553,Leek Moorlands Hospital,,Leek,Staffordshire,ST13 6,,,,,,,53.1035522,-2.0097496
554,20554,Leicester General,,Leicester,Leicestershire,LE1 4,,,,,,,52.6278339,-1.0793424
555,20555,Leicester Royal Infirmary,,Leicester,Leicestershire,LE2 7,,,,,Yes,,52.6271924,-1.1380936
556,20556,Leigh House Hospital,,Winchester,Hampshire,SO21 1,,,,,,,51.0619813,-1.2844444
557,20557,Leigh Infirmary,,Leigh,Lancashire,WN7 1,,,,,,,53.5057129,-2.5143516
558,20558,Leighton Hospital,,Crewe,Cheshire,CW1 4,,,,,,,53.1205922,-2.4797397
559,20559,Leith Community Treatment Centre,,Edinburgh,Midlothian,EH6 4,,,,,No,,55.9716588,-3.1765585
560,20560,Leonard Lodge Nursing Home,Roxwell Gardens nan,Brentwood,Essex,CM14 4,,,,,,,51.6355859,0.3436839
561,20561,Leverndale Hospital,,Glasgow,Lanarkshire,G52 3,,,,,,,55.8354745,-4.3696559
562,20562,Lewes Victoria,,Lewes,East Sussex,BN8 5,,,,,,,50.8749553,-0.0047958
563,20563,Liberton Hospital,,Edinburgh,Midlothian,EH17 8,,,,,,,55.9093217,-3.1543549
564,20564,Lightburn Hospital,,Glasgow,Lanarkshire,G32 0,,,,,No,,55.860029,-4.1649165
565,20565,Lincoln County Hospital,,Lincoln,Lincolnshire,LN5 7,,,,,Yes,,53.2350648,-0.5240883
566,20566,Liskeard Community Hospital,Clemo Road nan,Liskeard,Cornwall,PL14 4,,,,,Yes,,50.4617787,-4.4509258
567,20567,Lister Hospital,Chelsea Bridge Road nan,London,London,SW1E 6,,,,,,,51.4864869,-0.1501999
568,20568,Lister Hospital,,Stevenage,Hertfordshire,SG1 1,,,,,,,51.9255585,-0.2150817
569,20569,Lister Primary Care Centre,,London,London,SE15 5,,,,,,,51.4743564,-0.0751208
570,20570,Listonshells Day Centre,,Bradford,West Yorkshire,BD4 6,,,,,,,53.7612369,-1.7325059
571,20571,Little Aston Hospital,,Sutton Coldfield,West Midlands,B74 3,,,,,,,52.5998415,-1.8760477
572,20572,Little Brook Hospital,Bow Arrow Lane nan,Dartford,Kent,DA2 6,,+44 1322622222,,,No,,51.446788,0.2403127
573,20573,Little Woodhouse Hall,Clarendon Road 18,Leeds,West Yorkshire,LS1 3,,,,,,,53.8032133,-1.5568211
574,20574,Littlemore Mental Health Centre,,Oxford,Oxfordshire,OX1 3,,,,,No,,51.7177658,-1.2307312
575,20575,Liverpool Women's Hospital,Crown Street nan,Liverpool,Merseyside,L7 7,,,,,,,53.39744,-2.9614108
576,20576,Llanarth Court,,Raglan,Gwent,NP15 2,,,,,,,51.7926266,-2.8974964
577,20577,Llandough Hospital,,Penarth,South Glamorgan,CF64 2,,,,,,,51.4477019,-3.198261
578,20578,Llanfrechfa Grange,,Cwmbran,Gwent,NP44 8,,,,,No,,51.6493457,-3.0000004
579,20579,Llanidloes War Memorial Hospital,Eastgate Street nan,Llanidloes,Powys,SY18 6,,+44 1686 412121,,,No,,52.4521976,-3.5392651
580,20580,Lochmaben Hospital,,Lockerbie,Dumfriesshire,DG11 1,,,,,,,55.1272116,-3.4535633
581,20581,Lockhart Hospital,,Lanark,Lanarkshire,ML11 9,,,,,,,55.6704944,-3.7603773
582,20582,Lon Masarn,,Swansea,West Glamorgan,SA1 2,,,,,,,51.6258121,-3.9888497
583,20583,London Bridge Hospital,Tooley Street nan,London,London,SE1 3,,,,,,,51.5062297,-0.0867724
584,20584,London Hyperbaric Medicine,,London,London,E11 1,,+44 20 8539 1222,,,,,51.5776404,0.0035911
585,20585,London Road Community Hospital,London Road nan,Derby,Derbyshire,DE1 1,,,,,No,,52.9150742,-1.468233
586,20586,London Road Community Hospital,London Road nan,Derby,Derbyshire,DE1 1,,,,,No,,52.9139173,-1.4676732
587,20587,Longton Cottage Hospital,Upper Belgrave Road nan,Stoke-on-Trent,Staffordshire,ST3 4,,,,,No,,52.9783335,-2.1225742
588,20588,Lorn and Islands Hospital,,Oban,Argyll,PA34 4,,,,,Yes,,56.4012256,-5.4765056
589,20589,Loughborough Hospital,,Loughborough,Leicestershire,LE11 3,,,,,,,52.7724214,-1.2249898
590,20590,Lower Farm Nursing Home,Grimston Road 126,King's Lynn,Norfolk,PE30 2,,,,,,,52.7760338,0.4549307
591,20591,Ludlow Hospital,Gravel Hill nan,Ludlow,Shropshire,SY8 1,,,,,,,52.3731209,-2.7147821
592,20592,Lurgan Hospital,Union Street nan,Craigavon,County Armagh,BT66 6,,,,,,,54.4578693,-6.3392758
593,20593,Luton and Dunstable,,Luton,Bedfordshire,LU1 2,,,,,Yes,,51.8970119,-0.4745677
594,20594,Luton and Dunstable Hospital,,Luton,Bedfordshire,LU1 2,,,,,Yes,,51.897439,-0.4753562
595,20595,Luton and Dunstable Hospital,,Luton,Bedfordshire,LU1 2,,,,,Yes,,51.8958979,-0.4733898
596,20596,Lutterworth Cottage Hospital,,Lutterworth,Leicestershire,LE17 4,,,,,,,52.4577549,-1.1979016
597,20597,Lydney Health Centre,,Lydney,Gloucestershire,GL15 5,,,,,,,51.7281065,-2.5299347
598,20598,Lymington New Forest Hospital,,Lymington,Hampshire,SO41 9,,,,,Yes,,50.7697016,-1.5472941
599,20599,Lynebank Hospital,,Dunfermline,Fife,KY11 8,,,,,,,56.0796042,-3.4125642
600,20600,Lynfield Mount Hospital,Heights Lane nan,Bradford,West Yorkshire,BD9 6,,,,,,,53.8082692,-1.8031455
601,20601,Lytham Primary Care Center,Warton Street nan,Lytham St Annes,Lancashire,FY8 5,,,,,No,,53.7380577,-2.9477157
602,20602,Macmillan Cancer Centre,Huntley Street nan,London,London,WC1A 2,,,,,No,,51.5232604,-0.1356713
603,20603,Maes Y Gruffydd Road,,Swansea,West Glamorgan,SA1 2,,,,,,,51.6258609,-3.991902
604,20604,Maesteg Hospital,,Maesteg,Mid Glamorgan,CF34 9,,,,,No,,51.6106999,-3.6694844
605,20605,Maindiff Court Hospital,Ross Road nan,,Mid Glamorgan,NP7 8,,,,,No,,51.8325671,-2.998428
606,20606,Malton Hospital,,Malton,North Yorkshire,YO17 7,,,,,,,54.1377683,-0.8059507
607,20607,Malvern Community Hospital,Worcester Road 185,Great Malvern,Worcestershire,WR14 4,,,,,,,52.1254744,-2.3213761
608,20608,Manchester Royal Infirmary,,Manchester,Lancashire,M13 9,,,,,Yes,,53.4631559,-2.2266928
609,20609,Manchester University Hospitals (central site),,Manchester,Lancashire,M13 9,,,,,Yes,,53.4624106,-2.2293728
610,20610,Manor Hospital,,Walsall,West Midlands,WS2 9,,,,,Yes,,52.5816506,-1.9970418
611,20611,Mansfield Community Hospital,Stockwell Gate nan,Mansfield,Nottinghamshire,NG18 5,,,,,No,,53.1422786,-1.2052426
612,20612,Maple Leaf Centre,,Birmingham,West Midlands,B37 7,,,,,,,52.4709517,-1.7367238
613,20613,Maplewood Independent Hospital,,Coventry,West Midlands,CV1 2,,,,,,,52.4457649,-1.5447874
614,20614,Mardon Rehabilitation Centre,,Exeter,Devon,EX1 1,,,,,,,50.7166112,-3.5128983
615,20615,Marie Curie Hospice,,Solihull,West Midlands,B91 3,,,,,No,,52.4118285,-1.7614089
616,20616,Marie Foster Centre,,Barnet,Hertfordshire,EN5 4,,,,,,,51.6528458,-0.2059554
617,20617,Market Harborough Medical Center,nan 67,Market Harborough,Leicestershire,LE16 7,,,,,,,52.4767779,-0.9254937
618,20618,Martletts Hospice,Wayfield Avenue nan,Hove,East Sussex,BN3 7,,,,,,,50.8416393,-0.1892523
619,20619,Mary Hewetson Cottage Hospital,Crosthwaite Road nan,Keswick,Cumbria,CA12 5,,+44 1768 245678,,,,,54.6062203,-3.1392444
620,20620,Mater Infirmorum Hospital,Crumlin Road 45-54,Belfast,County Antrim,BT2 7,,028 9074 1211,,,Yes,,54.6085503,-5.940979
621,20621,Meadowfield,,Worthing,West Sussex,BN11 1,,,,,,,50.842403,-0.4126615
622,20622,Meanwood Health Centre,,Leeds,West Yorkshire,LS6 4,,,,,,,53.8274015,-1.5660892
623,20623,Medical Centre,,,Somerset,TA2 6,,,,,,,51.0386006,-3.1548594
624,20624,Medical Centre,,London,London,NW7 3,,,,,,,51.61811,-0.2291856
625,20625,Medical Centre,,Sleaford,Lincolnshire,NG34 7,,,,,No,,52.9973048,-0.408824
626,20626,Medical Centre,,,Dorset,,,,,,,,50.8895234,-2.0999185
627,20627,Medway Maritime Hospital,Windmill Road nan,Gillingham,Kent,ME7 5,,+44 1634 830000,,,Yes,,51.381811,0.5398967
628,20628,Melksham Hospital,,Melksham,Wiltshire,SN12 7,,,,,,,51.367909,-2.1315945
629,20629,Memorial Hospital,Shooters Hill nan,London,London,SE18 3,,+44 20 8836 8500,,,,,51.469722,0.0628713
630,20630,Meriden Surgery,,Watford,Hertfordshire,WD17 2,,,,,,,51.6810623,-0.383479
631,20631,Middleton Community Health Centre,,Leeds,West Yorkshire,LS10 4,,,,,,,53.7431937,-1.5475037
632,20632,Midhurst Community Hospital,,Haslemere,Surrey,GU27 3,,,,,,,50.994268,-0.735789
633,20633,Midlothian Community Hospital,,Bonnyrigg,Midlothian,EH19 3,,,,,No,,55.880783,-3.0923437
634,20634,Midpark Hospital,,,Midlothian,DG1 4,,,,,,,55.0504294,-3.5891363
635,20635,Migdale Hospital,,Ardgay,Sutherland,IV24 3,,+44 1863 766211,,,,,57.8916206,-4.343217
636,20636,Mile End Hospital,Bancroft Road 275,London,London,E1 4,,,,,No,,51.5252857,-0.0442484
637,20637,Milford Hospital,Tuesley Lane nan,,Surrey,GU7 1,,,,,,,51.1683042,-0.625805
638,20638,Mill Garth Hospital,Mill Pond Lane nan,Leeds,West Yorkshire,LS6 4,,,,,,,53.8283443,-1.5698649
639,20639,Millom Community Hospital,Lapstone Road nan,Millom,Cumbria,LA18 5,,,,,No,,54.2082873,-3.2682245
640,20640,Millway Medical Practice,Hartley Avenue nan,London,London,NW7 3,,,,,No,,51.6155417,-0.2442659
641,20641,Milton Keynes Hospital,Standing Way nan,Milton Keynes,Buckinghamshire,MK6 5,,,,,Yes,,52.0286161,-0.7399241
642,20642,Minehead Community Hospital,Luttrell Way nan,Minehead,Somerset,TA24 6,,,,,,,51.1980512,-3.4637684
643,20643,Minor Injury and Illness Unit,,Sunderland,Tyne And Wear,SR1 3,,,,,Yes,,54.888917,-1.431412
644,20644,Moffat Hospital,,Moffat,Dumfriesshire,DG10 9,,,,,,,55.3320285,-3.4307035
645,20645,Molineux Street NHS Centre,Molineux Street nan,Newcastle upon Tyne,Tyne And Wear,NE6 5,,+44 191 275 5740,,,No,,54.9777282,-1.5829092
646,20646,Monkwearmouth Hospital,,Sunderland,Tyne And Wear,SR1 3,,,,,,,54.924572,-1.3876937
647,20647,Monmouth Court Nursing Home,Monmouth Close nan,Ipswich,Suffolk,IP1 2,,,,,,,52.0368924,1.1452264
648,20648,Montagu Hospital,,Mexborough,South Yorkshire,S64 9,,,,,,,53.5013453,-1.2867807
649,20649,Montfield Hospital,,,Shetland Islands,,,,,,No,,60.1537978,-1.1512976
650,20650,Moorfields Eye Hospital (City Road campus),,London,London,EC1V 7,,,,,Yes,,51.5267767,-0.091096
651,20651,Moorgreen Hospital,,Southampton,Hampshire,SO30 3,,,,,,,50.928554,-1.3264912
652,20652,Moredon Medical Centre,,Swindon,Wiltshire,SN1 1,,,,,,,51.5835744,-1.8120521
653,20653,Morriston Hospital,,Swansea,West Glamorgan,SA1 2,,,,,,,51.6840934,-3.9380017
654,20654,Moseley Hall Hospital,,Birmingham,West Midlands,B13 9,,,,,,,52.4453503,-1.8961161
655,20655,Mossley Hill Hospital,,Liverpool,Merseyside,L3 8,,,,,No,,53.3812977,-2.9284002
656,20656,Mount Alvernia Hospital,Harvey Road nan,Guildford,Surrey,GU1 4,,,,,No,,51.2359602,-0.5651103
657,20657,Mount Gould Hospital,Mount Gould Road nan,Plymouth,Devon,PL4 8,,,,,No,,50.3784504,-4.116967
658,20658,Mount Stuart Hospital,,Torquay,Devon,TQ2 5,,,,,No,,50.4753713,-3.5423524
659,20659,Mount Vernon,,Rickmansworth,Hertfordshire,WD3 1,,,,,,,51.6148807,-0.4497103
660,20660,Mount Vernon Hospital,,Barnsley,South Yorkshire,S70 2,,,,,,,53.5386734,-1.4757116
661,20661,Mountain Ash Hospital (New),,Mountain Ash,Mid Glamorgan,CF45 3,,,,,,,51.686503,-3.3901555
662,20662,Mountcastle HealthCare Centre,,Edinburgh,Midlothian,EH15 3,,,,,,,55.9406137,-3.1174563
663,20663,Moyle Hospital,,Larne,County Antrim,BT40 1,,,,,,,54.8538146,-5.8164308
664,20664,Muckamore Abbey Hospital,,Antrim,County Antrim,BT41 4,,,,,No,,54.692466,-6.1930543
665,20665,Mull & Iona Community Hospital,,Isle of Mull,Isle Of Mull,PA75 6,,,,,Yes,,56.4798286,-5.7160547
666,20666,Murray Royal Hospital,Muirhall Road nan,Perth,Perthshire,PH1 5,,,,,No,,56.3996023,-3.4155906
667,20667,Murrayfield Hospital,,Wirral,Merseyside,CH49 2,,,,,,,53.3525097,-3.0748085
668,20668,Musgrave Park Hospital,,Belfast,County Antrim,BT2 7,,,,,,,54.5667487,-5.9749368
669,20669,Musgrove Park Hospital,Parkfield Drive nan,Taunton,Somerset,TA1 5,,+44 1823 333444,,,Yes,,51.0119176,-3.1239407
670,20670,NHS Albany Lodge and St Albans Children Centre,,St Albans,Hertfordshire,AL1 3,,,,,,,51.7552464,-0.3445028
671,20671,NHS Elmleigh,,Havant,Hampshire,PO9 1,,,,,,,50.8585377,-0.9745876
672,20672,NHS Surgery,,Dagenham,Essex,RM10 8,,,,,,,51.5462667,0.1236873
673,20673,NHS Treatment Centre,,Nottingham,Nottinghamshire,NG7 2,,,,,No,,52.9419925,-1.1819771
674,20674,NHS Whitehawk Clinic,,Brighton,East Sussex,BN2 9,,,,,,,50.8238263,-0.1048108
675,20675,Nairn Town and County Hospital,Cawdor Road nan,Nairn,Nairnshire,IV12 4,,,,,Yes,,57.5784327,-3.8716243
676,20676,Nant-y-Glyn Health Resource Centre,Nant-Y-Glyn Road 10,Colwyn Bay,Clwyd,LL29 7,,,,,,,53.2900308,-3.7221006
677,20677,Naomi House & Jacksplace,Stockbridge Road nan,Winchester,Hampshire,SO23 9,,,,,No,,51.1510663,-1.3466386
678,20678,Neath Port Talbot Hospital,,Port Talbot,West Glamorgan,SA12 6,,,,,,,51.6012292,-3.8014137
679,20679,Nether Edge Hospital,,Sheffield,South Yorkshire,S1 2,,,,,,,53.3606097,-1.4934343
680,20680,Nether Edge Hospital,Osborne Road 75,Sheffield,South Yorkshire,S1 2,,,,,,,53.3618289,-1.4981097
681,20681,Neurosciences Office,,Cambridge,Cambridgeshire,CB2 0,,,,,,,52.1740994,0.1426161
682,20682,Nevill Hall Hospital,,Abergavenny,Gwent,NP7 5,,,,,,,51.8262232,-3.0354601
683,20683,Nevill Hospital,,Hove,East Sussex,BN3 7,,,,,,,50.8416129,-0.1923039
684,20684,New Cross Hospital,,Wolverhampton,West Midlands,WV1 1,,,,,Yes,,52.5996337,-2.092256
685,20685,New Epsom & Ewell Cottage Hospital,,Epsom,Surrey,KT19 8,,,,,No,,51.3416878,-0.3006154
686,20686,New Forest Birthing Centre,,Lyndhurst,Hampshire,SO43 7,,,,,No,,50.8914295,-1.5243853
687,20687,New Hall Hospital,,,Wiltshire,SP5 4,,,,,No,,51.0314781,-1.762348
688,20688,New Hall Hospital,,,Wiltshire,LL14 6,,,,,,,52.9988344,-3.0301235
689,20689,New Victoria Hospital,,Glasgow,Lanarkshire,G42 8,,,,,,,55.8286066,-4.2646834
690,20690,Newark Hospital,,Newark,Nottinghamshire,NG24 1,,,,,,,53.0691589,-0.8080994
691,20691,Newham University Hospital,,London,London,E13 8,,,,,,,51.5240073,0.0325502
692,20692,Newmarket Hospital (no A&E),,Newmarket,Suffolk,CB8 0,,,,,,,52.2511326,0.3982945
693,20693,Newquay Hospital,,Newquay,Cornwall,TR7 2,,,,,,,50.4116168,-5.0737191
694,20694,Newton Abbot Community Hospital,,Newton Abbot,Devon,TQ12 2,,,,,,,50.5388066,-3.6125651
695,20695,Nightingale Hospital,Lisson Grove nan,London,London,NW1 4,,,,,,,51.5220063,-0.1655817
696,20696,Nightingale House,Nightingale Lane 105,London,London,SW12 9,,,,,No,,51.4493578,-0.1606441
697,20697,Ninewells Hospital,,Dundee,Angus,DD2 4,,,,,Yes,,56.463356,-3.0436136
698,20698,Nithbank Hospital,,Dumfries,Dumfriesshire,DG1 2,,,,,No,,55.0630218,-3.6028574
699,20699,Norbury Health Centre,,London,London,SW16 3,,,,,,,51.4050376,-0.1204871
700,20700,North Cambridgeshire Hospital,,Wisbech,Cambridgeshire,PE13 1,,,,,No,,52.6643149,0.1636129
701,20701,North Cotswolds Hospital,,Moreton in Marsh,Gloucestershire,GL56 0,,,,,No,,51.9829309,-1.7084815
702,20702,North Devon District Hospital,,Barnstaple,Devon,EX31 4,,,,,Yes,,51.0923865,-4.0519548
703,20703,North End House,,Durham,County Durham,DH1 1,,,,,No,,54.7853402,-1.5916813
704,20704,North London Hospice Winchmore Hill,,London,London,N13 4,,,,,,,51.6250625,-0.0926452
705,20705,North Manchester General Hospital,,Manchester,Lancashire,M8 4,,,,,Yes,,53.518875,-2.2319204
706,20706,North Middlesex University Hospital,,London,London,N18 2,,,,,Yes,,51.6145069,-0.0724599
707,20707,North Staffordshire Hospital,,Stoke-on-Trent,Staffordshire,ST1 5,,,,,,,53.0081927,-2.2074099
708,20708,North Staffordshire Nuffield Hospital,Clayton Road nan,Newcastle,Staffordshire,ST5 4,,,,,,,52.9877534,-2.2240026
709,20709,North Tees Hospital,,Stockton-on-Tees,Cleveland,TS19 8,,,,,,,54.5812099,-1.3482246
710,20710,North Thoresby Practice,,Grimsby,South Humberside,DN36 5,,,,,No,,53.4650809,-0.05516
711,20711,North Tyneside General Hospital,Rake Lane nan,North Shields,Tyne And Wear,NE30 1,,+44 344 811 8111,,,,,55.0268552,-1.4656395
712,20712,"North West Independent Hospital, Ballykelly",Main Street nan,Limavady,County Londonderry,BT49 9,,+44 28 77763090,,,No,,55.0462895,-7.014972
713,20713,Northampton General Hospital,Cliftonville Road nan,Northampton,Northamptonshire,NN1 5,,,,,Yes,,52.2346424,-0.8789896
714,20714,Northern General Hospital,,Sheffield,South Yorkshire,S1 2,,,,,,,53.412629,-1.459318
715,20715,Northern Ireland Children's Hospice,,Newtownabbey,County Antrim,BT36 7,,,,,,,54.6544432,-5.9277026
716,20716,Northgate Hospital,,,Northumberland,NE61 3,,,,,,,55.1833944,-1.7099913
717,20717,Northgate Hospital,,Great Yarmouth,Norfolk,NR29 4,,,,,No,,52.6165347,1.7281202
718,20718,Northumbria Specialist Emergency Care Hospital,Northumbria Way nan,Cramlington,Northumberland,NE23 6,,,,,Yes,,55.0778941,-1.5666298
719,20719,Northwick Park Hospital,Watford Road nan,Harrow,Middlesex,HA1 3,,+44 20 8864 3232,,,Yes,,51.5763945,-0.3216656
720,20720,Norwich Community Hospital,,Norwich,Norfolk,NR1 3,,,,,No,,52.633151,1.2609495
721,20721,Nottingham Woodthorpe Hospital,Mansfield Road 748,Nottingham,Nottinghamshire,NG5 4,,,,,No,,52.9908388,-1.139222
722,20722,Nuffield Blackdown Hospital,,Leamington Spa,Warwickshire,CV32 6,,,,,No,,52.310927,-1.5407575
723,20723,Nuffield Clinic,,Plymouth,Devon,PL4 8,,,,,,,50.4185969,-4.1163031
724,20724,Nuffield Health Bournemouth Hospital,,Bournemouth,Dorset,BH2 5,,,,,,,50.7300554,-1.8705572
725,20725,Nuffield Health Brighton Hospital,Warren Road nan,Brighton,East Sussex,BN1 9,,,,,,,50.834858,-0.0826436
726,20726,Nuffield Health Cambridge Hospital,Trumpington Road 2-4,Cambridge,Cambridgeshire,CB3 9,,01223 370 922,,,No,,52.1904322,0.124051
727,20727,Nuffield Health Derby Hospital,Rykneld Road nan,Derby,Derbyshire,DE23 4,,,,,,,52.893579,-1.5320257
728,20728,Nuffield Health Glasgow Hospital,,Glasgow,Lanarkshire,G12 0,,,,,,,55.8853428,-4.3071797
729,20729,Nuffield Health Newcastle Hospital,Clayton Road nan,Newcastle upon Tyne,Tyne And Wear,NE2 2,,,,,No,,54.9863726,-1.6053942
730,20730,Nuffield Health Wessex Hospital,,Eastleigh,Hampshire,SO53 2,,,,,No,,50.9967244,-1.3608013
731,20731,Nuffield Health Woking Hospital,Shores Road nan,Woking,Surrey,GU21 4,,+44 1483 378996,,,No,,51.3317027,-0.5617435
732,20732,Nuffield Hospital,,Cheltenham,Gloucestershire,GL51 6,,,,,No,,51.8921878,-2.13028
733,20733,Nuffield Hospital,Wonford Road nan,Exeter,Devon,EX1 1,,,,,No,,50.717018,-3.5126445
734,20734,Nuffield Hospital,,York,North Yorkshire,YO23 1,,,,,No,,53.9741455,-1.0763128
735,20735,Nuffield Hospital,Leighton Street 2,Leeds,West Yorkshire,LS1 3,,,,,No,,53.8009676,-1.5545092
736,20736,Nuffield Hospital,,Brentwood,Essex,CM14 4,,,,,No,,51.6236501,0.3126719
737,20737,Nuffield Hospital,Broyle Road nan,Chichester,West Sussex,PO19 1,,,,,,,50.8478736,-0.7802745
738,20738,Nuffield Hospital Ipswich,,,Suffolk,IP4 5,,,,,,,52.0500143,1.2265096
739,20739,Nuffield Orthopaedic Centre,,Oxford,Oxfordshire,OX3 7,,,,,,,51.755766,-1.207889
740,20740,Nuffield Taunton,Showell Park nan,Taunton,Somerset,TA2 6,,,,,,,51.0286224,-3.1287312
741,20741,Nursing Home,,Liverpool,Merseyside,L3 8,,,,,,,53.4001749,-2.872302
742,20742,Oaklands Centre for Acute Care,Graylingwell Drive nan,Chichester,West Sussex,PO19 1,,,,,,,50.8471936,-0.7728157
743,20743,Oaklands Nursing Home,,Basildon,Essex,SS15 5,,,,,,,51.563968,0.4047585
744,20744,Old Rectory,,Colchester,Essex,CO2 7,,,,,,,51.8913236,0.8631952
745,20745,Olive Mount Hospital,,Liverpool,Merseyside,L3 8,,,,,,,53.4012728,-2.9131441
746,20746,One Hatfield Hospital,Hatfield Avenue 3,Hatfield,Hertfordshire,AL10 0,,,,,,,51.7715425,-0.236697
747,20747,One-Life Middlesbrough,,Middlesbrough,Cleveland,TS1 3,,,,,,,54.5660984,-1.2405383
748,20748,Orchard Private Hospital,Fairlee Road 189,,Isle Of Wight,,,,,,No,,50.7117588,-1.280154
749,20749,Ormskirk District General Hospital,,Ormskirk,Lancashire,L39 3,,,,,,,53.5649403,-2.8698417
750,20750,Orpington Hospital,,Orpington,Kent,BR6 0,,,,,,,51.3620724,0.0942426
751,20751,Orsborne House  NHS Substance Misuse Services,,Birmingham,West Midlands,B19 2,,,,,,,52.5013004,-1.9220096
752,20752,Ospadal Naomh Brianain,,Castlebay,Isle Of Barra,HS9 5,,,,,Yes,,56.9516611,-7.4973131
753,20753,Ospadal Uibhist agus Bharraigh,,Isle of Benbecula,Isle Of Benbecula,HS7 5,,+44 1870 603 600,,,,,57.4743529,-7.3852341
754,20754,Ospadal nan Eilean,,,Isle Of Benbecula,,,,,,,,58.2204571,-6.3860019
755,20755,Oswestry Minor Injuries Unit,,Oswestry,Shropshire,SY11 1,,,,,,,52.8622477,-3.0477456
756,20756,Ottery St Mary Hospital,,Ottery St Mary,Devon,EX11 1,,,,,,,50.7510628,-3.2907533
757,20757,Outwood Site,,Burton upon Trent,Staffordshire,DE13 0,,,,,,,52.8191323,-1.6595989
758,20758,Pages Lane Surgery,,Birmingham,West Midlands,B43 5,,,,,,,52.5455215,-1.9382563
759,20759,Paignton Hospital,,Paignton,Devon,TQ3 2,,,,,,,50.4369505,-3.5694721
760,20760,Palmer Community Hospital,Wear Street nan,Jarrow,Tyne And Wear,NE32 3,,+44 191 402 8000,,,No,,54.9804039,-1.4920417
761,20761,Park Attwood Clinic,,,Worcestershire,DY12 1,,,,,No,,52.4140649,-2.3001102
762,20762,Park House Nursing Home,,Liverpool,Merseyside,L23 5,,,,,,,53.4766148,-3.0215906
763,20763,Park Lee Hospital,,Blackburn,Lancashire,BB1 5,,,,,,,53.7344861,-2.4804059
764,20764,Park Lodge Independent Hospital,Sandy Lane 34,Stockport,Cheshire,SK6 4,,,,,No,,53.4178932,-2.0831262
765,20765,Park Road Children & Family Centre,,Birmingham,West Midlands,B11 4,,,,,,,52.4483922,-1.8675149
766,20766,Park View Clinic,,Birmingham,West Midlands,B13 9,,,,,,,52.4403748,-1.8969784
767,20767,Parkhead Hospital,Salamanca Street 81,Glasgow,Lanarkshire,G31 5,,,,,No,,55.8531165,-4.1973059
768,20768,Parklands Hospital,,Basingstoke,Hampshire,RG21 4,,,,,,,51.2830992,-1.1128445
769,20769,Parkside Lodge,Stanningley Road 16,Leeds,West Yorkshire,LS12 3,,,,,,,53.7990199,-1.590081
770,20770,Parkway Hospital (BUPA),,Solihull,West Midlands,B91 3,,,,,,,52.4215856,-1.7640342
771,20771,Parsloes Avenue Surgery,,Dagenham,Essex,RM10 8,,,,,,,51.5511286,0.1309329
772,20772,Paulton Memorial Hospital,,Bristol,Avon,BS39 7,,,,,,,51.2993421,-2.4927527
773,20773,Peninsula NHS Treatment Centre,Brest Road 20,Plymouth,Devon,PL6 8,,+44 1752 506 070,,,No,,50.4127462,-4.1191108
774,20774,Penn Hospital,,Wolverhampton,West Midlands,WV4 4,,,,,No,,52.5592712,-2.1602407
775,20775,Penntorr Health,,Torpoint,Cornwall,PL11 2,,,,,,,50.3749987,-4.2239552
776,20776,Penny Brohn Cancer Care,Chapel Pill Lane nan,Bristol,Avon,BS20 0,,,,,,,51.4786015,-2.6750978
777,20777,Penrith Hospital,Bridge Lane nan,Penrith,Cumbria,CA11 7,,+44 1768 245300,,,,,54.6564041,-2.741554
778,20778,Pershore Hospital,Queen Elizabeth Drive nan,Pershore,Worcestershire,WR10 1,,,,,,,52.1140111,-2.0781131
779,20779,Perth Royal Infirmary,,Perth,Perthshire,PH1 5,,,,,Yes,,56.3983917,-3.4557482
780,20780,Peterborough City Hospital,Bretton Gate nan,Peterborough,Cambridgeshire,PE3 9,,,,,Yes,,52.5875775,-0.2784728
781,20781,Peterlee Community Hospital,,Peterlee,County Durham,SR8 5,,,,,,,54.7549631,-1.3342976
782,20782,Petersfield Hospital,Swan Street nan,Bordon,Hampshire,GU35 9,,,,,,,51.0042084,-0.9426339
783,20783,Phoenix Hospital,West Hanningfield Road nan,Chelmsford,Essex,CM2 6,,,,,No,,51.7074607,0.5037531
784,20784,Pilgrim Hospital,,Boston,Lincolnshire,PE21 8,,,,,Yes,,52.993533,-0.0128345
785,20785,Pinderfields Hospital,,Wakefield,West Yorkshire,WF1 4,,,,,Yes,,53.6923593,-1.4854531
786,20786,Pinehill Hospital,Benslow Lane nan,Hitchin,Hertfordshire,SG5 2,,,,,No,,51.9500398,-0.2628796
787,20787,Pitlochry Community Hospital,Ferry Road nan,Pitlochry,Perthshire,PH16 5,,,,,,,56.7004466,-3.7366597
788,20788,Plas Coch Independant Hospital,,St Asaph,Clwyd,LL17 0,,,,,,,53.2646329,-3.457574
789,20789,Plymouth Grove Medical Centre,,Manchester,Lancashire,M3 3,,,,,No,,53.4641845,-2.225695
790,20790,Pontypridd and District Hospital,,Pontypridd,Mid Glamorgan,CF37 4,,,,,,,51.602567,-3.3268749
791,20791,Poole General Hospital,Longfleet Road nan,Poole,Dorset,BH15 1,,,,,Yes,,50.7224936,-1.9722287
792,20792,Porlock Medical Centre,,Watchet,Somerset,TA23 0,,,,,,,51.2100715,-3.596504
793,20793,Port Isaac Surgury,,Port Isaac,Cornwall,PL29 3,,,,,No,,50.5899022,-4.8257871
794,20794,Portland Hospital (Minor Injuries Unit),,Portland,Dorset,DT5 1,,,,,No,,50.5657563,-2.4453543
795,20795,Portree Community Hospital,Fancy Hill nan,,Isle Of Skye,,,,,,,,57.4105638,-6.1936081
796,20796,Portslade Health Centre,Church Road 69,Brighton,East Sussex,BN3 5,,,,,,,50.8337412,-0.2134954
797,20797,Potters Bar Community Hospital,Barnet Road nan,Potters Bar,Hertfordshire,EN6 5,,,,,,,51.6869385,-0.1782543
798,20798,Presentation Sisters Care Centre - former Convent School,Chesterfield Road nan,Matlock,Derbyshire,DE4 3,,,,,,,53.1423103,-1.5440842
799,20799,Prestwich Hospital,,Manchester,Lancashire,M3 3,,,,,,,53.5297398,-2.3026841
800,20800,Primrose Hill Community Hospital,Primrose Terrace nan,Jarrow,Tyne And Wear,NE32 3,,+44 191 451 6375,,,,,54.9676966,-1.4835527
801,20801,Prince Philip Hospital,,Llanelli,Dyfed,SA14 8,,,,,Yes,,51.6931734,-4.1355748
802,20802,Princes House,London Road 73a,Reading,Berkshire,RG1 4,,,,,,,51.4516397,-0.959317
803,20803,Princess Alexandra Eye Pavilion,,Edinburgh,Midlothian,EH2 3,,,,,,,55.9441519,-3.1986692
804,20804,Princess Alexandra Hospital,,Harlow,Essex,CM20 2,,,,,Yes,,51.7696283,0.0834007
805,20805,Princess Anne Hospital,,Southampton,Hampshire,SO15 2,,,,,No,,50.9353143,-1.4363634
806,20806,Princess Margaret Hospital,Osborne Road 38-42,Windsor,Berkshire,SL4 3,,,,,,,51.4748391,-0.610839
807,20807,Princess Royal,,Haywards Heath,West Sussex,RH16 4,,,,,,,50.9922292,-0.0915177
808,20808,Princess Royal Hospital,,Telford,Shropshire,TF3 2,,,,,Yes,,52.7139294,-2.5145602
809,20809,Princess Royal University Hospital,Farnborough Common nan,Orpington,Kent,BR6 8,,+44 1689 863000,,,Yes,,51.3666812,0.0605045
810,20810,Princess of Wales Community Hospital,,Bromsgrove,Worcestershire,B60 2,,,,,,,52.3447221,-2.0579439
811,20811,Princess of Wales Hospital,Lynn Road nan,Ely,Cambridgeshire,CB7 4,,,,,,,52.4133089,0.2770655
812,20812,Priory Health Park,,Wells,Somerset,BA5 1,,,,,,,51.2035333,-2.6537769
813,20813,Priory Hospital Blandford,Fairfield Bungalows nan,Blandford Forum,Dorset,DT11 7,,,,,,,50.8621963,-2.1632761
814,20814,Priory Hospital Bristol,,Bristol,Avon,BS7 9,,,,,,,51.4814363,-2.5650163
815,20815,Priory Hospital Chelmsford,Stump Lane nan,Chelmsford,Essex,CM2 6,,+44 1245 806412,,,No,,51.7423462,0.4884109
816,20816,Priory Hospital Nottingham,Ransom Road nan,Nottingham,Nottinghamshire,NG1 7,,,,,No,,52.9716152,-1.131306
817,20817,Prospect House,,Kettering,Northamptonshire,NN16 0,,,,,No,,52.4012479,-0.734443
818,20818,Prospect Park Hospital,,Reading,Berkshire,RG1 4,,,,,No,,51.4501591,-1.0135426
819,20819,Purley War Memorial Hospital,Brighton Road 856,Purley,Surrey,CR8 2,,+44 20 8401 3000,,,,,51.3400462,-0.1145764
820,20820,Queen Alexandra Hospital,,Portsmouth,Hampshire,PO1 4,,,,,Yes,,50.8525718,-1.0711767
821,20821,Queen Elizabeth Hospital,,Gateshead,Tyne And Wear,NE10 9,,,,,Yes,,54.9404627,-1.580839
822,20822,Queen Elizabeth Hospital,,King's Lynn,Norfolk,PE30 2,,,,,,,52.7592611,0.4437854
823,20823,Queen Elizabeth Hospital,Stadium Road nan,London,London,SW1A 2,,,,,,,51.4760992,0.0474751
824,20824,Queen Elizabeth II Hospital,,Welwyn Garden City,Hertfordshire,AL8 6,,,,,Yes,,51.7826293,-0.1871682
825,20825,Queen Elizabeth The Queen Mother Hospital,,Margate,Kent,CT9 4,,,,,Yes,,51.3773664,1.3920788
826,20826,Queen Margaret Hospital,Whitefield Road nan,Dunfermline,Fife,KY12 0,,,,,No,,56.0823399,-3.4321998
827,20827,Queen Mary's Hospital,Frognal Avenue nan,Sidcup,Kent,DA14 6,,,,,,,51.4190774,0.0994348
828,20828,Queen Mary's Hospital,Roehampton Lane 171,London,London,SW15 5,,,,,No,,51.4560126,-0.242792
829,20829,Queen Victoria,,Morecambe,Lancashire,LA4 5,,,,,,,54.0732792,-2.8597954
830,20830,Queen Victoria Hospital,,East Grinstead,West Sussex,RH19 1,,,,,,,51.133398,-0.0024377
831,20831,Queen Victoria Memorial Hospital,,Herne Bay,Kent,CT6 5,,,,,No,,51.3688216,1.1423731
832,20832,Queen's Hospital,,Burton upon Trent,Staffordshire,DE13 0,,,,,,,52.8154046,-1.6539051
833,20833,Queens Hospital,,Romford,Essex,RM1 3,,,,,Yes,,51.5697914,0.1772675
834,20834,Queens Medical Centre,Derby Road nan,Nottingham,Nottinghamshire,NG7 2,,,,,Yes,,52.9450197,-1.1873897
835,20835,RCH Child Development Centre,,Truro,Cornwall,TR1 1,,,,,No,,50.2680915,-5.0948176
836,20836,RCH Diabetes Centre,,Truro,Cornwall,TR1 1,,,,,No,,50.2678336,-5.0946507
837,20837,RMC,,Hook,Hampshire,RG29 1,,,,,,,51.2406967,-0.9471685
838,20838,Radyr Health Centre,,Cardiff,South Glamorgan,CF15 8,,,,,No,,51.5136029,-3.2527838
839,20839,Raigmore Hospital,,Inverness,Inverness-shire,IV3 5,,,,,Yes,,57.4739888,-4.1974909
840,20840,Rampton Secure Hospital,,Retford,Nottinghamshire,DN22 0,,,,,,,53.2903344,-0.8436281
841,20841,Randolph Wemyss Memorial Hospital,,Leven,Fife,KY8 1,,,,,No,,56.1766301,-3.0285589
842,20842,Reaside,,Birmingham,West Midlands,B3 3,,,,,,,52.4011473,-2.0110627
843,20843,Redcar Primary Care Hospital,,Redcar,Cleveland,TS10 1,,,,,No,,54.6018007,-1.0687957
844,20844,Rehabilitation Centre,,Sheffield,South Yorkshire,S1 2,,,,,,,53.4219105,-1.5202726
845,20845,Renacres Hospital,,Ormskirk,Lancashire,L39 8,,,,,,,53.6018256,-2.9542924
846,20846,Renal Dialysis Unit,Ringers Road nan,Bromley,Kent,BR1 1,,,,,,,51.4012379,0.0142919
847,20847,Renal Unit,,Plymouth,Devon,PL6 7,,,,,No,,50.419038,-4.0937679
848,20848,Retford Hospital,,Retford,Nottinghamshire,DN22 6,,,,,,,53.3261248,-0.9556841
849,20849,Ribbleton Hospital,,Preston,Lancashire,PR2 6,,,,,No,,53.7724328,-2.6570139
850,20850,Richardson Hospital,John Street nan,Barnard Castle,County Durham,DL12 8,,+44 1833 696 500,,,,,54.5470564,-1.9153571
851,20851,Richmond Primary Care Centre,,Birmingham,West Midlands,B25 8,,,,,,,52.4779302,-1.8164689
852,20852,Ridge Lea,,Lancaster,Lancashire,LA1 1,,,,,No,,54.0538374,-2.7763319
853,20853,Rikenel Health Centre,,Gloucester,Gloucestershire,GL1 2,,,,,No,,51.8609577,-2.2449909
854,20854,Ripley Hospital,Slack Lane nan,Ripley,Derbyshire,DE5 3,,,,,,,53.0474155,-1.4116787
855,20855,Ripon Hospital,Firby Lane nan,Ripon,North Yorkshire,HG4 2,,,,,No,,54.1358775,-1.5268393
856,20856,Riversdale Clinic,,Sleaford,Lincolnshire,NG34 7,,,,,No,,52.9989865,-0.4120269
857,20857,Riverside Lodge Intermediate Care Unit,,Birmingham,West Midlands,B10 0,,,,,,,52.4738036,-1.8375008
858,20858,Riverside Practice,,March,Cambridgeshire,PE15 8,,,,,,,52.551201,0.0827917
859,20859,Robert Jones and Agnes Hunt Orthopaedic Hospital,,,Shropshire,SY10 7,,,,,,,52.8860029,-3.0320269
860,20860,Robinson Hospital,,Ballymoney,County Antrim,BT53 6,,,,,,,55.0723663,-6.5073235
861,20861,Rochdale Infirmary,Whitehall Street nan,Rochdale,Lancashire,OL12 6,,,,,,,53.6226903,-2.1614364
862,20862,Rochford Hospital,,Rochford,Essex,SS4 1,,,,,No,,51.5838343,0.7020124
863,20863,Romsey Hospital,,Romsey,Hampshire,SO51 8,,,,,No,,50.9921879,-1.4827617
864,20864,Rookwood Hospital,,Cardiff,South Glamorgan,CF10 1,,,,,,,51.494076,-3.2271354
865,20865,Ross Hall Hospital,,Glasgow,Lanarkshire,G53 5,,,,,,,55.8395002,-4.3645149
866,20866,Ross Memorial Hospital,Ferry Road nan,Dingwall,Ross-shire,IV15 9,,,,,Yes,,57.5942792,-4.4189823
867,20867,Ross on Wye Community Hospital,,Ross-on-Wye,Herefordshire,HR9 7,,,,,No,,51.9126934,-2.5839779
868,20868,Rotherham General Hospital,,Rotherham,South Yorkshire,S60 2,,+44 1709 820000,,,Yes,,53.4165361,-1.3433016
869,20869,Rowanbank Clinic,,Glasgow,Lanarkshire,G21 4,,,,,,,55.8908989,-4.2202781
870,20870,Rowley Regis Hospital,,Rowley Regis,West Midlands,B65 9,,,,,,,52.4812817,-2.0540623
871,20871,Rowner Health Centre,,Gosport,Hampshire,PO12 1,,,,,,,50.8131345,-1.1740697
872,20872,Roxburgh House,,Aberdeen,Aberdeenshire,AB11 6,,,,,No,,57.1565371,-2.1259051
873,20873,Royal Aberdeen Childrens' Hospital,,Aberdeen,Aberdeenshire,AB25 2,,,,,Yes,,57.1540127,-2.1360865
874,20874,Royal Albert Edward Infirmary,,Wigan,Lancashire,WN1 1,,,,,,,53.5570651,-2.6284193
875,20875,Royal Alexandra Hospital,,Rhyl,Clwyd,LL18 2,,,,,No,,53.3266826,-3.4812995
876,20876,Royal Alexandra Hospital,,Paisley,Renfrewshire,PA2 6,,,,,,,55.8366433,-4.4365682
877,20877,Royal Berkshire Hospital,,Reading,Berkshire,RG1 5,,,,,Yes,,51.4512636,-0.9603579
878,20878,Royal Blackburn Teaching Hospital,Haslingden Road nan,Blackburn,Lancashire,BB1 2,,+44 1254 263555,,,,,53.7360144,-2.4572302
879,20879,Royal Bolton Hospital,,Bolton,Lancashire,BL4 7,,,,,,,53.5492636,-2.4289636
880,20880,Royal Bournemouth Hospital,Castle Lane East nan,Bournemouth,Dorset,BH7 7,,+44 1202 303626,,,Yes,,50.7490355,-1.8226467
881,20881,Royal Brompton Hospital,,London,London,SW3 4,,,,,,,51.489531,-0.1745613
882,20882,Royal Brompton Hospital,Sydney Street nan,London,London,SW3 4,,,,,No,,51.4900344,-0.170584
883,20883,Royal Cornhill Hospital,,Aberdeen,Aberdeenshire,AB11 6,,,,,,,57.1544392,-2.1135135
884,20884,Royal Cornwall Hospital,,Truro,Cornwall,TR1 3,,,,,Yes,,50.2665494,-5.0948077
885,20885,Royal Derby Hospital,Uttoxeter Road nan,Derby,Derbyshire,DE22 3,,,,,Yes,,52.910815,-1.5175535
886,20886,Royal Devon & Exeter Hospital (Heavitree),,Exeter,Devon,EX2 5,,,,,No,,50.724469,-3.5122492
887,20887,Royal Devon & Exeter Hospital (Wonford),,Exeter,Devon,EX2 5,,,,,Yes,,50.7154363,-3.5083266
888,20888,Royal Edinburgh Hospital,Morningside Place nan,Edinburgh,Midlothian,EH10 6,,+44 131 537 6000,,,No,,55.9253515,-3.2197988
889,20889,Royal Eye Unit,,Kingston upon Thames,Surrey,KT2 7,,,,,Yes,,51.4146443,-0.2815802
890,20890,Royal Free Hospital,,London,London,NW3 2,,,,,,,51.5534177,-0.1669805
891,20891,Royal Glamorgan Hospital,,Pontyclun,Mid Glamorgan,CF72 9,,,,,,,51.5468272,-3.3922789
892,20892,Royal Gwent Hospital,,Newport,Gwent,NP19 8,,,,,Yes,,51.5784099,-2.9984642
893,20893,Royal Hallamshire Hospital,,Sheffield,South Yorkshire,S1 2,,,,,,,53.3772153,-1.4936247
894,20894,Royal Hampshire County Hospital,,Winchester,Hampshire,SO23 9,,,,,,,51.0596783,-1.3337499
895,20895,Royal Hospital for Neuro-Disability,West Hill nan,London,London,SW18 4,,,,,,,51.4530533,-0.2129113
896,20896,Royal Hospital for Sick Children,,Edinburgh,Midlothian,EH9 2,,,,,,,55.9386521,-3.1893634
897,20897,Royal Infirmary of Edinburgh (Little France),,Edinburgh,Midlothian,EH16 4,,,,,Yes,,55.9245325,-3.1374028
898,20898,Royal Lancaster Infirmary,,Lancaster,Lancashire,LA1 4,,,,,Yes,,54.0411286,-2.798539
899,20899,Royal Leamington Spa Rehabilitation Hospital,,Warwick,Warwickshire,CV34 6,,,,,,,52.2698718,-1.5410728
900,20900,Royal Liverpool University Hospital,,Liverpool,Merseyside,L7 8,,,,,Yes,,53.4107138,-2.9625854
901,20901,Royal London Hospital,,London,London,E1 4,,,,,Yes,,51.5168488,-0.0584203
902,20902,Royal London Hospital for Integrated Medicine,,London,London,WC1H 9,,,,,,,51.5216534,-0.1211523
903,20903,Royal National ENT and Eastman Dental Hospitals,Huntley Street 47-49,London,London,WC1A 2,,+44 20 3456 7890,,,No,,51.5227717,-0.1348894
904,20904,Royal National Orthopaedic Hospital,,Harrow,Middlesex,HA1 3,,,,,,,51.6329579,-0.3175277
905,20905,"Royal National Throat, Nose and Ear Hospital",Gray's Inn Road 330-332,London,London,WC1H 9,,,,,,,51.5292391,-0.1198062
906,20906,Royal Northern Infirmary,Ness Walk nan,Inverness,Inverness-shire,IV3 5,,,,,No,,57.470417,-4.2324031
907,20907,Royal Orthopaedic Hospital,,Birmingham,West Midlands,B31 2,,,,,,,52.4217883,-1.9602998
908,20908,Royal Papworth Hospital(New),,Cambridge,Cambridgeshire,CB2 0,,,,,,,52.1741068,0.1369254
909,20909,Royal Shrewsbury Hospital,Mytton Oak Road nan,Shrewsbury,Shropshire,SY3 5,,,,,Yes,,52.7090367,-2.7973799
910,20910,Royal South Hants Hospital,Brintons Terrace nan,Southampton,Hampshire,SO15 2,,,,,,,50.9134271,-1.3964785
911,20911,Royal Stoke University Hospital,Newcastle Road nan,Newcastle,Staffordshire,ST5 2,,+44 1782 715444,,,Yes,,53.0047269,-2.216797
912,20912,Royal Sussex County Hospital,,Brighton,East Sussex,BN2 5,,,,,,,50.8201539,-0.1187683
913,20913,Royal United Hospital,Combe Park nan,Bath,Avon,BA1 2,,,,,,,51.3902046,-2.3914026
914,20914,Royal Victoria Hospital,,Dundee,Angus,DD1 3,,,,,No,,56.46142,-3.0165467
915,20915,Royal Victoria Hospital and Folkestone Minor Injury Unit,,Folkestone,Kent,CT19 5,,,,,No,,51.0858433,1.1709519
916,20916,Royal Victoria Infirmary,Queen Victoria Road nan,Newcastle upon Tyne,Tyne And Wear,NE1 4,,+44 191 233 6161,,,Yes,,54.9793142,-1.6216169
917,20917,Royston Hospital,,Royston,Hertfordshire,SG8 7,,,,,,,52.0407395,-0.0216602
918,20918,Runcorn Road Dialysis Unit,,Birmingham,West Midlands,B5 7,,,,,No,,52.4558381,-1.8839642
919,20919,Rush Court,,,Oxfordshire,OX10 8,,,,,,,51.6191003,-1.1306668
920,20920,Rushden Hospital,,Rushden,Northamptonshire,NN10 0,,,,,No,,52.2826296,-0.5981734
921,20921,Russells Hall Hospital,,Dudley,West Midlands,DY2 8,,,,,Yes,,52.5021955,-2.1228932
922,20922,Ruth Lancaster James Hospital,,Alston,Cumbria,CA9 3,,,,,,,54.8097956,-2.4416128
923,20923,Ruthin Community Hospital,Llanrhydd Street nan,Ruthin,Clwyd,LL15 1,,,,,,,53.1132021,-3.3045988
924,20924,Saint Andrew's Healthcare,,Birmingham,West Midlands,B3 3,,,,,,,52.4358617,-1.9168743
925,20925,Saint David's Hospital,,Cardiff,South Glamorgan,CF11 9,,,,,,,51.481287,-3.1945258
926,20926,Saint John's Hospice,,Wirral,Merseyside,CH49 2,,,,,,,53.3347795,-3.0221524
927,20927,Saint John's Hospital,,Livingston,West Lothian,EH54 6,,,,,Yes,,55.8944352,-3.5209921
928,20928,Saint Leonards Hospital,,London,London,N1 6,,,,,,,51.534094,-0.0800931
929,20929,Saint Margaret's Hospital,,Epping,Essex,CM16 4,,,,,,,51.7034425,0.1227158
930,20930,Saint Martin's Hospital,Clara Cross Lane nan,Bath,Avon,BA1 2,,,,,,,51.3588181,-2.3727217
931,20931,Saint Mary's,Milton Road nan,,Hampshire,,,,,,No,,50.8006826,-1.0640949
932,20932,Saint Mary's Hospital,,St Mary's,Isles Of Scilly,TR21 0,,,,,,,49.9130351,-6.3088591
933,20933,Saint Oswald's Hospital,Clifton Road nan,Ashbourne,Derbyshire,DE6 1,,,,,No,,53.0125548,-1.7407634
934,20934,Saint Peter's Hospice,Charlton Road nan,Bristol,Avon,BS10 6,,,,,,,51.5057374,-2.6102185
935,20935,Saint Tydfil's Hospital,,Merthyr Tydfil,Mid Glamorgan,CF47 8,,,,,,,51.7489279,-3.3762778
936,20936,Salford Royal Hospital,,Salford,Lancashire,M6 8,,,,,,,53.4890222,-2.3254164
937,20937,Salisbury District Hospital,,Salisbury,Wiltshire,SP2 8,,,,,Yes,,51.0433179,-1.7904897
938,20938,Samuel Johnson Community Hospital,,Lichfield,Staffordshire,WS13 6,,,,,,,52.6860175,-1.816108
939,20939,Sandwell General Hospital,,West Bromwich,West Midlands,B71 4,,,,,Yes,,52.5292088,-1.9896382
940,20940,Sandwell Park Hospital,Lancaster Road nan,Hartlepool,Cleveland,TS24 8,,,,,No,,54.6923311,-1.2134066
941,20941,Sarum Road Hospital (BMI),,Winchester,Hampshire,SO23 9,,,,,No,,51.0617974,-1.3405411
942,20942,Scarborough Hospital,Woodlands Drive nan,Scarborough,North Yorkshire,YO12 5,,+44 1723 368111,,,Yes,,54.2830844,-0.4389059
943,20943,Scole Lodge Nursing Home,,,Norfolk,IP21 4,,,,,,,52.3745468,1.1681771
944,20944,Scunthorpe General Hospital,Cliff Gardens nan,Scunthorpe,South Humberside,DN15 6,,,,,Yes,,53.5859046,-0.6695071
945,20945,Seacroft Hospital,York Road nan,Leeds,West Yorkshire,LS14 1,,,,,,,53.806179,-1.4741501
946,20946,Seafield Hospital,,Buckie,Banffshire,AB56 1,,,,,,,57.6688975,-2.9811775
947,20947,Seaton Hospital,Valley View nan,Seaton,Devon,EX12 2,,,,,,,50.7116738,-3.0710082
948,20948,Sedgefield Community Hospital,,Stockton-on-Tees,Cleveland,TS21 3,,,,,,,54.6633347,-1.4521118
949,20949,Sevenoaks Hospital,Hospital Road nan,Sevenoaks,Kent,TN13 1,,,,,No,,51.2873326,0.1968364
950,20950,Sexey's Hospital,High Street 1-30,Bruton,Somerset,BA10 0,,,,,,,51.1109403,-2.4571954
951,20951,Shakespeare Hospice,Church Lane nan,Stratford upon Avon,Warwickshire,CV37 9,,,,,,,52.1935536,-1.7314535
952,20952,Sheffield Children's Hospital,Western Bank nan,Sheffield,South Yorkshire,S10 2,,+44 1142 717000,,,,,53.3810038,-1.4916146
953,20953,Sheppey Community Hospital,,,Kent,,,,,,,,51.4153553,0.7911554
954,20954,Shepton Mallet Community Hospital,,Shepton Mallet,Somerset,BA4 5,,,,,,,51.1894235,-2.5634033
955,20955,Shettleston Day Hospital & Parkview Resource Centre,,Glasgow,Lanarkshire,G32 7,,,,,,,55.8491558,-4.1759207
956,20956,Shipley Hospital,,Shipley,West Yorkshire,BD17 7,,,,,No,,53.8335189,-1.7863858
957,20957,Shire Hill Hospital,,Glossop,Derbyshire,SK13 8,,,,,,,53.4534595,-1.9390958
958,20958,Shirley Oaks Hospital,Poppy Lane nan,Croydon,Surrey,CR0 1,,,,,,,51.3816705,-0.0571947
959,20959,Shotley Bridge Hospital,,Consett,County Durham,DH8 5,,,,,,,54.8694643,-1.8422611
960,20960,Sir GB Hunter Memorial Hospital,The Green nan,Wallsend,Tyne And Wear,NE28 8,,+44 191 2205968,,,,,54.9964189,-1.5315239
961,20961,Sir Robert Peel,Plantation Lane nan,Tamworth,Staffordshire,B78 3,,,,,,,52.6202237,-1.7236358
962,20962,Skegness Hospital,,Skegness,Lincolnshire,PE25 2,,,,,,,53.1453901,0.3318822
963,20963,Sleaford Medical Group,,Sleaford,Lincolnshire,NG34 7,,,,,No,,52.9976108,-0.4064676
964,20964,Smithdown NHS Walk-in,,Liverpool,Merseyside,L3 8,,,,,,,53.3932702,-2.9350072
965,20965,Solihull Hospital,,Solihull,West Midlands,B91 3,,,,,Yes,,52.4192901,-1.7744336
966,20966,Soss Moss Hospital,,,Cheshire,SK10 4,,,,,,,53.2854342,-2.2662089
967,20967,South Bristol NHS Community Hospital,Hengrove Promenade nan,Bristol,Avon,BS1 6,,,,,No,,51.4127565,-2.5837386
968,20968,South Hams (Kingsbridge) Hospital,,Kingsbridge,Devon,TQ7 1,,,,,,,50.2892398,-3.7821655
969,20969,South Liverpool NHS Treatment Centre,,Liverpool,Merseyside,L19 2,,,,,,,53.3553414,-2.895925
970,20970,South Pembrokeshire Hospital,,Pembroke Dock,Dyfed,SA72 6,,,,,,,51.6936521,-4.9591172
971,20971,South Petherton Hospital,,South Petherton,Somerset,TA13 5,,,,,No,,50.9527512,-2.7995832
972,20972,South Tyneside District Hospital,Harton Lane nan,South Shields,Tyne And Wear,NE34 0,,+44 191 404 1000,,,Yes,,54.9692711,-1.4283639
973,20973,South Tyrone Hospital,Carland Road nan,Dungannon,County Tyrone,BT70 1,,+44 2887 722821,,,,,54.5088397,-6.7674555
974,20974,South West Acute Hospital,Irvinestown Road 124,,County Fermanagh,BT74 6,,028 6638 2000,,,Yes,,54.3663052,-7.641402
975,20975,South West Regional Laboratories,,Bristol,Avon,BS2 8,,,,,,,51.4599627,-2.600902
976,20976,Southampton General Hospital,Tremona Road nan,Southampton,Hampshire,SO16 6,,,,,Yes,,50.9346335,-1.4344882
977,20977,Southend University Hospital,,Westcliff-on-Sea,Essex,SS0 9,,,,,,,51.5547277,0.6850417
978,20978,Southlands Hospital,Upper Shoreham Road nan,Shoreham-by-Sea,West Sussex,BN43 5,,,,,No,,50.840872,-0.2588555
979,20979,Southmead Hospital,Southmead Road nan,Bristol,Avon,BS10 5,,+44 117 9505050,,,Yes,,51.4992178,-2.5946593
980,20980,Southport and Formby District General Hospital,,Southport,Merseyside,PR8 6,,,,,Yes,,53.6321327,-2.980438
981,20981,Southwold Hospital,,Southwold,Suffolk,IP18 6,,,,,,,52.3293381,1.6785048
982,20982,Spa Medica eye clinic,,,West Yorkshire,,,,,,No,,53.6830079,-1.5486665
983,20983,Spire,Old Watton Road nan,Norwich,Norfolk,NR4 7,,+44 1603 456181,,,,,52.6267319,1.2234582
984,20984,Spire Alexandra Hospital,Impton Lane nan,Chatham,Kent,ME4 4,,,,,No,,51.3279933,0.5258305
985,20985,Spire Bristol,Redland Hill nan,Bristol,Avon,BS6 6,,,,,,,51.4721551,-2.6150875
986,20986,Spire Cardiff Hospital,Croescadarn Road nan,Cardiff,South Glamorgan,CF23 7,,+44 29 2054 2509,,,,,51.5308293,-3.141905
987,20987,Spire Cheshire Hospital,,Warrington,Cheshire,WA2 7,,,,,,,53.3371489,-2.5762991
988,20988,Spire Cosmetic Surgery Clare Park Hospital,,,Hampshire,GU10 5,,,,,,,51.2250845,-0.8476951
989,20989,Spire Dunedin Hospital,Bath Road 16,Reading,Berkshire,RG1 4,,,,,,,51.4503583,-0.9854054
990,20990,Spire Fylde Coast Hospital,St Walburgas Road nan,Blackpool,Lancashire,FY1 5,,+44 1253 394 188,,,No,,53.8267561,-3.0188787
991,20991,Spire Gatwick Park Hospital (Private),,Horley,Surrey,RH6 0,,,,,,,51.1675748,-0.1848551
992,20992,Spire Hospital Portsmouth,,,Hampshire,PO9 5,,,,,No,,50.8683025,-0.9554529
993,20993,Spire Leeds Hospital,Jackson Avenue nan,Leeds,West Yorkshire,LS8 1,,,,,No,,53.8315991,-1.5149117
994,20994,Spire Leicester Hospital,,,Leicestershire,LE2 2,,,,,No,,52.6135292,-1.0786815
995,20995,Spire Liverpool Hospital,,Liverpool,Merseyside,L18 5,,,,,,,53.384583,-2.9245402
996,20996,Spire London East,,Woodford Green,Essex,IG8 0,,,,,,,51.5880097,0.0448492
997,20997,Spire Murrayfield Hospital,,Edinburgh,Midlothian,EH12 7,,,,,,,55.9446258,-3.2673733
998,20998,Spire Nottingham Hospital,Tollerton Lane nan,,Nottinghamshire,NG12 4,,,,,No,,52.9185025,-1.0821379
999,20999,Spire Southampton Hospital,,Southampton,Hampshire,SO15 2,,,,,No,,50.9300195,-1.4337051
1000,21000,Spire Southbank Hospital,Bath Road nan,Worcester,Worcestershire,WR1 2,,,,,No,,52.1815766,-2.2173451
1001,21001,Spire Washington Hospital,Picktree Lane nan,Washington,Tyne And Wear,NE38 9,,,,,,,54.8798109,-1.5594497
1002,21002,Springdene Nursing Home,Oakleigh Park North 55,London,London,N20 9,,,,,,,51.6345967,-0.1681892
1003,21003,Springfield Hospital,Lawn Lane nan,Chelmsford,Essex,CM2 6,,+44 1245 952741,,,No,,51.7527105,0.4845615
1004,21004,Springfield University Hospital,,London,London,SW1A 2,,,,,,,51.4347323,-0.1742543
1005,21005,Springwood Gardens,,Liverpool,Merseyside,L3 8,,,,,,,53.364251,-2.8856748
1006,21006,St Albans City Hospital,,St Albans,Hertfordshire,AL1 3,,,,,No,,51.7610433,-0.3438233
1007,21007,St Andrew's Surgery,Market Street nan,Eastleigh,Hampshire,SO50 9,,,,,No,,50.9655729,-1.3524687
1008,21008,St Andrews Community Hospital,,St Andrews,Fife,KY16 9,,,,,No,,56.3271036,-2.8066733
1009,21009,St Andrews Hospital,Cliftonville Road nan,Northampton,Northamptonshire,NN1 5,,+44 1604 616000,,,,,52.2383724,-0.8765672
1010,21010,St Ann's Hospital,St Ann's Road nan,London,London,SW1A 2,,,,,No,,51.5788988,-0.0926909
1011,21011,St Annes Hospice,,Cheadle,Cheshire,SK8 3,,,,,No,,53.3754219,-2.227536
1012,21012,St Annes House,,St Leonards on Sea,East Sussex,TN37 7,,,,,,,50.8861087,0.5637676
1013,21013,St Anthony's,,Worcester Park,Surrey,KT4 8,,,,,,,51.3794467,-0.2199891
1014,21014,St Aubyn Centre,,Colchester,Essex,CO4 5,,,,,,,51.9182529,0.893675
1015,21015,St Augustines Hospital,Cobridge Road 355,Stoke-on-Trent,Staffordshire,ST1 5,,,,,No,,53.0340135,-2.1886343
1016,21016,St Bartholomew's Hospital,,London,London,EC1V 7,,,,,,,51.5178927,-0.1010907
1017,21017,St Bernards Hospital (West London Mental Health NHS Trust),,Southall,Middlesex,UB1 1,,,,,,,51.5088427,-0.3498349
1018,21018,St Catherine's Nursing Home,Spring Road nan,Letchworth,Hertfordshire,SG6 2,,,,,,,51.969394,-0.2315003
1019,21019,St Catherines,,Birkenhead,Merseyside,CH41 4,,,,,,,53.3808809,-3.0248002
1020,21020,St Charles' Hospital,,London,London,W10 5,,,,,,,51.5225834,-0.219303
1021,21021,St Davids Independant Hospital,Plas Hyfryd nan,,London,LL21 9,,,,,,,52.9845118,-3.3044479
1022,21022,St George's Hospital,Blackshaw Road nan,London,London,SW17 0,,,,,Yes,,51.428741,-0.1740975
1023,21023,St George's Hospital,,Morpeth,Northumberland,NE61 1,,,,,,,55.176458,-1.6807642
1024,21024,St George's Hospital,,Stafford,Staffordshire,ST16 2,,,,,,,52.8126501,-2.1121945
1025,21025,St Georges Hospital,,Lincoln,Lincolnshire,LN5 7,,,,,No,,53.2440816,-0.5591108
